{"type":"FeatureCollection","features":[{"type":"Feature","properties":{"highway":"bus_stop","public_transport":"platform","name":"Ringvaartplas","ref:IFOPT":"NL:Q:31002740","_quaycode":"NL:Q:31002740","_town":"Rotterdam","_status":"available","_mode":"bus","_direction":56,"_visuallyAccessible":true,"_disabledAccessible":true,"geojson_lng":4.544396864455327,"geojson_lat":51.927377728387455},"geometry":{"type":"Point","coordinates":[4.544396864455327,51.927377728387455]}},{"type":"Feature","properties":{"highway":"bus_stop","public_transport":"platform","name":"Rossinistraat","ref:IFOPT":"NL:Q:31002575","_quaycode":"NL:Q:31002575","_town":"Capelle aan den IJssel","_status":"available","_mode":"bus","_direction":103,"_visuallyAccessible":false,"_disabledAccessible":true,"geojson_lng":4.563761995734739,"geojson_lat":51.91711510334796},"geometry":{"type":"Point","coordinates":[4.563761995734739,51.91711510334796]}},{"type":"Feature","properties":{"highway":"bus_stop","public_transport":"platform","name":"Damstraat","ref:IFOPT":"NL:Q:31000790","_quaycode":"NL:Q:31000790","_town":"Rotterdam","_status":"available","_mode":"bus","_direction":0,"_visuallyAccessible":false,"_disabledAccessible":false,"geojson_lng":4.507459544465902,"geojson_lat":51.90847350884126},"geometry":{"type":"Point","coordinates":[4.507459544465902,51.90847350884126]}},{"type":"Feature","properties":{"highway":"bus_stop","public_transport":"platform","name":"Korte Stadionweg","ref:IFOPT":"NL:Q:31000500","_quaycode":"NL:Q:31000500","_town":"Rotterdam","_status":"available","_mode":"bus","_direction":125,"_visuallyAccessible":null,"_disabledAccessible":null,"geojson_lng":4.516735999999997,"geojson_lat":51.89848421237682},"geometry":{"type":"Point","coordinates":[4.516735999999997,51.89848421237682]}},{"type":"Feature","properties":{"highway":"bus_stop","public_transport":"platform","name":"Station Zuid/Steenplaat","ref:IFOPT":"NL:Q:31000357","_quaycode":"NL:Q:31000357","_town":"Rotterdam","_status":"available","_mode":"bus","_direction":240,"_visuallyAccessible":null,"_disabledAccessible":null,"geojson_lng":4.512540100000002,"geojson_lat":51.903549660420666},"geometry":{"type":"Point","coordinates":[4.512540100000002,51.903549660420666]}},{"type":"Feature","properties":{"highway":"bus_stop","public_transport":"platform","name":"Vuurplaat","ref:IFOPT":"NL:Q:31000990","_quaycode":"NL:Q:31000990","_town":"Rotterdam","_status":"available","_mode":"bus","_direction":34,"_visuallyAccessible":null,"_disabledAccessible":null,"geojson_lng":4.50338341409843,"geojson_lat":51.90446206000109},"geometry":{"type":"Point","coordinates":[4.50338341409843,51.90446206000109]}},{"type":"Feature","properties":{"highway":"bus_stop","public_transport":"platform","name":"Putsebocht","ref:IFOPT":"NL:Q:31006908","_quaycode":"NL:Q:31006908","_town":"Rotterdam","_status":"available","_mode":"bus","_direction":305,"_visuallyAccessible":null,"_disabledAccessible":null,"geojson_lng":4.502361199999998,"geojson_lat":51.89799032701005},"geometry":{"type":"Point","coordinates":[4.502361199999998,51.89799032701005]}},{"type":"Feature","properties":{"highway":"bus_stop","public_transport":"platform","name":"Beijerlandselaan","ref:IFOPT":"NL:Q:31006909","_quaycode":"NL:Q:31006909","_town":"Rotterdam","_status":"available","_mode":"bus","_direction":0,"_visuallyAccessible":null,"_disabledAccessible":null,"geojson_lng":4.5110750000000035,"geojson_lat":51.897453377886876},"geometry":{"type":"Point","coordinates":[4.5110750000000035,51.897453377886876]}},{"type":"Feature","properties":{"highway":"bus_stop","public_transport":"platform","name":"Wingerd","ref:IFOPT":"NL:Q:31002396","_quaycode":"NL:Q:31002396","_town":"Capelle aan den IJssel","_status":"available","_mode":"bus","_direction":349,"_visuallyAccessible":false,"_disabledAccessible":false,"geojson_lng":4.567599688640236,"geojson_lat":51.93304283221995},"geometry":{"type":"Point","coordinates":[4.567599688640236,51.93304283221995]}},{"type":"Feature","properties":{"highway":"bus_stop","public_transport":"platform","name":"Beltmolen","ref:IFOPT":"NL:Q:31002771","_quaycode":"NL:Q:31002771","_town":"Capelle aan den IJssel","_status":"available","_mode":"bus","_direction":211,"_visuallyAccessible":false,"_disabledAccessible":false,"geojson_lng":4.565994394019919,"geojson_lat":51.93733718404944},"geometry":{"type":"Point","coordinates":[4.565994394019919,51.93733718404944]}},{"type":"Feature","properties":{"highway":"bus_stop","public_transport":"platform","name":"Schinnenbaan","ref:IFOPT":"NL:Q:31006182","_quaycode":"NL:Q:31006182","_town":"Rotterdam","_status":"available","_mode":"bus","_direction":96,"_visuallyAccessible":true,"_disabledAccessible":false,"geojson_lng":4.56801214768684,"geojson_lat":51.89845737542103},"geometry":{"type":"Point","coordinates":[4.56801214768684,51.89845737542103]}},{"type":"Feature","properties":{"highway":"bus_stop","public_transport":"platform","name":"Zinkerstraat","ref:IFOPT":"NL:Q:31000678","_quaycode":"NL:Q:31000678","_town":"Rotterdam","_status":"available","_mode":"bus","_direction":146,"_visuallyAccessible":true,"_disabledAccessible":true,"geojson_lng":4.508808065524354,"geojson_lat":51.91234874451127},"geometry":{"type":"Point","coordinates":[4.508808065524354,51.91234874451127]}},{"type":"Feature","properties":{"highway":"bus_stop","public_transport":"platform","name":"Strevelsweg","ref:IFOPT":"NL:Q:31000547","_quaycode":"NL:Q:31000547","_town":"Rotterdam","_status":"available","_mode":"bus","_direction":268,"_visuallyAccessible":false,"_disabledAccessible":true,"geojson_lng":4.495859375264399,"geojson_lat":51.88955467864779},"geometry":{"type":"Point","coordinates":[4.495859375264399,51.88955467864779]}},{"type":"Feature","properties":{"highway":"bus_stop","public_transport":"platform","name":"Roentgenstraat","ref:IFOPT":"NL:Q:31000194","_quaycode":"NL:Q:31000194","_town":"Rotterdam","_status":"available","_mode":"bus","_direction":61,"_visuallyAccessible":true,"_disabledAccessible":true,"geojson_lng":4.502936009558235,"geojson_lat":51.9123586424711},"geometry":{"type":"Point","coordinates":[4.502936009558235,51.9123586424711]}},{"type":"Feature","properties":{"highway":"bus_stop","public_transport":"platform","name":"Sibeliusweg","ref:IFOPT":"NL:Q:31002736","_quaycode":"NL:Q:31002736","_town":"Capelle aan den IJssel","_status":"available","_mode":"bus","_direction":140,"_visuallyAccessible":false,"_disabledAccessible":true,"geojson_lng":4.5595859431938015,"geojson_lat":51.91813744575662},"geometry":{"type":"Point","coordinates":[4.5595859431938015,51.91813744575662]}},{"type":"Feature","properties":{"highway":"bus_stop","public_transport":"platform","name":"Oosterflank Metro/Hoeksteen","ref:IFOPT":"NL:Q:31002490","_quaycode":"NL:Q:31002490","_town":"Rotterdam","_status":"available","_mode":"bus","_direction":81,"_visuallyAccessible":false,"_disabledAccessible":true,"geojson_lng":4.5557744876205915,"geojson_lat":51.94501355995677},"geometry":{"type":"Point","coordinates":[4.5557744876205915,51.94501355995677]}},{"type":"Feature","properties":{"highway":"bus_stop","public_transport":"platform","name":"Noorderbrug","ref:IFOPT":"NL:Q:31002270","_quaycode":"NL:Q:31002270","_town":"Rotterdam","_status":"available","_mode":"bus","_direction":20,"_visuallyAccessible":false,"_disabledAccessible":false,"geojson_lng":4.486465392801778,"geojson_lat":51.93065146692372},"geometry":{"type":"Point","coordinates":[4.486465392801778,51.93065146692372]}},{"type":"Feature","properties":{"highway":"bus_stop","public_transport":"platform","name":"Maashaven","ref:IFOPT":"NL:Q:31000841","_quaycode":"NL:Q:31000841","_town":"Rotterdam","_status":"available","_mode":"bus","_direction":25,"_visuallyAccessible":false,"_disabledAccessible":false,"geojson_lng":4.495810110841899,"geojson_lat":51.89790485422535},"geometry":{"type":"Point","coordinates":[4.495810110841899,51.89790485422535]}},{"type":"Feature","properties":{"highway":"bus_stop","public_transport":"platform","name":"Burgdorfferstraat","ref:IFOPT":"NL:Q:31000570","_quaycode":"NL:Q:31000570","_town":"Rotterdam","_status":"available","_mode":"bus","_direction":308,"_visuallyAccessible":false,"_disabledAccessible":true,"geojson_lng":4.5066049412207105,"geojson_lat":51.90758621343929},"geometry":{"type":"Point","coordinates":[4.5066049412207105,51.90758621343929]}},{"type":"Feature","properties":{"highway":"bus_stop","public_transport":"platform","name":"Kralingse Zoom","ref:IFOPT":"NL:Q:53110410","_quaycode":"NL:Q:53110410","_town":"Rotterdam","_status":"available","_mode":"bus","_direction":30,"_visuallyAccessible":false,"_disabledAccessible":true,"geojson_lng":4.532448341459807,"geojson_lat":51.921889262794075},"geometry":{"type":"Point","coordinates":[4.532448341459807,51.921889262794075]}},{"type":"Feature","properties":{"highway":"bus_stop","public_transport":"platform","name":"Van Beethovenlaan","ref:IFOPT":"NL:Q:31002737","_quaycode":"NL:Q:31002737","_town":"Capelle aan den IJssel","_status":"available","_mode":"bus","_direction":180,"_visuallyAccessible":false,"_disabledAccessible":false,"geojson_lng":4.556760558836312,"geojson_lat":51.914495087001946},"geometry":{"type":"Point","coordinates":[4.556760558836312,51.914495087001946]}},{"type":"Feature","properties":{"highway":"bus_stop","public_transport":"platform","name":"Sandelingplein","ref:IFOPT":"NL:Q:31000447","_quaycode":"NL:Q:31000447","_town":"Rotterdam","_status":"available","_mode":"bus","_direction":90,"_visuallyAccessible":false,"_disabledAccessible":true,"geojson_lng":4.507015130868961,"geojson_lat":51.8896028312032},"geometry":{"type":"Point","coordinates":[4.507015130868961,51.8896028312032]}},{"type":"Feature","properties":{"highway":"bus_stop","public_transport":"platform","name":"Koninginnebrug","ref:IFOPT":"NL:Q:31002138","_quaycode":"NL:Q:31002138","_town":"Rotterdam","_status":"available","_mode":"bus","_direction":227,"_visuallyAccessible":false,"_disabledAccessible":false,"geojson_lng":4.4961208896211176,"geojson_lat":51.913017277656046},"geometry":{"type":"Point","coordinates":[4.4961208896211176,51.913017277656046]}},{"type":"Feature","properties":{"highway":"bus_stop","public_transport":"platform","name":"Lombokstraat","ref:IFOPT":"NL:Q:31000188","_quaycode":"NL:Q:31000188","_town":"Rotterdam","_status":"available","_mode":"bus","_direction":79,"_visuallyAccessible":false,"_disabledAccessible":true,"geojson_lng":4.48746243077521,"geojson_lat":51.9004659453797},"geometry":{"type":"Point","coordinates":[4.48746243077521,51.9004659453797]}},{"type":"Feature","properties":{"highway":"bus_stop","public_transport":"platform","name":"Schaardijk","ref:IFOPT":"NL:Q:31006501","_quaycode":"NL:Q:31006501","_town":"Rotterdam","_status":"available","_mode":"bus","_direction":340,"_visuallyAccessible":false,"_disabledAccessible":false,"geojson_lng":4.541973592211385,"geojson_lat":51.90625491868913},"geometry":{"type":"Point","coordinates":[4.541973592211385,51.90625491868913]}},{"type":"Feature","properties":{"highway":"bus_stop","public_transport":"platform","name":"Henri Eversstraat","ref:IFOPT":"NL:Q:31002197","_quaycode":"NL:Q:31002197","_town":"Rotterdam","_status":"available","_mode":"bus","_direction":82,"_visuallyAccessible":false,"_disabledAccessible":true,"geojson_lng":4.549886666811231,"geojson_lat":51.9440819070469},"geometry":{"type":"Point","coordinates":[4.549886666811231,51.9440819070469]}},{"type":"Feature","properties":{"highway":"bus_stop","public_transport":"platform","name":"Sportsingel","ref:IFOPT":"NL:Q:31000455","_quaycode":"NL:Q:31000455","_town":"Rotterdam","_status":"available","_mode":"bus","_direction":94,"_visuallyAccessible":false,"_disabledAccessible":false,"geojson_lng":4.535651180068682,"geojson_lat":51.89325655488719},"geometry":{"type":"Point","coordinates":[4.535651180068682,51.89325655488719]}},{"type":"Feature","properties":{"highway":"bus_stop","public_transport":"platform","name":"Fascinatio","ref:IFOPT":"NL:Q:31006108","_quaycode":"NL:Q:31006108","_town":"Capelle aan den IJssel","_status":"available","_mode":"bus","_direction":271,"_visuallyAccessible":false,"_disabledAccessible":false,"geojson_lng":4.5472044848842,"geojson_lat":51.91484964652443},"geometry":{"type":"Point","coordinates":[4.5472044848842,51.91484964652443]}},{"type":"Feature","properties":{"highway":"bus_stop","public_transport":"platform","name":"Kralingse Zoom ","ref:IFOPT":"NL:Q:31002960","_quaycode":"NL:Q:31002960","_town":"Rotterdam","_status":"available","_mode":"bus","_direction":212,"_visuallyAccessible":false,"_disabledAccessible":false,"geojson_lng":4.532567187975028,"geojson_lat":51.9217552967564},"geometry":{"type":"Point","coordinates":[4.532567187975028,51.9217552967564]}},{"type":"Feature","properties":{"highway":"bus_stop","public_transport":"platform","name":"Rivium Promenade","ref:IFOPT":"NL:Q:31006112","_quaycode":"NL:Q:31006112","_town":"Capelle aan den IJssel","_status":"available","_mode":"bus","_direction":248,"_visuallyAccessible":false,"_disabledAccessible":true,"geojson_lng":4.544582188717673,"geojson_lat":51.907415214784336},"geometry":{"type":"Point","coordinates":[4.544582188717673,51.907415214784336]}},{"type":"Feature","properties":{"highway":"bus_stop","public_transport":"platform","name":"Zeldenrust-Noordanuslaan","ref:IFOPT":"NL:Q:31002749","_quaycode":"NL:Q:31002749","_town":"Rotterdam","_status":"available","_mode":"bus","_direction":157,"_visuallyAccessible":true,"_disabledAccessible":false,"geojson_lng":4.542541410578893,"geojson_lat":51.93404298470007},"geometry":{"type":"Point","coordinates":[4.542541410578893,51.93404298470007]}},{"type":"Feature","properties":{"highway":"bus_stop","public_transport":"platform","name":"Martinus Steynstraat","ref:IFOPT":"NL:Q:31000504","_quaycode":"NL:Q:31000504","_town":"Rotterdam","_status":"available","_mode":"bus","_direction":268,"_visuallyAccessible":false,"_disabledAccessible":true,"geojson_lng":4.50350155905701,"geojson_lat":51.89837643404668},"geometry":{"type":"Point","coordinates":[4.50350155905701,51.89837643404668]}},{"type":"Feature","properties":{"highway":"bus_stop","public_transport":"platform","name":"Jacob van Campenweg","ref:IFOPT":"NL:Q:31002020","_quaycode":"NL:Q:31002020","_town":"Rotterdam","_status":"available","_mode":"bus","_direction":146,"_visuallyAccessible":false,"_disabledAccessible":true,"geojson_lng":4.53913007917089,"geojson_lat":51.93912398274133},"geometry":{"type":"Point","coordinates":[4.53913007917089,51.93912398274133]}},{"type":"Feature","properties":{"highway":"bus_stop","public_transport":"platform","name":"Jinnahsingel","ref:IFOPT":"NL:Q:31003194","_quaycode":"NL:Q:31003194","_town":"Rotterdam","_status":"available","_mode":"bus","_direction":261,"_visuallyAccessible":false,"_disabledAccessible":false,"geojson_lng":4.553812858042258,"geojson_lat":51.92923359954923},"geometry":{"type":"Point","coordinates":[4.553812858042258,51.92923359954923]}},{"type":"Feature","properties":{"highway":"bus_stop","public_transport":"platform","name":"Leuvehaven","ref:IFOPT":"NL:Q:31003185","_quaycode":"NL:Q:31003185","_town":"Rotterdam","_status":"available","_mode":"bus","_direction":176,"_visuallyAccessible":false,"_disabledAccessible":false,"geojson_lng":4.481848705213354,"geojson_lat":51.912980110640135},"geometry":{"type":"Point","coordinates":[4.481848705213354,51.912980110640135]}},{"type":"Feature","properties":{"highway":"bus_stop","public_transport":"platform","name":"Willem Ruyslaan","ref:IFOPT":"NL:Q:31003159","_quaycode":"NL:Q:31003159","_town":"Rotterdam","_status":"available","_mode":"bus","_direction":282,"_visuallyAccessible":false,"_disabledAccessible":false,"geojson_lng":4.506374532787396,"geojson_lat":51.921570927283405},"geometry":{"type":"Point","coordinates":[4.506374532787396,51.921570927283405]}},{"type":"Feature","properties":{"highway":"bus_stop","public_transport":"platform","name":"Kerkhoflaan","ref:IFOPT":"NL:Q:31002241","_quaycode":"NL:Q:31002241","_town":"Rotterdam","_status":"available","_mode":"bus","_direction":240,"_visuallyAccessible":true,"_disabledAccessible":true,"geojson_lng":4.491714952423114,"geojson_lat":51.93719040679692},"geometry":{"type":"Point","coordinates":[4.491714952423114,51.93719040679692]}},{"type":"Feature","properties":{"highway":"bus_stop","public_transport":"platform","name":"HES","ref:IFOPT":"NL:Q:31006115","_quaycode":"NL:Q:31006115","_town":"Rotterdam","_status":"available","_mode":"bus","_direction":25,"_visuallyAccessible":true,"_disabledAccessible":true,"geojson_lng":4.529269561115498,"geojson_lat":51.91630210798545},"geometry":{"type":"Point","coordinates":[4.529269561115498,51.91630210798545]}},{"type":"Feature","properties":{"highway":"bus_stop","public_transport":"platform","name":"Station Blaak ","ref:IFOPT":"NL:Q:31002137","_quaycode":"NL:Q:31002137","_town":"Rotterdam","_status":"available","_mode":"bus","_direction":78,"_visuallyAccessible":false,"_disabledAccessible":true,"geojson_lng":4.487817622302159,"geojson_lat":51.91903041325909},"geometry":{"type":"Point","coordinates":[4.487817622302159,51.91903041325909]}},{"type":"Feature","properties":{"highway":"bus_stop","public_transport":"platform","name":"Wingerd","ref:IFOPT":"NL:Q:31002773","_quaycode":"NL:Q:31002773","_town":"Capelle aan den IJssel","_status":"available","_mode":"bus","_direction":188,"_visuallyAccessible":false,"_disabledAccessible":false,"geojson_lng":4.567391877688703,"geojson_lat":51.93327508772827},"geometry":{"type":"Point","coordinates":[4.567391877688703,51.93327508772827]}},{"type":"Feature","properties":{"highway":"bus_stop","public_transport":"platform","name":"Klapwiek","ref:IFOPT":"NL:Q:31002814","_quaycode":"NL:Q:31002814","_town":"Rotterdam","_status":"available","_mode":"bus","_direction":157,"_visuallyAccessible":false,"_disabledAccessible":true,"geojson_lng":4.543880256966348,"geojson_lat":51.9308885892797},"geometry":{"type":"Point","coordinates":[4.543880256966348,51.9308885892797]}},{"type":"Feature","properties":{"highway":"bus_stop","public_transport":"platform","name":"Huslystraat","ref:IFOPT":"NL:Q:31002742","_quaycode":"NL:Q:31002742","_town":"Rotterdam","_status":"available","_mode":"bus","_direction":305,"_visuallyAccessible":false,"_disabledAccessible":false,"geojson_lng":4.540948437756027,"geojson_lat":51.93678205760273},"geometry":{"type":"Point","coordinates":[4.540948437756027,51.93678205760273]}},{"type":"Feature","properties":{"highway":"bus_stop","public_transport":"platform","name":"Bramanteplein","ref:IFOPT":"NL:Q:31002761","_quaycode":"NL:Q:31002761","_town":"Rotterdam","_status":"available","_mode":"bus","_direction":157,"_visuallyAccessible":true,"_disabledAccessible":true,"geojson_lng":4.5524230078156505,"geojson_lat":51.93673824677155},"geometry":{"type":"Point","coordinates":[4.5524230078156505,51.93673824677155]}},{"type":"Feature","properties":{"highway":"bus_stop","public_transport":"platform","name":"Metro Capelsebrug","ref:IFOPT":"NL:Q:31006448","_quaycode":"NL:Q:31006448","_town":"Rotterdam","_status":"available","_mode":"bus","_direction":249,"_visuallyAccessible":false,"_disabledAccessible":true,"geojson_lng":4.557800147774398,"geojson_lat":51.92117201282341},"geometry":{"type":"Point","coordinates":[4.557800147774398,51.92117201282341]}},{"type":"Feature","properties":{"highway":"bus_stop","public_transport":"platform","name":"Palladiostraat","ref:IFOPT":"NL:Q:31002760","_quaycode":"NL:Q:31002760","_town":"Rotterdam","_status":"available","_mode":"bus","_direction":156,"_visuallyAccessible":false,"_disabledAccessible":true,"geojson_lng":4.551692480489802,"geojson_lat":51.93848584275072},"geometry":{"type":"Point","coordinates":[4.551692480489802,51.93848584275072]}},{"type":"Feature","properties":{"highway":"bus_stop","public_transport":"platform","name":"Hillevliet","ref:IFOPT":"NL:Q:31000346","_quaycode":"NL:Q:31000346","_town":"Rotterdam","_status":"available","_mode":"bus","_direction":56,"_visuallyAccessible":true,"_disabledAccessible":true,"geojson_lng":4.506867878087358,"geojson_lat":51.8956421614325},"geometry":{"type":"Point","coordinates":[4.506867878087358,51.8956421614325]}},{"type":"Feature","properties":{"highway":"bus_stop","public_transport":"platform","name":"Polderlaan","ref:IFOPT":"NL:Q:31000348","_quaycode":"NL:Q:31000348","_town":"Rotterdam","_status":"available","_mode":"bus","_direction":62,"_visuallyAccessible":true,"_disabledAccessible":true,"geojson_lng":4.509698899515503,"geojson_lat":51.89723636847289},"geometry":{"type":"Point","coordinates":[4.509698899515503,51.89723636847289]}},{"type":"Feature","properties":{"highway":"bus_stop","public_transport":"platform","name":"Christiaan de Wetstraat","ref:IFOPT":"NL:Q:31000577","_quaycode":"NL:Q:31000577","_town":"Rotterdam","_status":"available","_mode":"bus","_direction":86,"_visuallyAccessible":false,"_disabledAccessible":true,"geojson_lng":4.506379619678649,"geojson_lat":51.898317145437986},"geometry":{"type":"Point","coordinates":[4.506379619678649,51.898317145437986]}},{"type":"Feature","properties":{"highway":"bus_stop","public_transport":"platform","name":"Metro Capelsebrug","ref:IFOPT":"NL:Q:31002801","_quaycode":"NL:Q:31002801","_town":"Rotterdam","_status":"available","_mode":"bus","_direction":253,"_visuallyAccessible":false,"_disabledAccessible":false,"geojson_lng":4.5583078847430025,"geojson_lat":51.921229526260426},"geometry":{"type":"Point","coordinates":[4.5583078847430025,51.921229526260426]}},{"type":"Feature","properties":{"highway":"bus_stop","public_transport":"platform","name":"Admiraal Helfrichweg","ref:IFOPT":"NL:Q:31002726","_quaycode":"NL:Q:31002726","_town":"Capelle aan den IJssel","_status":"available","_mode":"bus","_direction":90,"_visuallyAccessible":false,"_disabledAccessible":false,"geojson_lng":4.559611104318004,"geojson_lat":51.91203432232416},"geometry":{"type":"Point","coordinates":[4.559611104318004,51.91203432232416]}},{"type":"Feature","properties":{"highway":"bus_stop","public_transport":"platform","name":"Willemswerf","ref:IFOPT":"NL:Q:31002851","_quaycode":"NL:Q:31002851","_town":"Rotterdam","_status":"available","_mode":"bus","_direction":305,"_visuallyAccessible":false,"_disabledAccessible":false,"geojson_lng":4.490880381620579,"geojson_lat":51.91779538732763},"geometry":{"type":"Point","coordinates":[4.490880381620579,51.91779538732763]}},{"type":"Feature","properties":{"highway":"bus_stop","public_transport":"platform","name":"Koninginneweg","ref:IFOPT":"NL:Q:31006196","_quaycode":"NL:Q:31006196","_town":"Rotterdam","_status":"available","_mode":"bus","_direction":17,"_visuallyAccessible":false,"_disabledAccessible":false,"geojson_lng":4.549910460171326,"geojson_lat":51.89442869051799},"geometry":{"type":"Point","coordinates":[4.549910460171326,51.89442869051799]}},{"type":"Feature","properties":{"highway":"bus_stop","public_transport":"platform","name":"Tochtbrug","ref:IFOPT":"NL:Q:31002997","_quaycode":"NL:Q:31002997","_town":"Capelle aan den IJssel","_status":"available","_mode":"bus","_direction":130,"_visuallyAccessible":false,"_disabledAccessible":false,"geojson_lng":4.571091140384781,"geojson_lat":51.94495906544949},"geometry":{"type":"Point","coordinates":[4.571091140384781,51.94495906544949]}},{"type":"Feature","properties":{"highway":"bus_stop","public_transport":"platform","name":"Nassauhaven","ref:IFOPT":"NL:Q:31000621","_quaycode":"NL:Q:31000621","_town":"Rotterdam","_status":"available","_mode":"bus","_direction":177,"_visuallyAccessible":true,"_disabledAccessible":false,"geojson_lng":4.505645674025037,"geojson_lat":51.9135205657678},"geometry":{"type":"Point","coordinates":[4.505645674025037,51.9135205657678]}},{"type":"Feature","properties":{"highway":"bus_stop","public_transport":"platform","name":"Rose-Spoorstraat","ref:IFOPT":"NL:Q:31000672","_quaycode":"NL:Q:31000672","_town":"Rotterdam","_status":"available","_mode":"bus","_direction":136,"_visuallyAccessible":true,"_disabledAccessible":true,"geojson_lng":4.510476769546501,"geojson_lat":51.906527527263634},"geometry":{"type":"Point","coordinates":[4.510476769546501,51.906527527263634]}},{"type":"Feature","properties":{"highway":"bus_stop","public_transport":"platform","name":"Paradijsplein","ref:IFOPT":"NL:Q:31002417","_quaycode":"NL:Q:31002417","_town":"Rotterdam","_status":"available","_mode":"bus","_direction":310,"_visuallyAccessible":false,"_disabledAccessible":true,"geojson_lng":4.49468392940769,"geojson_lat":51.93634107858495},"geometry":{"type":"Point","coordinates":[4.49468392940769,51.93634107858495]}},{"type":"Feature","properties":{"highway":"bus_stop","public_transport":"platform","name":"Meent","ref:IFOPT":"NL:Q:31002075","_quaycode":"NL:Q:31002075","_town":"Rotterdam","_status":"available","_mode":"bus","_direction":287,"_visuallyAccessible":false,"_disabledAccessible":false,"geojson_lng":4.4855742725586545,"geojson_lat":51.92506264006533},"geometry":{"type":"Point","coordinates":[4.4855742725586545,51.92506264006533]}},{"type":"Feature","properties":{"highway":"bus_stop","public_transport":"platform","name":"Klapwiek","ref:IFOPT":"NL:Q:31002741","_quaycode":"NL:Q:31002741","_town":"Rotterdam","_status":"available","_mode":"bus","_direction":337,"_visuallyAccessible":true,"_disabledAccessible":false,"geojson_lng":4.543873340200367,"geojson_lat":51.93125707459831},"geometry":{"type":"Point","coordinates":[4.543873340200367,51.93125707459831]}},{"type":"Feature","properties":{"highway":"bus_stop","public_transport":"platform","name":"Nassauhaven","ref:IFOPT":"NL:Q:31000677","_quaycode":"NL:Q:31000677","_town":"Rotterdam","_status":"available","_mode":"bus","_direction":90,"_visuallyAccessible":false,"_disabledAccessible":true,"geojson_lng":4.506203988440645,"geojson_lat":51.91395621059996},"geometry":{"type":"Point","coordinates":[4.506203988440645,51.91395621059996]}},{"type":"Feature","properties":{"highway":"bus_stop","public_transport":"platform","name":"Rivium 3e straat","ref:IFOPT":"NL:Q:31006113","_quaycode":"NL:Q:31006113","_town":"Capelle aan den IJssel","_status":"available","_mode":"bus","_direction":0,"_visuallyAccessible":false,"_disabledAccessible":false,"geojson_lng":4.5463382740496385,"geojson_lat":51.90987271422185},"geometry":{"type":"Point","coordinates":[4.5463382740496385,51.90987271422185]}},{"type":"Feature","properties":{"highway":"bus_stop","public_transport":"platform","name":"Christiaan de Wetstraat","ref:IFOPT":"NL:Q:31000576","_quaycode":"NL:Q:31000576","_town":"Rotterdam","_status":"available","_mode":"bus","_direction":268,"_visuallyAccessible":false,"_disabledAccessible":true,"geojson_lng":4.50663724554921,"geojson_lat":51.89851682853714},"geometry":{"type":"Point","coordinates":[4.50663724554921,51.89851682853714]}},{"type":"Feature","properties":{"highway":"bus_stop","public_transport":"platform","name":"IJsselland Ziekenhuis","ref:IFOPT":"NL:Q:31002770","_quaycode":"NL:Q:31002770","_town":"Capelle aan den IJssel","_status":"available","_mode":"bus","_direction":165,"_visuallyAccessible":false,"_disabledAccessible":false,"geojson_lng":4.56410856349679,"geojson_lat":51.93946329075654},"geometry":{"type":"Point","coordinates":[4.56410856349679,51.93946329075654]}},{"type":"Feature","properties":{"highway":"bus_stop","public_transport":"platform","name":"Woudestein","ref:IFOPT":"NL:Q:31002961","_quaycode":"NL:Q:31002961","_town":"Rotterdam","_status":"available","_mode":"bus","_direction":297,"_visuallyAccessible":false,"_disabledAccessible":false,"geojson_lng":4.519015112994847,"geojson_lat":51.916658266993764},"geometry":{"type":"Point","coordinates":[4.519015112994847,51.916658266993764]}},{"type":"Feature","properties":{"highway":"bus_stop","public_transport":"platform","name":"Woudestein","ref:IFOPT":"NL:Q:31002046","_quaycode":"NL:Q:31002046","_town":"Rotterdam","_status":"available","_mode":"bus","_direction":161,"_visuallyAccessible":false,"_disabledAccessible":true,"geojson_lng":4.51808496223245,"geojson_lat":51.916651392653655},"geometry":{"type":"Point","coordinates":[4.51808496223245,51.916651392653655]}},{"type":"Feature","properties":{"highway":"bus_stop","public_transport":"platform","name":"Station Noord","ref:IFOPT":"NL:Q:31002076","_quaycode":"NL:Q:31002076","_town":"Rotterdam","_status":"available","_mode":"bus","_direction":350,"_visuallyAccessible":false,"_disabledAccessible":true,"geojson_lng":4.481475870768683,"geojson_lat":51.941579364284635},"geometry":{"type":"Point","coordinates":[4.481475870768683,51.941579364284635]}},{"type":"Feature","properties":{"highway":"bus_stop","public_transport":"platform","name":"Chris Bennekerslaan","ref:IFOPT":"NL:Q:31003053","_quaycode":"NL:Q:31003053","_town":"Rotterdam","_status":"available","_mode":"bus","_direction":0,"_visuallyAccessible":false,"_disabledAccessible":false,"geojson_lng":4.509588714941925,"geojson_lat":51.925963477683744},"geometry":{"type":"Point","coordinates":[4.509588714941925,51.925963477683744]}},{"type":"Feature","properties":{"highway":"bus_stop","public_transport":"platform","name":"Koldingdreef","ref:IFOPT":"NL:Q:31002699","_quaycode":"NL:Q:31002699","_town":"Rotterdam","_status":"available","_mode":"bus","_direction":79,"_visuallyAccessible":false,"_disabledAccessible":true,"geojson_lng":4.56233266543723,"geojson_lat":51.94430470322907},"geometry":{"type":"Point","coordinates":[4.56233266543723,51.94430470322907]}},{"type":"Feature","properties":{"highway":"bus_stop","public_transport":"platform","name":"Bramanteplein","ref:IFOPT":"NL:Q:31002693","_quaycode":"NL:Q:31002693","_town":"Rotterdam","_status":"available","_mode":"bus","_direction":337,"_visuallyAccessible":true,"_disabledAccessible":true,"geojson_lng":4.552372706011599,"geojson_lat":51.93709743527083},"geometry":{"type":"Point","coordinates":[4.552372706011599,51.93709743527083]}},{"type":"Feature","properties":{"highway":"bus_stop","public_transport":"platform","name":"Koninginnebrug","ref:IFOPT":"NL:Q:31002664","_quaycode":"NL:Q:31002664","_town":"Rotterdam","_status":"available","_mode":"bus","_direction":124,"_visuallyAccessible":false,"_disabledAccessible":false,"geojson_lng":4.497252278600887,"geojson_lat":51.91313371498268},"geometry":{"type":"Point","coordinates":[4.497252278600887,51.91313371498268]}},{"type":"Feature","properties":{"highway":"bus_stop","public_transport":"platform","name":"Noorderbrug","ref:IFOPT":"NL:Q:31002244","_quaycode":"NL:Q:31002244","_town":"Rotterdam","_status":"available","_mode":"bus","_direction":172,"_visuallyAccessible":false,"_disabledAccessible":true,"geojson_lng":4.4862952616921765,"geojson_lat":51.93043443405568},"geometry":{"type":"Point","coordinates":[4.4862952616921765,51.93043443405568]}},{"type":"Feature","properties":{"highway":"bus_stop","public_transport":"platform","name":"Atat√ºrkstraat","ref:IFOPT":"NL:Q:31003190","_quaycode":"NL:Q:31003190","_town":"Rotterdam","_status":"available","_mode":"bus","_direction":247,"_visuallyAccessible":false,"_disabledAccessible":false,"geojson_lng":4.5601273494163115,"geojson_lat":51.93058154688865},"geometry":{"type":"Point","coordinates":[4.5601273494163115,51.93058154688865]}},{"type":"Feature","properties":{"highway":"bus_stop","public_transport":"platform","name":"Scarlattistraat","ref:IFOPT":"NL:Q:31002585","_quaycode":"NL:Q:31002585","_town":"Capelle aan den IJssel","_status":"available","_mode":"bus","_direction":45,"_visuallyAccessible":false,"_disabledAccessible":true,"geojson_lng":4.568615131440302,"geojson_lat":51.92200287203369},"geometry":{"type":"Point","coordinates":[4.568615131440302,51.92200287203369]}},{"type":"Feature","properties":{"highway":"bus_stop","public_transport":"platform","name":"Oostdijk","ref:IFOPT":"NL:Q:31006445","_quaycode":"NL:Q:31006445","_town":"Rotterdam","_status":"available","_mode":"bus","_direction":92,"_visuallyAccessible":false,"_disabledAccessible":true,"geojson_lng":4.556160398344507,"geojson_lat":51.90135839436176},"geometry":{"type":"Point","coordinates":[4.556160398344507,51.90135839436176]}},{"type":"Feature","properties":{"highway":"bus_stop","public_transport":"platform","name":"Adriaan Volkerlaan","ref:IFOPT":"NL:Q:53240490","_quaycode":"NL:Q:53240490","_town":"Rotterdam","_status":"available","_mode":"bus","_direction":7,"_visuallyAccessible":false,"_disabledAccessible":false,"geojson_lng":4.5455721429613964,"geojson_lat":51.894901062069664},"geometry":{"type":"Point","coordinates":[4.5455721429613964,51.894901062069664]}},{"type":"Feature","properties":{"highway":"bus_stop","public_transport":"platform","name":"IJsselmondsehoofd","ref:IFOPT":"NL:Q:31006208","_quaycode":"NL:Q:31006208","_town":"Rotterdam","_status":"available","_mode":"bus","_direction":267,"_visuallyAccessible":false,"_disabledAccessible":true,"geojson_lng":4.552136272247381,"geojson_lat":51.90209390427081},"geometry":{"type":"Point","coordinates":[4.552136272247381,51.90209390427081]}},{"type":"Feature","properties":{"highway":"bus_stop","public_transport":"platform","name":"Rivium 1e straat","ref:IFOPT":"NL:Q:31006110","_quaycode":"NL:Q:31006110","_town":"Capelle aan den IJssel","_status":"available","_mode":"bus","_direction":185,"_visuallyAccessible":false,"_disabledAccessible":false,"geojson_lng":4.546180491880831,"geojson_lat":51.91209178887626},"geometry":{"type":"Point","coordinates":[4.546180491880831,51.91209178887626]}},{"type":"Feature","properties":{"highway":"bus_stop","public_transport":"platform","name":"Strevelsweg","ref:IFOPT":"NL:Q:31000345","_quaycode":"NL:Q:31000345","_town":"Rotterdam","_status":"available","_mode":"bus","_direction":231,"_visuallyAccessible":true,"_disabledAccessible":true,"geojson_lng":4.495964711040421,"geojson_lat":51.890103791826334},"geometry":{"type":"Point","coordinates":[4.495964711040421,51.890103791826334]}},{"type":"Feature","properties":{"highway":"bus_stop","public_transport":"platform","name":"Admiraal Helfrichweg","ref:IFOPT":"NL:Q:31002724","_quaycode":"NL:Q:31002724","_town":"Capelle aan den IJssel","_status":"available","_mode":"bus","_direction":270,"_visuallyAccessible":false,"_disabledAccessible":false,"geojson_lng":4.559086453744131,"geojson_lat":51.91211152474562},"geometry":{"type":"Point","coordinates":[4.559086453744131,51.91211152474562]}},{"type":"Feature","properties":{"highway":"bus_stop","public_transport":"platform","name":"Duikerstraat","ref:IFOPT":"NL:Q:31002018","_quaycode":"NL:Q:31002018","_town":"Rotterdam","_status":"available","_mode":"bus","_direction":261,"_visuallyAccessible":true,"_disabledAccessible":true,"geojson_lng":4.546066414466539,"geojson_lat":51.944593959931844},"geometry":{"type":"Point","coordinates":[4.546066414466539,51.944593959931844]}},{"type":"Feature","properties":{"highway":"bus_stop","public_transport":"platform","name":"Roelantweg","ref:IFOPT":"NL:Q:31006177","_quaycode":"NL:Q:31006177","_town":"Rotterdam","_status":"available","_mode":"bus","_direction":96,"_visuallyAccessible":true,"_disabledAccessible":false,"geojson_lng":4.552148097556279,"geojson_lat":51.89910974483456},"geometry":{"type":"Point","coordinates":[4.552148097556279,51.89910974483456]}},{"type":"Feature","properties":{"highway":"bus_stop","public_transport":"platform","name":"Kralingse Zoom ","ref:IFOPT":"NL:Q:31002544","_quaycode":"NL:Q:31002544","_town":"Rotterdam","_status":"available","_mode":"bus","_direction":10,"_visuallyAccessible":false,"_disabledAccessible":true,"geojson_lng":4.532640206276433,"geojson_lat":51.921737850268386},"geometry":{"type":"Point","coordinates":[4.532640206276433,51.921737850268386]}},{"type":"Feature","properties":{"highway":"bus_stop","public_transport":"platform","name":"Prinsenplein","ref:IFOPT":"NL:Q:31000179","_quaycode":"NL:Q:31000179","_town":"Rotterdam","_status":"available","_mode":"bus","_direction":285,"_visuallyAccessible":false,"_disabledAccessible":true,"geojson_lng":4.55033683577573,"geojson_lat":51.891034001015555},"geometry":{"type":"Point","coordinates":[4.55033683577573,51.891034001015555]}},{"type":"Feature","properties":{"highway":"bus_stop","public_transport":"platform","name":"Van Beethovenlaan","ref:IFOPT":"NL:Q:31002746","_quaycode":"NL:Q:31002746","_town":"Capelle aan den IJssel","_status":"available","_mode":"bus","_direction":0,"_visuallyAccessible":false,"_disabledAccessible":false,"geojson_lng":4.5569849369887185,"geojson_lat":51.91336410041396},"geometry":{"type":"Point","coordinates":[4.5569849369887185,51.91336410041396]}},{"type":"Feature","properties":{"highway":"bus_stop","public_transport":"platform","name":"Dotterlei","ref:IFOPT":"NL:Q:31002397","_quaycode":"NL:Q:31002397","_town":"Capelle aan den IJssel","_status":"available","_mode":"bus","_direction":338,"_visuallyAccessible":false,"_disabledAccessible":false,"geojson_lng":4.566717357580211,"geojson_lat":51.93517597200267},"geometry":{"type":"Point","coordinates":[4.566717357580211,51.93517597200267]}},{"type":"Feature","properties":{"highway":"bus_stop","public_transport":"platform","name":"Avenue Concordia","ref:IFOPT":"NL:Q:31003073","_quaycode":"NL:Q:31003073","_town":"Rotterdam","_status":"available","_mode":"bus","_direction":111,"_visuallyAccessible":false,"_disabledAccessible":true,"geojson_lng":4.510889208877564,"geojson_lat":51.92040917432599},"geometry":{"type":"Point","coordinates":[4.510889208877564,51.92040917432599]}},{"type":"Feature","properties":{"highway":"bus_stop","public_transport":"platform","name":"Ringvaartplas","ref:IFOPT":"NL:Q:31002743","_quaycode":"NL:Q:31002743","_town":"Rotterdam","_status":"available","_mode":"bus","_direction":263,"_visuallyAccessible":false,"_disabledAccessible":true,"geojson_lng":4.544635906549792,"geojson_lat":51.92781089763164},"geometry":{"type":"Point","coordinates":[4.544635906549792,51.92781089763164]}},{"type":"Feature","properties":{"highway":"bus_stop","public_transport":"platform","name":"Breeplein","ref:IFOPT":"NL:Q:31000448","_quaycode":"NL:Q:31000448","_town":"Rotterdam","_status":"available","_mode":"bus","_direction":263,"_visuallyAccessible":false,"_disabledAccessible":false,"geojson_lng":4.513186648413987,"geojson_lat":51.890475869171645},"geometry":{"type":"Point","coordinates":[4.513186648413987,51.890475869171645]}},{"type":"Feature","properties":{"highway":"bus_stop","public_transport":"platform","name":"Spiegelnisserbrug","ref:IFOPT":"NL:Q:31006845","_quaycode":"NL:Q:31006845","_town":"Rotterdam","_status":"available","_mode":"bus","_direction":36,"_visuallyAccessible":false,"_disabledAccessible":false,"geojson_lng":4.491668732090363,"geojson_lat":51.93002605481927},"geometry":{"type":"Point","coordinates":[4.491668732090363,51.93002605481927]}},{"type":"Feature","properties":{"highway":"bus_stop","public_transport":"platform","name":"Palladiostraat","ref:IFOPT":"NL:Q:31002694","_quaycode":"NL:Q:31002694","_town":"Rotterdam","_status":"available","_mode":"bus","_direction":335,"_visuallyAccessible":false,"_disabledAccessible":true,"geojson_lng":4.551627295543497,"geojson_lat":51.93886290240243},"geometry":{"type":"Point","coordinates":[4.551627295543497,51.93886290240243]}},{"type":"Feature","properties":{"highway":"bus_stop","public_transport":"platform","name":"Rivium","ref:IFOPT":"NL:Q:31003545","_quaycode":"NL:Q:31003545","_town":"Capelle aan den IJssel","_status":"available","_mode":"bus","_direction":76,"_visuallyAccessible":false,"_disabledAccessible":false,"geojson_lng":4.547810916063528,"geojson_lat":51.914287692669326},"geometry":{"type":"Point","coordinates":[4.547810916063528,51.914287692669326]}},{"type":"Feature","properties":{"highway":"bus_stop","public_transport":"platform","name":"Doormanstraat","ref:IFOPT":"NL:Q:31002727","_quaycode":"NL:Q:31002727","_town":"Capelle aan den IJssel","_status":"available","_mode":"bus","_direction":83,"_visuallyAccessible":false,"_disabledAccessible":false,"geojson_lng":4.564274310907235,"geojson_lat":51.912156952903345},"geometry":{"type":"Point","coordinates":[4.564274310907235,51.912156952903345]}},{"type":"Feature","properties":{"highway":"bus_stop","public_transport":"platform","name":"Persoonsdam","ref:IFOPT":"NL:Q:31000618","_quaycode":"NL:Q:31000618","_town":"Rotterdam","_status":"available","_mode":"bus","_direction":325,"_visuallyAccessible":true,"_disabledAccessible":true,"geojson_lng":4.507066711509674,"geojson_lat":51.90998067254729},"geometry":{"type":"Point","coordinates":[4.507066711509674,51.90998067254729]}},{"type":"Feature","properties":{"highway":"bus_stop","public_transport":"platform","name":"Lichtenauerlaan","ref:IFOPT":"NL:Q:31002039","_quaycode":"NL:Q:31002039","_town":"Rotterdam","_status":"available","_mode":"bus","_direction":200,"_visuallyAccessible":false,"_disabledAccessible":false,"geojson_lng":4.533083347970115,"geojson_lat":51.92519272307109},"geometry":{"type":"Point","coordinates":[4.533083347970115,51.92519272307109]}},{"type":"Feature","properties":{"highway":"bus_stop","public_transport":"platform","name":"Kerkhoflaan","ref:IFOPT":"NL:Q:31002434","_quaycode":"NL:Q:31002434","_town":"Rotterdam","_status":"available","_mode":"bus","_direction":240,"_visuallyAccessible":true,"_disabledAccessible":true,"geojson_lng":4.492407330487824,"geojson_lat":51.9374743280308},"geometry":{"type":"Point","coordinates":[4.492407330487824,51.9374743280308]}},{"type":"Feature","properties":{"highway":"bus_stop","public_transport":"platform","name":"Prinsenlaan","ref:IFOPT":"NL:Q:31006767","_quaycode":"NL:Q:31006767","_town":"Rotterdam","_status":"available","_mode":"bus","_direction":161,"_visuallyAccessible":false,"_disabledAccessible":false,"geojson_lng":4.556097153823545,"geojson_lat":51.940152991719295},"geometry":{"type":"Point","coordinates":[4.556097153823545,51.940152991719295]}},{"type":"Feature","properties":{"highway":"bus_stop","public_transport":"platform","name":"Strevelsweg","ref:IFOPT":"NL:Q:31000651","_quaycode":"NL:Q:31000651","_town":"Rotterdam","_status":"available","_mode":"bus","_direction":88,"_visuallyAccessible":false,"_disabledAccessible":true,"geojson_lng":4.495152295431946,"geojson_lat":51.889315604324004},"geometry":{"type":"Point","coordinates":[4.495152295431946,51.889315604324004]}},{"type":"Feature","properties":{"highway":"bus_stop","public_transport":"platform","name":"Wilhelminaplein","ref:IFOPT":"NL:Q:31006888","_quaycode":"NL:Q:31006888","_town":"Rotterdam","_status":"available","_mode":"bus","_direction":305,"_visuallyAccessible":false,"_disabledAccessible":false,"geojson_lng":4.495050614396393,"geojson_lat":51.907624907629426},"geometry":{"type":"Point","coordinates":[4.495050614396393,51.907624907629426]}},{"type":"Feature","properties":{"highway":"bus_stop","public_transport":"platform","name":"Boezemweg","ref:IFOPT":"NL:Q:31006848","_quaycode":"NL:Q:31006848","_town":"Rotterdam","_status":"available","_mode":"bus","_direction":180,"_visuallyAccessible":false,"_disabledAccessible":false,"geojson_lng":4.49627015488549,"geojson_lat":51.92821833207012},"geometry":{"type":"Point","coordinates":[4.49627015488549,51.92821833207012]}},{"type":"Feature","properties":{"highway":"bus_stop","public_transport":"platform","name":"Stadion Feyenoord","ref:IFOPT":"NL:Q:31000459","_quaycode":"NL:Q:31000459","_town":"Rotterdam","_status":"available","_mode":"bus","_direction":103,"_visuallyAccessible":false,"_disabledAccessible":false,"geojson_lng":4.524025783219694,"geojson_lat":51.8956795755622},"geometry":{"type":"Point","coordinates":[4.524025783219694,51.8956795755622]}},{"type":"Feature","properties":{"highway":"bus_stop","public_transport":"platform","name":"Persoonsdam","ref:IFOPT":"NL:Q:31000622","_quaycode":"NL:Q:31000622","_town":"Rotterdam","_status":"available","_mode":"bus","_direction":155,"_visuallyAccessible":true,"_disabledAccessible":true,"geojson_lng":4.506980226943563,"geojson_lat":51.90994406994646},"geometry":{"type":"Point","coordinates":[4.506980226943563,51.90994406994646]}},{"type":"Feature","properties":{"highway":"bus_stop","public_transport":"platform","name":"Zaagmolenbrug","ref:IFOPT":"NL:Q:31003144","_quaycode":"NL:Q:31003144","_town":"Rotterdam","_status":"available","_mode":"bus","_direction":216,"_visuallyAccessible":false,"_disabledAccessible":false,"geojson_lng":4.489787410073926,"geojson_lat":51.93394876396688},"geometry":{"type":"Point","coordinates":[4.489787410073926,51.93394876396688]}},{"type":"Feature","properties":{"highway":"bus_stop","public_transport":"platform","name":"Prinsenlaan","ref:IFOPT":"NL:Q:31006764","_quaycode":"NL:Q:31006764","_town":"Rotterdam","_status":"available","_mode":"bus","_direction":346,"_visuallyAccessible":false,"_disabledAccessible":false,"geojson_lng":4.556050275952026,"geojson_lat":51.94111444411185},"geometry":{"type":"Point","coordinates":[4.556050275952026,51.94111444411185]}},{"type":"Feature","properties":{"highway":"bus_stop","public_transport":"platform","name":"Persoonsdam","ref:IFOPT":"NL:Q:31000789","_quaycode":"NL:Q:31000789","_town":"Rotterdam","_status":"available","_mode":"bus","_direction":137,"_visuallyAccessible":false,"_disabledAccessible":false,"geojson_lng":4.510362539238776,"geojson_lat":51.91014912847577},"geometry":{"type":"Point","coordinates":[4.510362539238776,51.91014912847577]}},{"type":"Feature","properties":{"highway":"bus_stop","public_transport":"platform","name":"Veerlaan","ref:IFOPT":"NL:Q:31000193","_quaycode":"NL:Q:31000193","_town":"Rotterdam","_status":"available","_mode":"bus","_direction":276,"_visuallyAccessible":false,"_disabledAccessible":false,"geojson_lng":4.485446645343944,"geojson_lat":51.90171790724345},"geometry":{"type":"Point","coordinates":[4.485446645343944,51.90171790724345]}},{"type":"Feature","properties":{"highway":"bus_stop","public_transport":"platform","name":"Koninginneweg","ref:IFOPT":"NL:Q:31006197","_quaycode":"NL:Q:31006197","_town":"Rotterdam","_status":"available","_mode":"bus","_direction":197,"_visuallyAccessible":false,"_disabledAccessible":true,"geojson_lng":4.549822966397095,"geojson_lat":51.89444604438199},"geometry":{"type":"Point","coordinates":[4.549822966397095,51.89444604438199]}},{"type":"Feature","properties":{"highway":"bus_stop","public_transport":"platform","name":"Wilhelminaplein","ref:IFOPT":"NL:Q:31000810","_quaycode":"NL:Q:31000810","_town":"Rotterdam","_status":"available","_mode":"bus","_direction":113,"_visuallyAccessible":false,"_disabledAccessible":false,"geojson_lng":4.49398827290222,"geojson_lat":51.907697736548826},"geometry":{"type":"Point","coordinates":[4.49398827290222,51.907697736548826]}},{"type":"Feature","properties":{"highway":"bus_stop","public_transport":"platform","name":"Rivium Promenade","ref:IFOPT":"NL:Q:31006111","_quaycode":"NL:Q:31006111","_town":"Capelle aan den IJssel","_status":"available","_mode":"bus","_direction":256,"_visuallyAccessible":false,"_disabledAccessible":true,"geojson_lng":4.54493109387466,"geojson_lat":51.90740872724917},"geometry":{"type":"Point","coordinates":[4.54493109387466,51.90740872724917]}},{"type":"Feature","properties":{"highway":"bus_stop","public_transport":"platform","name":"Nassauhaven","ref:IFOPT":"NL:Q:31000619","_quaycode":"NL:Q:31000619","_town":"Rotterdam","_status":"available","_mode":"bus","_direction":10,"_visuallyAccessible":true,"_disabledAccessible":true,"geojson_lng":4.505744934518022,"geojson_lat":51.91364715229101},"geometry":{"type":"Point","coordinates":[4.505744934518022,51.91364715229101]}},{"type":"Feature","properties":{"highway":"bus_stop","public_transport":"platform","name":"Olivier van Noortstraat","ref:IFOPT":"NL:Q:31002143","_quaycode":"NL:Q:31002143","_town":"Rotterdam","_status":"available","_mode":"bus","_direction":124,"_visuallyAccessible":false,"_disabledAccessible":true,"geojson_lng":4.500834518327275,"geojson_lat":51.91574054886411},"geometry":{"type":"Point","coordinates":[4.500834518327275,51.91574054886411]}},{"type":"Feature","properties":{"highway":"bus_stop","public_transport":"platform","name":"Schinnenbaan","ref:IFOPT":"NL:Q:31006185","_quaycode":"NL:Q:31006185","_town":"Rotterdam","_status":"available","_mode":"bus","_direction":277,"_visuallyAccessible":false,"_disabledAccessible":true,"geojson_lng":4.569734103445773,"geojson_lat":51.898846891724865},"geometry":{"type":"Point","coordinates":[4.569734103445773,51.898846891724865]}},{"type":"Feature","properties":{"highway":"bus_stop","public_transport":"platform","name":"Koninginnebrug","ref:IFOPT":"NL:Q:31002663","_quaycode":"NL:Q:31002663","_town":"Rotterdam","_status":"available","_mode":"bus","_direction":60,"_visuallyAccessible":false,"_disabledAccessible":true,"geojson_lng":4.497836193089049,"geojson_lat":51.91374037966886},"geometry":{"type":"Point","coordinates":[4.497836193089049,51.91374037966886]}},{"type":"Feature","properties":{"highway":"bus_stop","public_transport":"platform","name":"Lichtenauerlaan","ref:IFOPT":"NL:Q:31002036","_quaycode":"NL:Q:31002036","_town":"Rotterdam","_status":"available","_mode":"bus","_direction":30,"_visuallyAccessible":false,"_disabledAccessible":false,"geojson_lng":4.533068454399733,"geojson_lat":51.92444655479827},"geometry":{"type":"Point","coordinates":[4.533068454399733,51.92444655479827]}},{"type":"Feature","properties":{"highway":"bus_stop","public_transport":"platform","name":"Van Heukelomstraat","ref:IFOPT":"NL:Q:31002013","_quaycode":"NL:Q:31002013","_town":"Rotterdam","_status":"available","_mode":"bus","_direction":157,"_visuallyAccessible":false,"_disabledAccessible":false,"geojson_lng":4.550857261662429,"geojson_lat":51.94038549628973},"geometry":{"type":"Point","coordinates":[4.550857261662429,51.94038549628973]}},{"type":"Feature","properties":{"highway":"bus_stop","public_transport":"platform","name":"Rechthuislaan","ref:IFOPT":"NL:Q:31000187","_quaycode":"NL:Q:31000187","_town":"Rotterdam","_status":"available","_mode":"bus","_direction":81,"_visuallyAccessible":false,"_disabledAccessible":true,"geojson_lng":4.482448853590155,"geojson_lat":51.899771269758546},"geometry":{"type":"Point","coordinates":[4.482448853590155,51.899771269758546]}},{"type":"Feature","properties":{"highway":"bus_stop","public_transport":"platform","name":"Station Zuid/Rosestraat","ref:IFOPT":"NL:Q:31000546","_quaycode":"NL:Q:31000546","_town":"Rotterdam","_status":"available","_mode":"bus","_direction":138,"_visuallyAccessible":false,"_disabledAccessible":true,"geojson_lng":4.509232326698731,"geojson_lat":51.904765435646496},"geometry":{"type":"Point","coordinates":[4.509232326698731,51.904765435646496]}},{"type":"Feature","properties":{"highway":"bus_stop","public_transport":"platform","name":"Wilhelminaplein","ref:IFOPT":"NL:Q:31000798","_quaycode":"NL:Q:31000798","_town":"Rotterdam","_status":"available","_mode":"bus","_direction":294,"_visuallyAccessible":false,"_disabledAccessible":false,"geojson_lng":4.49189099706618,"geojson_lat":51.907196385248035},"geometry":{"type":"Point","coordinates":[4.49189099706618,51.907196385248035]}},{"type":"Feature","properties":{"highway":"bus_stop","public_transport":"platform","name":"Paradijsplein","ref:IFOPT":"NL:Q:31002074","_quaycode":"NL:Q:31002074","_town":"Rotterdam","_status":"available","_mode":"bus","_direction":135,"_visuallyAccessible":true,"_disabledAccessible":true,"geojson_lng":4.4952324349381305,"geojson_lat":51.9358149078557},"geometry":{"type":"Point","coordinates":[4.4952324349381305,51.9358149078557]}},{"type":"Feature","properties":{"highway":"bus_stop","public_transport":"platform","name":"Jacob van Campenplein","ref:IFOPT":"NL:Q:31002010","_quaycode":"NL:Q:31002010","_town":"Rotterdam","_status":"available","_mode":"bus","_direction":339,"_visuallyAccessible":true,"_disabledAccessible":true,"geojson_lng":4.537664284919836,"geojson_lat":51.94280773659321},"geometry":{"type":"Point","coordinates":[4.537664284919836,51.94280773659321]}},{"type":"Feature","properties":{"highway":"bus_stop","public_transport":"platform","name":"Oostplein","ref:IFOPT":"NL:Q:31002199","_quaycode":"NL:Q:31002199","_town":"Rotterdam","_status":"available","_mode":"bus","_direction":67,"_visuallyAccessible":false,"_disabledAccessible":false,"geojson_lng":4.497698555317784,"geojson_lat":51.92289884337821},"geometry":{"type":"Point","coordinates":[4.497698555317784,51.92289884337821]}},{"type":"Feature","properties":{"highway":"bus_stop","public_transport":"platform","name":"Metro Capelsebrug","ref:IFOPT":"NL:Q:31002800","_quaycode":"NL:Q:31002800","_town":"Rotterdam","_status":"available","_mode":"bus","_direction":252,"_visuallyAccessible":false,"_disabledAccessible":true,"geojson_lng":4.557121144198651,"geojson_lat":51.920942503394244},"geometry":{"type":"Point","coordinates":[4.557121144198651,51.920942503394244]}},{"type":"Feature","properties":{"highway":"bus_stop","public_transport":"platform","name":"Oostdijk","ref:IFOPT":"NL:Q:31006209","_quaycode":"NL:Q:31006209","_town":"Rotterdam","_status":"available","_mode":"bus","_direction":273,"_visuallyAccessible":false,"_disabledAccessible":true,"geojson_lng":4.55598455782043,"geojson_lat":51.90143804878069},"geometry":{"type":"Point","coordinates":[4.55598455782043,51.90143804878069]}},{"type":"Feature","properties":{"highway":"bus_stop","public_transport":"platform","name":"Breeplein","ref:IFOPT":"NL:Q:31000506","_quaycode":"NL:Q:31000506","_town":"Rotterdam","_status":"available","_mode":"bus","_direction":306,"_visuallyAccessible":true,"_disabledAccessible":true,"geojson_lng":4.513694368572445,"geojson_lat":51.89126166510219},"geometry":{"type":"Point","coordinates":[4.513694368572445,51.89126166510219]}},{"type":"Feature","properties":{"highway":"bus_stop","public_transport":"platform","name":"Rossinistraat","ref:IFOPT":"NL:Q:31002616","_quaycode":"NL:Q:31002616","_town":"Capelle aan den IJssel","_status":"available","_mode":"bus","_direction":271,"_visuallyAccessible":false,"_disabledAccessible":true,"geojson_lng":4.563614515901683,"geojson_lat":51.91723092255597},"geometry":{"type":"Point","coordinates":[4.563614515901683,51.91723092255597]}},{"type":"Feature","properties":{"highway":"bus_stop","public_transport":"platform","name":"Beelstraat","ref:IFOPT":"NL:Q:31002698","_quaycode":"NL:Q:31002698","_town":"Rotterdam","_status":"available","_mode":"bus","_direction":337,"_visuallyAccessible":false,"_disabledAccessible":true,"geojson_lng":4.553390282675045,"geojson_lat":51.9347676093033},"geometry":{"type":"Point","coordinates":[4.553390282675045,51.9347676093033]}},{"type":"Feature","properties":{"highway":"bus_stop","public_transport":"platform","name":"Stadionweg","ref:IFOPT":"NL:Q:53240070","_quaycode":"NL:Q:53240070","_town":"Rotterdam","_status":"available","_mode":"bus","_direction":75,"_visuallyAccessible":false,"_disabledAccessible":true,"geojson_lng":4.531173355561312,"geojson_lat":51.89494984878118},"geometry":{"type":"Point","coordinates":[4.531173355561312,51.89494984878118]}},{"type":"Feature","properties":{"highway":"bus_stop","public_transport":"platform","name":"Kipstraat","ref:IFOPT":"NL:Q:31002965","_quaycode":"NL:Q:31002965","_town":"Rotterdam","_status":"available","_mode":"bus","_direction":95,"_visuallyAccessible":false,"_disabledAccessible":false,"geojson_lng":4.492151777631551,"geojson_lat":51.924025271905194},"geometry":{"type":"Point","coordinates":[4.492151777631551,51.924025271905194]}},{"type":"Feature","properties":{"highway":"bus_stop","public_transport":"platform","name":"Kralingse Zoom","ref:IFOPT":"NL:Q:53119010","_quaycode":"NL:Q:53119010","_town":"Rotterdam","_status":"available","_mode":"bus","_direction":111,"_visuallyAccessible":false,"_disabledAccessible":false,"geojson_lng":4.5334928144423134,"geojson_lat":51.9212406796773},"geometry":{"type":"Point","coordinates":[4.5334928144423134,51.9212406796773]}},{"type":"Feature","properties":{"highway":"bus_stop","public_transport":"platform","name":"Spoorweghaven","ref:IFOPT":"NL:Q:31000273","_quaycode":"NL:Q:31000273","_town":"Rotterdam","_status":"available","_mode":"bus","_direction":318,"_visuallyAccessible":false,"_disabledAccessible":false,"geojson_lng":4.511081292869977,"geojson_lat":51.90309834402754},"geometry":{"type":"Point","coordinates":[4.511081292869977,51.90309834402754]}},{"type":"Feature","properties":{"highway":"bus_stop","public_transport":"platform","name":"Kralingse Zoom","ref:IFOPT":"NL:Q:53110400","_quaycode":"NL:Q:53110400","_town":"Rotterdam","_status":"available","_mode":"bus","_direction":15,"_visuallyAccessible":false,"_disabledAccessible":false,"geojson_lng":4.53263849723916,"geojson_lat":51.92182772463821},"geometry":{"type":"Point","coordinates":[4.53263849723916,51.92182772463821]}},{"type":"Feature","properties":{"highway":"bus_stop","public_transport":"platform","name":"Kralingse Zoom ","ref:IFOPT":"NL:Q:31006447","_quaycode":"NL:Q:31006447","_town":"Rotterdam","_status":"available","_mode":"bus","_direction":20,"_visuallyAccessible":false,"_disabledAccessible":true,"geojson_lng":4.53265166534934,"geojson_lat":51.92189972980555},"geometry":{"type":"Point","coordinates":[4.53265166534934,51.92189972980555]}},{"type":"Feature","properties":{"highway":"bus_stop","public_transport":"platform","name":"Admiraal de Ruyterweg","ref:IFOPT":"NL:Q:31002245","_quaycode":"NL:Q:31002245","_town":"Rotterdam","_status":"available","_mode":"bus","_direction":250,"_visuallyAccessible":true,"_disabledAccessible":true,"geojson_lng":4.48468179649034,"geojson_lat":51.92679061499305},"geometry":{"type":"Point","coordinates":[4.48468179649034,51.92679061499305]}},{"type":"Feature","properties":{"highway":"bus_stop","public_transport":"platform","name":"Cornelis Trompstraat","ref:IFOPT":"NL:Q:31002142","_quaycode":"NL:Q:31002142","_town":"Rotterdam","_status":"available","_mode":"bus","_direction":60,"_visuallyAccessible":false,"_disabledAccessible":true,"geojson_lng":4.493392617514825,"geojson_lat":51.91353588435181},"geometry":{"type":"Point","coordinates":[4.493392617514825,51.91353588435181]}},{"type":"Feature","properties":{"highway":"bus_stop","public_transport":"platform","name":"Mendelssohnstraat","ref:IFOPT":"NL:Q:31002584","_quaycode":"NL:Q:31002584","_town":"Capelle aan den IJssel","_status":"available","_mode":"bus","_direction":30,"_visuallyAccessible":false,"_disabledAccessible":false,"geojson_lng":4.565950539022251,"geojson_lat":51.91905398661412},"geometry":{"type":"Point","coordinates":[4.565950539022251,51.91905398661412]}},{"type":"Feature","properties":{"highway":"bus_stop","public_transport":"platform","name":"Crooswijksebocht","ref:IFOPT":"NL:Q:31006749","_quaycode":"NL:Q:31006749","_town":"Rotterdam","_status":"available","_mode":"bus","_direction":204,"_visuallyAccessible":true,"_disabledAccessible":true,"geojson_lng":4.490419967851115,"geojson_lat":51.93576930965276},"geometry":{"type":"Point","coordinates":[4.490419967851115,51.93576930965276]}},{"type":"Feature","properties":{"highway":"bus_stop","public_transport":"platform","name":"Boezemsingel","ref:IFOPT":"NL:Q:31003146","_quaycode":"NL:Q:31003146","_town":"Rotterdam","_status":"available","_mode":"bus","_direction":185,"_visuallyAccessible":false,"_disabledAccessible":false,"geojson_lng":4.496760901979829,"geojson_lat":51.929866983841364},"geometry":{"type":"Point","coordinates":[4.496760901979829,51.929866983841364]}},{"type":"Feature","properties":{"highway":"bus_stop","public_transport":"platform","name":"Willemsbrug","ref:IFOPT":"NL:Q:31002392","_quaycode":"NL:Q:31002392","_town":"Rotterdam","_status":"available","_mode":"bus","_direction":307,"_visuallyAccessible":false,"_disabledAccessible":true,"geojson_lng":4.4981228456103155,"geojson_lat":51.91541445107869},"geometry":{"type":"Point","coordinates":[4.4981228456103155,51.91541445107869]}},{"type":"Feature","properties":{"highway":"bus_stop","public_transport":"platform","name":"Valkenburgsingel","ref:IFOPT":"NL:Q:31006206","_quaycode":"NL:Q:31006206","_town":"Rotterdam","_status":"available","_mode":"bus","_direction":93,"_visuallyAccessible":true,"_disabledAccessible":true,"geojson_lng":4.561928287738938,"geojson_lat":51.89902603375378},"geometry":{"type":"Point","coordinates":[4.561928287738938,51.89902603375378]}},{"type":"Feature","properties":{"highway":"bus_stop","public_transport":"platform","name":"Lange Hilleweg","ref:IFOPT":"NL:Q:31000344","_quaycode":"NL:Q:31000344","_town":"Rotterdam","_status":"available","_mode":"bus","_direction":61,"_visuallyAccessible":true,"_disabledAccessible":true,"geojson_lng":4.501968206902202,"geojson_lat":51.89286378193524},"geometry":{"type":"Point","coordinates":[4.501968206902202,51.89286378193524]}},{"type":"Feature","properties":{"highway":"bus_stop","public_transport":"platform","name":"Crooswijksestraat","ref:IFOPT":"NL:Q:31006846","_quaycode":"NL:Q:31006846","_town":"Rotterdam","_status":"available","_mode":"bus","_direction":36,"_visuallyAccessible":false,"_disabledAccessible":false,"geojson_lng":4.494455038422891,"geojson_lat":51.93249217561323},"geometry":{"type":"Point","coordinates":[4.494455038422891,51.93249217561323]}},{"type":"Feature","properties":{"highway":"bus_stop","public_transport":"platform","name":"Keizerstraat","ref:IFOPT":"NL:Q:31002136","_quaycode":"NL:Q:31002136","_town":"Rotterdam","_status":"available","_mode":"bus","_direction":79,"_visuallyAccessible":false,"_disabledAccessible":false,"geojson_lng":4.483301188546361,"geojson_lat":51.918087905243496},"geometry":{"type":"Point","coordinates":[4.483301188546361,51.918087905243496]}},{"type":"Feature","properties":{"highway":"bus_stop","public_transport":"platform","name":"Rietkerkweg","ref:IFOPT":"NL:Q:31002824","_quaycode":"NL:Q:31002824","_town":"Rotterdam","_status":"available","_mode":"bus","_direction":218,"_visuallyAccessible":false,"_disabledAccessible":true,"geojson_lng":4.559000947857954,"geojson_lat":51.9341061527435},"geometry":{"type":"Point","coordinates":[4.559000947857954,51.9341061527435]}},{"type":"Feature","properties":{"highway":"bus_stop","public_transport":"platform","name":"Meeuwenstraat","ref:IFOPT":"NL:Q:31002141","_quaycode":"NL:Q:31002141","_town":"Rotterdam","_status":"available","_mode":"bus","_direction":291,"_visuallyAccessible":true,"_disabledAccessible":true,"geojson_lng":4.488770292100972,"geojson_lat":51.909914134390476},"geometry":{"type":"Point","coordinates":[4.488770292100972,51.909914134390476]}},{"type":"Feature","properties":{"highway":"bus_stop","public_transport":"platform","name":"Randweg","ref:IFOPT":"NL:Q:31000697","_quaycode":"NL:Q:31000697","_town":"Rotterdam","_status":"available","_mode":"bus","_direction":311,"_visuallyAccessible":true,"_disabledAccessible":true,"geojson_lng":4.510643478260364,"geojson_lat":51.89350410427625},"geometry":{"type":"Point","coordinates":[4.510643478260364,51.89350410427625]}},{"type":"Feature","properties":{"highway":"bus_stop","public_transport":"platform","name":"Scarlattistraat","ref:IFOPT":"NL:Q:31002606","_quaycode":"NL:Q:31002606","_town":"Capelle aan den IJssel","_status":"available","_mode":"bus","_direction":230,"_visuallyAccessible":false,"_disabledAccessible":true,"geojson_lng":4.568413435871233,"geojson_lat":51.921902592189504},"geometry":{"type":"Point","coordinates":[4.568413435871233,51.921902592189504]}},{"type":"Feature","properties":{"highway":"bus_stop","public_transport":"platform","name":"Roentgenstraat","ref:IFOPT":"NL:Q:31000620","_quaycode":"NL:Q:31000620","_town":"Rotterdam","_status":"available","_mode":"bus","_direction":241,"_visuallyAccessible":true,"_disabledAccessible":true,"geojson_lng":4.502603892083851,"geojson_lat":51.91224827850452},"geometry":{"type":"Point","coordinates":[4.502603892083851,51.91224827850452]}},{"type":"Feature","properties":{"highway":"bus_stop","public_transport":"platform","name":"Meent","ref:IFOPT":"NL:Q:31002140","_quaycode":"NL:Q:31002140","_town":"Rotterdam","_status":"available","_mode":"bus","_direction":100,"_visuallyAccessible":false,"_disabledAccessible":false,"geojson_lng":4.484808004207622,"geojson_lat":51.924850019448115},"geometry":{"type":"Point","coordinates":[4.484808004207622,51.924850019448115]}},{"type":"Feature","properties":{"highway":"bus_stop","public_transport":"platform","name":"Randweg","ref:IFOPT":"NL:Q:31000698","_quaycode":"NL:Q:31000698","_town":"Rotterdam","_status":"available","_mode":"bus","_direction":125,"_visuallyAccessible":true,"_disabledAccessible":true,"geojson_lng":4.510404594107503,"geojson_lat":51.893088839975135},"geometry":{"type":"Point","coordinates":[4.510404594107503,51.893088839975135]}},{"type":"Feature","properties":{"highway":"bus_stop","public_transport":"platform","name":"Boezemstraat","ref:IFOPT":"NL:Q:31003145","_quaycode":"NL:Q:31003145","_town":"Rotterdam","_status":"available","_mode":"bus","_direction":190,"_visuallyAccessible":false,"_disabledAccessible":false,"geojson_lng":4.497320104031764,"geojson_lat":51.93173188009301},"geometry":{"type":"Point","coordinates":[4.497320104031764,51.93173188009301]}},{"type":"Feature","properties":{"highway":"bus_stop","public_transport":"platform","name":"Hillevliet","ref:IFOPT":"NL:Q:31000349","_quaycode":"NL:Q:31000349","_town":"Rotterdam","_status":"available","_mode":"bus","_direction":247,"_visuallyAccessible":true,"_disabledAccessible":true,"geojson_lng":4.506775615068179,"geojson_lat":51.89590214348802},"geometry":{"type":"Point","coordinates":[4.506775615068179,51.89590214348802]}},{"type":"Feature","properties":{"highway":"bus_stop","public_transport":"platform","name":"Doormanplein","ref:IFOPT":"NL:Q:31002776","_quaycode":"NL:Q:31002776","_town":"Capelle aan den IJssel","_status":"available","_mode":"bus","_direction":165,"_visuallyAccessible":false,"_disabledAccessible":false,"geojson_lng":4.566470420734794,"geojson_lat":51.91287342460744},"geometry":{"type":"Point","coordinates":[4.566470420734794,51.91287342460744]}},{"type":"Feature","properties":{"highway":"bus_stop","public_transport":"platform","name":"IJsselmondseplein","ref:IFOPT":"NL:Q:31006200","_quaycode":"NL:Q:31006200","_town":"Rotterdam","_status":"available","_mode":"bus","_direction":45,"_visuallyAccessible":false,"_disabledAccessible":false,"geojson_lng":4.545851176106677,"geojson_lat":51.898624380554374},"geometry":{"type":"Point","coordinates":[4.545851176106677,51.898624380554374]}},{"type":"Feature","properties":{"highway":"bus_stop","public_transport":"platform","name":"Rechthuislaan","ref:IFOPT":"NL:Q:31000191","_quaycode":"NL:Q:31000191","_town":"Rotterdam","_status":"available","_mode":"bus","_direction":160,"_visuallyAccessible":false,"_disabledAccessible":false,"geojson_lng":4.48274960389984,"geojson_lat":51.89998931527774},"geometry":{"type":"Point","coordinates":[4.48274960389984,51.89998931527774]}},{"type":"Feature","properties":{"highway":"bus_stop","public_transport":"platform","name":"Van Hoochstratenweg","ref:IFOPT":"NL:Q:31006195","_quaycode":"NL:Q:31006195","_town":"Rotterdam","_status":"available","_mode":"bus","_direction":98,"_visuallyAccessible":false,"_disabledAccessible":true,"geojson_lng":4.550546669713036,"geojson_lat":51.899278127026406},"geometry":{"type":"Point","coordinates":[4.550546669713036,51.899278127026406]}},{"type":"Feature","properties":{"highway":"bus_stop","public_transport":"platform","name":"Fascinatio","ref:IFOPT":"NL:Q:53119040","_quaycode":"NL:Q:53119040","_town":"Capelle aan den IJssel","_status":"available","_mode":"bus","_direction":339,"_visuallyAccessible":false,"_disabledAccessible":false,"geojson_lng":4.538754936147117,"geojson_lat":51.91817768682948},"geometry":{"type":"Point","coordinates":[4.538754936147117,51.91817768682948]}},{"type":"Feature","properties":{"highway":"bus_stop","public_transport":"platform","name":"Vrij Entrepot","ref:IFOPT":"NL:Q:31000604","_quaycode":"NL:Q:31000604","_town":"Rotterdam","_status":"available","_mode":"bus","_direction":299,"_visuallyAccessible":false,"_disabledAccessible":true,"geojson_lng":4.501532575479893,"geojson_lat":51.91129639407867},"geometry":{"type":"Point","coordinates":[4.501532575479893,51.91129639407867]}},{"type":"Feature","properties":{"highway":"bus_stop","public_transport":"platform","name":"Prinsenplein","ref:IFOPT":"NL:Q:31000180","_quaycode":"NL:Q:31000180","_town":"Rotterdam","_status":"available","_mode":"bus","_direction":97,"_visuallyAccessible":false,"_disabledAccessible":true,"geojson_lng":4.55074605463607,"geojson_lat":51.890902084654655},"geometry":{"type":"Point","coordinates":[4.55074605463607,51.890902084654655]}},{"type":"Feature","properties":{"highway":"bus_stop","public_transport":"platform","name":"Stadionlaan","ref:IFOPT":"NL:Q:31000453","_quaycode":"NL:Q:31000453","_town":"Rotterdam","_status":"available","_mode":"bus","_direction":78,"_visuallyAccessible":false,"_disabledAccessible":false,"geojson_lng":4.53099959914702,"geojson_lat":51.892629494456806},"geometry":{"type":"Point","coordinates":[4.53099959914702,51.892629494456806]}},{"type":"Feature","properties":{"highway":"bus_stop","public_transport":"platform","name":"Rivium 3e straat","ref:IFOPT":"NL:Q:31006114","_quaycode":"NL:Q:31006114","_town":"Capelle aan den IJssel","_status":"available","_mode":"bus","_direction":182,"_visuallyAccessible":false,"_disabledAccessible":false,"geojson_lng":4.546040076659393,"geojson_lat":51.910275070893334},"geometry":{"type":"Point","coordinates":[4.546040076659393,51.910275070893334]}},{"type":"Feature","properties":{"highway":"bus_stop","public_transport":"platform","name":"Rechthuislaan","ref:IFOPT":"NL:Q:31000159","_quaycode":"NL:Q:31000159","_town":"Rotterdam","_status":"available","_mode":"bus","_direction":260,"_visuallyAccessible":false,"_disabledAccessible":true,"geojson_lng":4.483215406660754,"geojson_lat":51.89994795597108},"geometry":{"type":"Point","coordinates":[4.483215406660754,51.89994795597108]}},{"type":"Feature","properties":{"highway":"bus_stop","public_transport":"platform","name":"Metro Capelsebrug","ref:IFOPT":"NL:Q:31002899","_quaycode":"NL:Q:31002899","_town":"Rotterdam","_status":"available","_mode":"bus","_direction":340,"_visuallyAccessible":false,"_disabledAccessible":false,"geojson_lng":4.558887967854647,"geojson_lat":51.92130552463282},"geometry":{"type":"Point","coordinates":[4.558887967854647,51.92130552463282]}},{"type":"Feature","properties":{"highway":"bus_stop","public_transport":"platform","name":"Crooswijksebocht","ref:IFOPT":"NL:Q:31002272","_quaycode":"NL:Q:31002272","_town":"Rotterdam","_status":"available","_mode":"bus","_direction":80,"_visuallyAccessible":true,"_disabledAccessible":true,"geojson_lng":4.491205649615348,"geojson_lat":51.93574833385181},"geometry":{"type":"Point","coordinates":[4.491205649615348,51.93574833385181]}},{"type":"Feature","properties":{"highway":"bus_stop","public_transport":"platform","name":"Mendelssohnstraat","ref:IFOPT":"NL:Q:31002610","_quaycode":"NL:Q:31002610","_town":"Capelle aan den IJssel","_status":"available","_mode":"bus","_direction":212,"_visuallyAccessible":false,"_disabledAccessible":true,"geojson_lng":4.565506705748914,"geojson_lat":51.91868235009089},"geometry":{"type":"Point","coordinates":[4.565506705748914,51.91868235009089]}},{"type":"Feature","properties":{"highway":"bus_stop","public_transport":"platform","name":"IJsselwerf","ref:IFOPT":"NL:Q:31002233","_quaycode":"NL:Q:31002233","_town":"Capelle aan den IJssel","_status":"available","_mode":"bus","_direction":279,"_visuallyAccessible":false,"_disabledAccessible":false,"geojson_lng":4.555883989148896,"geojson_lat":51.91002152238628},"geometry":{"type":"Point","coordinates":[4.555883989148896,51.91002152238628]}},{"type":"Feature","properties":{"highway":"bus_stop","public_transport":"platform","name":"Henri Eversstraat","ref:IFOPT":"NL:Q:31002778","_quaycode":"NL:Q:31002778","_town":"Rotterdam","_status":"available","_mode":"bus","_direction":159,"_visuallyAccessible":false,"_disabledAccessible":false,"geojson_lng":4.5494121268238885,"geojson_lat":51.94379089063018},"geometry":{"type":"Point","coordinates":[4.5494121268238885,51.94379089063018]}},{"type":"Feature","properties":{"highway":"bus_stop","public_transport":"platform","name":"Rose-Spoorstraat","ref:IFOPT":"NL:Q:31000671","_quaycode":"NL:Q:31000671","_town":"Rotterdam","_status":"available","_mode":"bus","_direction":315,"_visuallyAccessible":true,"_disabledAccessible":true,"geojson_lng":4.510088987424463,"geojson_lat":51.90703699065832},"geometry":{"type":"Point","coordinates":[4.510088987424463,51.90703699065832]}},{"type":"Feature","properties":{"highway":"bus_stop","public_transport":"platform","name":"Nieuwe Crooswijkseweg","ref:IFOPT":"NL:Q:31002286","_quaycode":"NL:Q:31002286","_town":"Rotterdam","_status":"available","_mode":"bus","_direction":215,"_visuallyAccessible":false,"_disabledAccessible":false,"geojson_lng":4.49646739015055,"geojson_lat":51.93440405595278},"geometry":{"type":"Point","coordinates":[4.49646739015055,51.93440405595278]}},{"type":"Feature","properties":{"highway":"bus_stop","public_transport":"platform","name":"Beltmolen","ref:IFOPT":"NL:Q:31002398","_quaycode":"NL:Q:31002398","_town":"Capelle aan den IJssel","_status":"available","_mode":"bus","_direction":45,"_visuallyAccessible":false,"_disabledAccessible":false,"geojson_lng":4.5664248595893575,"geojson_lat":51.937654791805},"geometry":{"type":"Point","coordinates":[4.5664248595893575,51.937654791805]}},{"type":"Feature","properties":{"highway":"bus_stop","public_transport":"platform","name":"Hendrick Staetsweg","ref:IFOPT":"NL:Q:31002570","_quaycode":"NL:Q:31002570","_town":"Rotterdam","_status":"available","_mode":"bus","_direction":260,"_visuallyAccessible":true,"_disabledAccessible":true,"geojson_lng":4.541818254953832,"geojson_lat":51.943880358087696},"geometry":{"type":"Point","coordinates":[4.541818254953832,51.943880358087696]}},{"type":"Feature","properties":{"highway":"bus_stop","public_transport":"platform","name":"Vuurplaat","ref:IFOPT":"NL:Q:31000831","_quaycode":"NL:Q:31000831","_town":"Rotterdam","_status":"available","_mode":"bus","_direction":123,"_visuallyAccessible":false,"_disabledAccessible":false,"geojson_lng":4.503425696183098,"geojson_lat":51.90371517153872},"geometry":{"type":"Point","coordinates":[4.503425696183098,51.90371517153872]}},{"type":"Feature","properties":{"highway":"bus_stop","public_transport":"platform","name":"Rijnhaven","ref:IFOPT":"NL:Q:31000202","_quaycode":"NL:Q:31000202","_town":"Rotterdam","_status":"available","_mode":"bus","_direction":10,"_visuallyAccessible":false,"_disabledAccessible":true,"geojson_lng":4.496959954494927,"geojson_lat":51.90367535477307},"geometry":{"type":"Point","coordinates":[4.496959954494927,51.90367535477307]}},{"type":"Feature","properties":{"highway":"bus_stop","public_transport":"platform","name":"Lombokstraat","ref:IFOPT":"NL:Q:31000196","_quaycode":"NL:Q:31000196","_town":"Rotterdam","_status":"available","_mode":"bus","_direction":260,"_visuallyAccessible":false,"_disabledAccessible":true,"geojson_lng":4.486778162277841,"geojson_lat":51.90053261391073},"geometry":{"type":"Point","coordinates":[4.486778162277841,51.90053261391073]}},{"type":"Feature","properties":{"highway":"bus_stop","public_transport":"platform","name":"Lodewijk Pincoffsweg","ref:IFOPT":"NL:Q:31000811","_quaycode":"NL:Q:31000811","_town":"Rotterdam","_status":"available","_mode":"bus","_direction":124,"_visuallyAccessible":false,"_disabledAccessible":false,"geojson_lng":4.498823877251233,"geojson_lat":51.9056849598656},"geometry":{"type":"Point","coordinates":[4.498823877251233,51.9056849598656]}},{"type":"Feature","properties":{"highway":"bus_stop","public_transport":"platform","name":"Sandelingplein","ref:IFOPT":"NL:Q:31000446","_quaycode":"NL:Q:31000446","_town":"Rotterdam","_status":"available","_mode":"bus","_direction":270,"_visuallyAccessible":true,"_disabledAccessible":true,"geojson_lng":4.5061525330264836,"geojson_lat":51.889884005367655},"geometry":{"type":"Point","coordinates":[4.5061525330264836,51.889884005367655]}},{"type":"Feature","properties":{"highway":"bus_stop","public_transport":"platform","name":"Oostplein","ref:IFOPT":"NL:Q:31003198","_quaycode":"NL:Q:31003198","_town":"Rotterdam","_status":"available","_mode":"bus","_direction":280,"_visuallyAccessible":false,"_disabledAccessible":false,"geojson_lng":4.498724716372377,"geojson_lat":51.92320323167932},"geometry":{"type":"Point","coordinates":[4.498724716372377,51.92320323167932]}},{"type":"Feature","properties":{"highway":"bus_stop","public_transport":"platform","name":"Jacob van Campenplein","ref:IFOPT":"NL:Q:31002019","_quaycode":"NL:Q:31002019","_town":"Rotterdam","_status":"available","_mode":"bus","_direction":160,"_visuallyAccessible":true,"_disabledAccessible":true,"geojson_lng":4.537655522930045,"geojson_lat":51.942502059221084},"geometry":{"type":"Point","coordinates":[4.537655522930045,51.942502059221084]}},{"type":"Feature","properties":{"highway":"bus_stop","public_transport":"platform","name":"Station Zuid/Rosestraat","ref:IFOPT":"NL:Q:31000541","_quaycode":"NL:Q:31000541","_town":"Rotterdam","_status":"available","_mode":"bus","_direction":317,"_visuallyAccessible":false,"_disabledAccessible":false,"geojson_lng":4.509359409355158,"geojson_lat":51.90495514823655},"geometry":{"type":"Point","coordinates":[4.509359409355158,51.90495514823655]}},{"type":"Feature","properties":{"highway":"bus_stop","public_transport":"platform","name":"Sibeliusweg","ref:IFOPT":"NL:Q:31002619","_quaycode":"NL:Q:31002619","_town":"Capelle aan den IJssel","_status":"available","_mode":"bus","_direction":272,"_visuallyAccessible":false,"_disabledAccessible":false,"geojson_lng":4.560357264354231,"geojson_lat":51.91729794048564},"geometry":{"type":"Point","coordinates":[4.560357264354231,51.91729794048564]}},{"type":"Feature","properties":{"highway":"bus_stop","public_transport":"platform","name":"Doormanstraat","ref:IFOPT":"NL:Q:31002725","_quaycode":"NL:Q:31002725","_town":"Capelle aan den IJssel","_status":"available","_mode":"bus","_direction":0,"_visuallyAccessible":false,"_disabledAccessible":false,"geojson_lng":4.5640994297354265,"geojson_lat":51.912182694248926},"geometry":{"type":"Point","coordinates":[4.5640994297354265,51.912182694248926]}},{"type":"Feature","properties":{"highway":"bus_stop","public_transport":"platform","name":"Afrikaanderplein","ref:IFOPT":"NL:Q:31000271","_quaycode":"NL:Q:31000271","_town":"Rotterdam","_status":"available","_mode":"bus","_direction":117,"_visuallyAccessible":true,"_disabledAccessible":true,"geojson_lng":4.499096791400665,"geojson_lat":51.89996119752062},"geometry":{"type":"Point","coordinates":[4.499096791400665,51.89996119752062]}},{"type":"Feature","properties":{"highway":"bus_stop","public_transport":"platform","name":"Polderlaan","ref:IFOPT":"NL:Q:31000351","_quaycode":"NL:Q:31000351","_town":"Rotterdam","_status":"available","_mode":"bus","_direction":230,"_visuallyAccessible":true,"_disabledAccessible":false,"geojson_lng":4.509680338685704,"geojson_lat":51.89744297068972},"geometry":{"type":"Point","coordinates":[4.509680338685704,51.89744297068972]}},{"type":"Feature","properties":{"highway":"bus_stop","public_transport":"platform","name":"Metro Capelsebrug","ref:IFOPT":"NL:Q:53111295","_quaycode":"NL:Q:53111295","_town":"Rotterdam","_status":"available","_mode":"bus","_direction":254,"_visuallyAccessible":false,"_disabledAccessible":true,"geojson_lng":4.55687587390985,"geojson_lat":51.92084189586044},"geometry":{"type":"Point","coordinates":[4.55687587390985,51.92084189586044]}},{"type":"Feature","properties":{"highway":"bus_stop","public_transport":"platform","name":"Willem Ruyslaan","ref:IFOPT":"NL:Q:31003052","_quaycode":"NL:Q:31003052","_town":"Rotterdam","_status":"available","_mode":"bus","_direction":111,"_visuallyAccessible":false,"_disabledAccessible":false,"geojson_lng":4.505370019905778,"geojson_lat":51.92164429392855},"geometry":{"type":"Point","coordinates":[4.505370019905778,51.92164429392855]}},{"type":"Feature","properties":{"highway":"bus_stop","public_transport":"platform","name":"Adriaan Volkerlaan","ref:IFOPT":"NL:Q:53240500","_quaycode":"NL:Q:53240500","_town":"Rotterdam","_status":"available","_mode":"bus","_direction":180,"_visuallyAccessible":false,"_disabledAccessible":false,"geojson_lng":4.545209649579937,"geojson_lat":51.89486251016815},"geometry":{"type":"Point","coordinates":[4.545209649579937,51.89486251016815]}},{"type":"Feature","properties":{"highway":"bus_stop","public_transport":"platform","name":"Maashaven","ref:IFOPT":"NL:Q:31000988","_quaycode":"NL:Q:31000988","_town":"Rotterdam","_status":"available","_mode":"bus","_direction":200,"_visuallyAccessible":false,"_disabledAccessible":false,"geojson_lng":4.495487655077107,"geojson_lat":51.898046227468754},"geometry":{"type":"Point","coordinates":[4.495487655077107,51.898046227468754]}},{"type":"Feature","properties":{"highway":"bus_stop","public_transport":"platform","name":"IJsselmondsehoofd","ref:IFOPT":"NL:Q:31006207","_quaycode":"NL:Q:31006207","_town":"Rotterdam","_status":"available","_mode":"bus","_direction":87,"_visuallyAccessible":false,"_disabledAccessible":true,"geojson_lng":4.552616563392983,"geojson_lat":51.902052372986425},"geometry":{"type":"Point","coordinates":[4.552616563392983,51.902052372986425]}},{"type":"Feature","properties":{"highway":"bus_stop","public_transport":"platform","name":"Henri Eversstraat","ref:IFOPT":"NL:Q:31002017","_quaycode":"NL:Q:31002017","_town":"Rotterdam","_status":"available","_mode":"bus","_direction":337,"_visuallyAccessible":false,"_disabledAccessible":true,"geojson_lng":4.549238241145315,"geojson_lat":51.94453570833978},"geometry":{"type":"Point","coordinates":[4.549238241145315,51.94453570833978]}},{"type":"Feature","properties":{"highway":"bus_stop","public_transport":"platform","name":"Van Heukelomstraat","ref:IFOPT":"NL:Q:31002016","_quaycode":"NL:Q:31002016","_town":"Rotterdam","_status":"available","_mode":"bus","_direction":337,"_visuallyAccessible":false,"_disabledAccessible":false,"geojson_lng":4.550849228758132,"geojson_lat":51.94081689379435},"geometry":{"type":"Point","coordinates":[4.550849228758132,51.94081689379435]}},{"type":"Feature","properties":{"highway":"bus_stop","public_transport":"platform","name":"Varkenoordseviaduct","ref:IFOPT":"NL:Q:31000812","_quaycode":"NL:Q:31000812","_town":"Rotterdam","_status":"available","_mode":"bus","_direction":126,"_visuallyAccessible":false,"_disabledAccessible":false,"geojson_lng":4.511687476822168,"geojson_lat":51.90032534604626},"geometry":{"type":"Point","coordinates":[4.511687476822168,51.90032534604626]}},{"type":"Feature","properties":{"highway":"bus_stop","public_transport":"platform","name":"Beelstraat","ref:IFOPT":"NL:Q:31002762","_quaycode":"NL:Q:31002762","_town":"Rotterdam","_status":"available","_mode":"bus","_direction":157,"_visuallyAccessible":false,"_disabledAccessible":true,"geojson_lng":4.5533956207531725,"geojson_lat":51.93448001057887},"geometry":{"type":"Point","coordinates":[4.5533956207531725,51.93448001057887]}},{"type":"Feature","properties":{"highway":"bus_stop","public_transport":"platform","name":"Metro Capelsebrug","ref:IFOPT":"NL:Q:53111293","_quaycode":"NL:Q:53111293","_town":"Rotterdam","_status":"available","_mode":"bus","_direction":240,"_visuallyAccessible":false,"_disabledAccessible":true,"geojson_lng":4.557367411312475,"geojson_lat":51.920989185512155},"geometry":{"type":"Point","coordinates":[4.557367411312475,51.920989185512155]}},{"type":"Feature","properties":{"highway":"bus_stop","public_transport":"platform","name":"Duikerstraat","ref:IFOPT":"NL:Q:31002011","_quaycode":"NL:Q:31002011","_town":"Rotterdam","_status":"available","_mode":"bus","_direction":80,"_visuallyAccessible":true,"_disabledAccessible":true,"geojson_lng":4.546517912153834,"geojson_lat":51.94456123419646},"geometry":{"type":"Point","coordinates":[4.546517912153834,51.94456123419646]}},{"type":"Feature","properties":{"highway":"bus_stop","public_transport":"platform","name":"Schenkel Metro","ref:IFOPT":"NL:Q:31002285","_quaycode":"NL:Q:31002285","_town":"Rotterdam","_status":"available","_mode":"bus","_direction":264,"_visuallyAccessible":false,"_disabledAccessible":true,"geojson_lng":4.563851205836394,"geojson_lat":51.93208182238742},"geometry":{"type":"Point","coordinates":[4.563851205836394,51.93208182238742]}},{"type":"Feature","properties":{"highway":"bus_stop","public_transport":"platform","name":"Martinus Steynstraat","ref:IFOPT":"NL:Q:31000232","_quaycode":"NL:Q:31000232","_town":"Rotterdam","_status":"available","_mode":"bus","_direction":90,"_visuallyAccessible":false,"_disabledAccessible":false,"geojson_lng":4.50275018688327,"geojson_lat":51.898164039762804},"geometry":{"type":"Point","coordinates":[4.50275018688327,51.898164039762804]}},{"type":"Feature","properties":{"highway":"bus_stop","public_transport":"platform","name":"Huslystraat","ref:IFOPT":"NL:Q:31002797","_quaycode":"NL:Q:31002797","_town":"Rotterdam","_status":"available","_mode":"bus","_direction":155,"_visuallyAccessible":true,"_disabledAccessible":true,"geojson_lng":4.539802435239622,"geojson_lat":51.93740300921341},"geometry":{"type":"Point","coordinates":[4.539802435239622,51.93740300921341]}},{"type":"Feature","properties":{"highway":"bus_stop","public_transport":"platform","name":"Rivium 1e straat","ref:IFOPT":"NL:Q:31006109","_quaycode":"NL:Q:31006109","_town":"Capelle aan den IJssel","_status":"available","_mode":"bus","_direction":0,"_visuallyAccessible":false,"_disabledAccessible":false,"geojson_lng":4.546483987539284,"geojson_lat":51.91218384704726},"geometry":{"type":"Point","coordinates":[4.546483987539284,51.91218384704726]}},{"type":"Feature","properties":{"highway":"bus_stop","public_transport":"platform","name":"Leuvehaven","ref:IFOPT":"NL:Q:31003200","_quaycode":"NL:Q:31003200","_town":"Rotterdam","_status":"available","_mode":"bus","_direction":359,"_visuallyAccessible":false,"_disabledAccessible":false,"geojson_lng":4.4821753482007125,"geojson_lat":51.913360153609645},"geometry":{"type":"Point","coordinates":[4.4821753482007125,51.913360153609645]}},{"type":"Feature","properties":{"highway":"bus_stop","public_transport":"platform","name":"Zeldenrust-Noordanuslaan","ref:IFOPT":"NL:Q:31002748","_quaycode":"NL:Q:31002748","_town":"Rotterdam","_status":"available","_mode":"bus","_direction":337,"_visuallyAccessible":true,"_disabledAccessible":true,"geojson_lng":4.542459926057428,"geojson_lat":51.93450980928424},"geometry":{"type":"Point","coordinates":[4.542459926057428,51.93450980928424]}},{"type":"Feature","properties":{"highway":"bus_stop","public_transport":"platform","name":"Valkenburgsingel","ref:IFOPT":"NL:Q:31006183","_quaycode":"NL:Q:31006183","_town":"Rotterdam","_status":"available","_mode":"bus","_direction":273,"_visuallyAccessible":true,"_disabledAccessible":true,"geojson_lng":4.562348611789637,"geojson_lat":51.899082917134706},"geometry":{"type":"Point","coordinates":[4.562348611789637,51.899082917134706]}},{"type":"Feature","properties":{"highway":"bus_stop","public_transport":"platform","name":"Dotterlei","ref:IFOPT":"NL:Q:31002772","_quaycode":"NL:Q:31002772","_town":"Capelle aan den IJssel","_status":"available","_mode":"bus","_direction":160,"_visuallyAccessible":false,"_disabledAccessible":false,"geojson_lng":4.5664170384203615,"geojson_lat":51.93569521631473},"geometry":{"type":"Point","coordinates":[4.5664170384203615,51.93569521631473]}},{"type":"Feature","properties":{"highway":"bus_stop","public_transport":"platform","name":"Station Blaak","ref:IFOPT":"NL:Q:31002145","_quaycode":"NL:Q:31002145","_town":"Rotterdam","_status":"available","_mode":"bus","_direction":257,"_visuallyAccessible":false,"_disabledAccessible":true,"geojson_lng":4.488044237034684,"geojson_lat":51.919328775110664},"geometry":{"type":"Point","coordinates":[4.488044237034684,51.919328775110664]}},{"type":"Feature","properties":{"highway":"bus_stop","public_transport":"platform","name":"Strevelsweg","ref:IFOPT":"NL:Q:31000342","_quaycode":"NL:Q:31000342","_town":"Rotterdam","_status":"available","_mode":"bus","_direction":61,"_visuallyAccessible":true,"_disabledAccessible":true,"geojson_lng":4.49679530217679,"geojson_lat":51.8899752583781},"geometry":{"type":"Point","coordinates":[4.49679530217679,51.8899752583781]}},{"type":"Feature","properties":{"highway":"bus_stop","public_transport":"platform","name":"Spoorweghaven","ref:IFOPT":"NL:Q:31000527","_quaycode":"NL:Q:31000527","_town":"Rotterdam","_status":"available","_mode":"bus","_direction":135,"_visuallyAccessible":false,"_disabledAccessible":false,"geojson_lng":4.51137047735614,"geojson_lat":51.902426345457776},"geometry":{"type":"Point","coordinates":[4.51137047735614,51.902426345457776]}},{"type":"Feature","properties":{"highway":"bus_stop","public_transport":"platform","name":"Nieuwe Crooswijkseweg","ref:IFOPT":"NL:Q:31002415","_quaycode":"NL:Q:31002415","_town":"Rotterdam","_status":"available","_mode":"bus","_direction":35,"_visuallyAccessible":false,"_disabledAccessible":false,"geojson_lng":4.496613495637811,"geojson_lat":51.93436920801069},"geometry":{"type":"Point","coordinates":[4.496613495637811,51.93436920801069]}},{"type":"Feature","properties":{"highway":"bus_stop","public_transport":"platform","name":"Rietkerkweg","ref:IFOPT":"NL:Q:31002763","_quaycode":"NL:Q:31002763","_town":"Rotterdam","_status":"available","_mode":"bus","_direction":39,"_visuallyAccessible":false,"_disabledAccessible":false,"geojson_lng":4.55950452716223,"geojson_lat":51.93439733547696},"geometry":{"type":"Point","coordinates":[4.55950452716223,51.93439733547696]}},{"type":"Feature","properties":{"highway":"bus_stop","public_transport":"platform","name":"Govert Terlouwstraat","ref:IFOPT":"NL:Q:31003193","_quaycode":"NL:Q:31003193","_town":"Rotterdam","_status":"available","_mode":"bus","_direction":261,"_visuallyAccessible":false,"_disabledAccessible":false,"geojson_lng":4.549216956581542,"geojson_lat":51.92852677994555},"geometry":{"type":"Point","coordinates":[4.549216956581542,51.92852677994555]}},{"type":"Feature","properties":{"highway":"bus_stop","public_transport":"platform","name":"Burgdorfferstraat","ref:IFOPT":"NL:Q:31000545","_quaycode":"NL:Q:31000545","_town":"Rotterdam","_status":"available","_mode":"bus","_direction":131,"_visuallyAccessible":false,"_disabledAccessible":true,"geojson_lng":4.507098175523461,"geojson_lat":51.906888787955424},"geometry":{"type":"Point","coordinates":[4.507098175523461,51.906888787955424]}},{"type":"Feature","properties":{"highway":"bus_stop","public_transport":"platform","name":"Willemsbrug","ref:IFOPT":"NL:Q:31002144","_quaycode":"NL:Q:31002144","_town":"Rotterdam","_status":"available","_mode":"bus","_direction":121,"_visuallyAccessible":false,"_disabledAccessible":true,"geojson_lng":4.497774228116457,"geojson_lat":51.915402824700244},"geometry":{"type":"Point","coordinates":[4.497774228116457,51.915402824700244]}},{"type":"Feature","properties":{"highway":"bus_stop","public_transport":"platform","name":"Jacob van Campenweg","ref:IFOPT":"NL:Q:31002009","_quaycode":"NL:Q:31002009","_town":"Rotterdam","_status":"available","_mode":"bus","_direction":333,"_visuallyAccessible":false,"_disabledAccessible":false,"geojson_lng":4.539383042923287,"geojson_lat":51.93882019290665},"geometry":{"type":"Point","coordinates":[4.539383042923287,51.93882019290665]}},{"type":"Feature","properties":{"highway":"bus_stop","public_transport":"platform","name":"Lange Hilleweg","ref:IFOPT":"NL:Q:31000347","_quaycode":"NL:Q:31000347","_town":"Rotterdam","_status":"available","_mode":"bus","_direction":241,"_visuallyAccessible":true,"_disabledAccessible":true,"geojson_lng":4.502058214396071,"geojson_lat":51.89345771721425},"geometry":{"type":"Point","coordinates":[4.502058214396071,51.89345771721425]}},{"type":"Feature","properties":{"highway":"bus_stop","public_transport":"platform","name":"Hendrick Staetsweg","ref:IFOPT":"NL:Q:31002569","_quaycode":"NL:Q:31002569","_town":"Rotterdam","_status":"available","_mode":"bus","_direction":80,"_visuallyAccessible":true,"_disabledAccessible":true,"geojson_lng":4.542588161818149,"geojson_lat":51.94393083401219},"geometry":{"type":"Point","coordinates":[4.542588161818149,51.94393083401219]}},{"type":"Feature","properties":{"highway":"bus_stop","public_transport":"platform","name":"Sleephellingstraat","ref:IFOPT":"NL:Q:31002139","_quaycode":"NL:Q:31002139","_town":"Rotterdam","_status":"available","_mode":"bus","_direction":252,"_visuallyAccessible":false,"_disabledAccessible":false,"geojson_lng":4.49221014275638,"geojson_lat":51.91087520947373},"geometry":{"type":"Point","coordinates":[4.49221014275638,51.91087520947373]}},{"type":"Feature","properties":{"highway":"bus_stop","public_transport":"platform","name":"Afrikaanderplein","ref:IFOPT":"NL:Q:31000270","_quaycode":"NL:Q:31000270","_town":"Rotterdam","_status":"available","_mode":"bus","_direction":304,"_visuallyAccessible":true,"_disabledAccessible":true,"geojson_lng":4.4990654275207085,"geojson_lat":51.90007781408388},"geometry":{"type":"Point","coordinates":[4.4990654275207085,51.90007781408388]}},{"type":"Feature","properties":{"highway":"bus_stop","public_transport":"platform","name":"Rijnhaven","ref:IFOPT":"NL:Q:31000201","_quaycode":"NL:Q:31000201","_town":"Rotterdam","_status":"available","_mode":"bus","_direction":192,"_visuallyAccessible":false,"_disabledAccessible":true,"geojson_lng":4.496714023675931,"geojson_lat":51.90361955895351},"geometry":{"type":"Point","coordinates":[4.496714023675931,51.90361955895351]}},{"type":"Feature","properties":{"highway":"bus_stop","public_transport":"platform","name":"HES","ref:IFOPT":"NL:Q:31006116","_quaycode":"NL:Q:31006116","_town":"Rotterdam","_status":"available","_mode":"bus","_direction":194,"_visuallyAccessible":false,"_disabledAccessible":false,"geojson_lng":4.528936148150586,"geojson_lat":51.91625473035674},"geometry":{"type":"Point","coordinates":[4.528936148150586,51.91625473035674]}},{"type":"Feature","properties":{"highway":"bus_stop","public_transport":"platform","name":"Admiraal de Ruyterweg","ref:IFOPT":"NL:Q:31002004","_quaycode":"NL:Q:31002004","_town":"Rotterdam","_status":"available","_mode":"bus","_direction":71,"_visuallyAccessible":true,"_disabledAccessible":true,"geojson_lng":4.485017586013322,"geojson_lat":51.926721282785046},"geometry":{"type":"Point","coordinates":[4.485017586013322,51.926721282785046]}},{"type":"Feature","properties":{"highway":"bus_stop","public_transport":"platform","name":"Station Zuid/Steenplaat","ref:IFOPT":"NL:Q:31000354","_quaycode":"NL:Q:31000354","_town":"Rotterdam","_status":"available","_mode":"bus","_direction":63,"_visuallyAccessible":true,"_disabledAccessible":true,"geojson_lng":4.512613871471524,"geojson_lat":51.90349627552517},"geometry":{"type":"Point","coordinates":[4.512613871471524,51.90349627552517]}},{"type":"Feature","properties":{"highway":"bus_stop","public_transport":"platform","name":"Willemswerf","ref:IFOPT":"NL:Q:31002850","_quaycode":"NL:Q:31002850","_town":"Rotterdam","_status":"available","_mode":"bus","_direction":126,"_visuallyAccessible":false,"_disabledAccessible":false,"geojson_lng":4.490929539264556,"geojson_lat":51.91751711163407},"geometry":{"type":"Point","coordinates":[4.490929539264556,51.91751711163407]}},{"type":"Feature","properties":{"highway":"bus_stop","public_transport":"platform","name":"Sleephellingstraat","ref:IFOPT":"NL:Q:31002572","_quaycode":"NL:Q:31002572","_town":"Rotterdam","_status":"available","_mode":"bus","_direction":59,"_visuallyAccessible":false,"_disabledAccessible":true,"geojson_lng":4.490548347165386,"geojson_lat":51.91185130335085},"geometry":{"type":"Point","coordinates":[4.490548347165386,51.91185130335085]}},{"type":"Feature","properties":{"highway":"bus_stop","public_transport":"platform","name":"Kipstraat","ref:IFOPT":"NL:Q:31002964","_quaycode":"NL:Q:31002964","_town":"Rotterdam","_status":"available","_mode":"bus","_direction":279,"_visuallyAccessible":false,"_disabledAccessible":false,"geojson_lng":4.491739936705526,"geojson_lat":51.92426483069141},"geometry":{"type":"Point","coordinates":[4.491739936705526,51.92426483069141]}},{"type":"Feature","properties":{"highway":"bus_stop","public_transport":"platform","name":"Keizerstraat","ref:IFOPT":"NL:Q:31002549","_quaycode":"NL:Q:31002549","_town":"Rotterdam","_status":"available","_mode":"bus","_direction":248,"_visuallyAccessible":false,"_disabledAccessible":false,"geojson_lng":4.485060982231042,"geojson_lat":51.91876659179013},"geometry":{"type":"Point","coordinates":[4.485060982231042,51.91876659179013]}},{"type":"Feature","properties":{"highway":"bus_stop","public_transport":"platform","name":"Adriaan Volkerlaan","ref:IFOPT":"NL:Q:31000182","_quaycode":"NL:Q:31000182","_town":"Rotterdam","_status":"available","_mode":"bus","_direction":108,"_visuallyAccessible":false,"_disabledAccessible":false,"geojson_lng":4.546648470118682,"geojson_lat":51.89172676740489},"geometry":{"type":"Point","coordinates":[4.546648470118682,51.89172676740489]}},{"type":"Feature","properties":{"highway":"bus_stop","public_transport":"platform","name":"Koldingdreef","ref:IFOPT":"NL:Q:31002959","_quaycode":"NL:Q:31002959","_town":"Rotterdam","_status":"available","_mode":"bus","_direction":262,"_visuallyAccessible":false,"_disabledAccessible":true,"geojson_lng":4.562026773624428,"geojson_lat":51.94432952289177},"geometry":{"type":"Point","coordinates":[4.562026773624428,51.94432952289177]}},{"type":"Feature","properties":{"highway":"bus_stop","public_transport":"platform","name":"Lodewijk Pincoffsbrug","ref:IFOPT":"NL:Q:31004008","_quaycode":"NL:Q:31004008","_town":"Rotterdam","_status":"available","_mode":"bus","_direction":215,"_visuallyAccessible":null,"_disabledAccessible":null,"geojson_lng":4.500913836153345,"geojson_lat":51.90876589914176},"geometry":{"type":"Point","coordinates":[4.500913836153345,51.90876589914176]}},{"type":"Feature","properties":{"highway":"bus_stop","public_transport":"platform","name":"Lodewijk Pincoffsbrug","ref:IFOPT":"NL:Q:31004007","_quaycode":"NL:Q:31004007","_town":"Rotterdam","_status":"available","_mode":"bus","_direction":35,"_visuallyAccessible":null,"_disabledAccessible":null,"geojson_lng":4.500762000000004,"geojson_lat":51.90836026097063},"geometry":{"type":"Point","coordinates":[4.500762000000004,51.90836026097063]}},{"type":"Feature","properties":{"highway":"bus_stop","public_transport":"platform","name":"Vuurplaat","ref:IFOPT":"NL:Q:31004009","_quaycode":"NL:Q:31004009","_town":"Rotterdam","_status":"available","_mode":"bus","_direction":270,"_visuallyAccessible":null,"_disabledAccessible":null,"geojson_lng":4.501880737719433,"geojson_lat":51.90394623943744},"geometry":{"type":"Point","coordinates":[4.501880737719433,51.90394623943744]}},{"type":"Feature","properties":{"highway":"bus_stop","public_transport":"platform","name":"Fascinatio","ref:IFOPT":"NL:Q:53119030","_quaycode":"NL:Q:53119030","_town":"Capelle aan den IJssel","_status":"available","_mode":"bus","_direction":158,"_visuallyAccessible":true,"_disabledAccessible":true,"geojson_lng":4.538846212576588,"geojson_lat":51.917962617403084},"geometry":{"type":"Point","coordinates":[4.538846212576588,51.917962617403084]}},{"type":"Feature","properties":{"highway":"bus_stop","public_transport":"platform","name":"Rivium 2e straat","ref:IFOPT":"NL:Q:53119070","_quaycode":"NL:Q:53119070","_town":"Capelle aan den IJssel","_status":"available","_mode":"bus","_direction":160,"_visuallyAccessible":false,"_disabledAccessible":true,"geojson_lng":4.54314830385844,"geojson_lat":51.911027364627266},"geometry":{"type":"Point","coordinates":[4.54314830385844,51.911027364627266]}},