{"type":"FeatureCollection","features":[{"type":"Feature","properties":{"highway":"bus_stop","public_transport":"platform","name":"Koraaldijk","ref:IFOPT":"NL:Q:72601860","_quaycode":"NL:Q:72601860","_town":"Roosendaal","_status":"available","_mode":"bus","_direction":0,"_visuallyAccessible":false,"_disabledAccessible":false,"geojson_lng":4.493879596681391,"geojson_lat":51.52869674318907},"geometry":{"type":"Point","coordinates":[4.493879596681391,51.52869674318907]}},{"type":"Feature","properties":{"highway":"bus_stop","public_transport":"platform","name":"Basaltdijk","ref:IFOPT":"NL:Q:72600800","_quaycode":"NL:Q:72600800","_town":"Roosendaal","_status":"available","_mode":"bus","_direction":332,"_visuallyAccessible":true,"_disabledAccessible":true,"geojson_lng":4.48308182950041,"geojson_lat":51.52742712147421},"geometry":{"type":"Point","coordinates":[4.48308182950041,51.52742712147421]}},{"type":"Feature","properties":{"highway":"bus_stop","public_transport":"platform","name":"Beatrixstraat","ref:IFOPT":"NL:Q:72500920","_quaycode":"NL:Q:72500920","_town":"Bosschenhoofd","_status":"available","_mode":"bus","_direction":25,"_visuallyAccessible":true,"_disabledAccessible":true,"geojson_lng":4.5391615789883435,"geojson_lat":51.558751933247166},"geometry":{"type":"Point","coordinates":[4.5391615789883435,51.558751933247166]}},{"type":"Feature","properties":{"highway":"bus_stop","public_transport":"platform","name":"Sterrebos","ref:IFOPT":"NL:Q:72600830","_quaycode":"NL:Q:72600830","_town":"Roosendaal","_status":"available","_mode":"bus","_direction":258,"_visuallyAccessible":true,"_disabledAccessible":true,"geojson_lng":4.492220481768361,"geojson_lat":51.51927246622745},"geometry":{"type":"Point","coordinates":[4.492220481768361,51.51927246622745]}},{"type":"Feature","properties":{"highway":"bus_stop","public_transport":"platform","name":"Beatrixstraat","ref:IFOPT":"NL:Q:72500420","_quaycode":"NL:Q:72500420","_town":"Bosschenhoofd","_status":"available","_mode":"bus","_direction":310,"_visuallyAccessible":true,"_disabledAccessible":true,"geojson_lng":4.537804850390775,"geojson_lat":51.55881399428987},"geometry":{"type":"Point","coordinates":[4.537804850390775,51.55881399428987]}},{"type":"Feature","properties":{"highway":"bus_stop","public_transport":"platform","name":"Onze Lieve Vrouwestraat","ref:IFOPT":"NL:Q:72500060","_quaycode":"NL:Q:72500060","_town":"Zegge","_status":"available","_mode":"bus","_direction":188,"_visuallyAccessible":true,"_disabledAccessible":false,"geojson_lng":4.51628927129165,"geojson_lat":51.55577917097524},"geometry":{"type":"Point","coordinates":[4.51628927129165,51.55577917097524]}},{"type":"Feature","properties":{"highway":"bus_stop","public_transport":"platform","name":"Bosschenhoofdseweg","ref:IFOPT":"NL:Q:72500120","_quaycode":"NL:Q:72500120","_town":"Zegge","_status":"available","_mode":"bus","_direction":189,"_visuallyAccessible":true,"_disabledAccessible":true,"geojson_lng":4.51605780074709,"geojson_lat":51.56108098180914},"geometry":{"type":"Point","coordinates":[4.51605780074709,51.56108098180914]}},{"type":"Feature","properties":{"highway":"bus_stop","public_transport":"platform","name":"Basaltdijk","ref:IFOPT":"NL:Q:72600770","_quaycode":"NL:Q:72600770","_town":"Roosendaal","_status":"available","_mode":"bus","_direction":152,"_visuallyAccessible":true,"_disabledAccessible":true,"geojson_lng":4.482822291082393,"geojson_lat":51.527434101779484},"geometry":{"type":"Point","coordinates":[4.482822291082393,51.527434101779484]}},{"type":"Feature","properties":{"highway":"bus_stop","public_transport":"platform","name":"Takspui","ref:IFOPT":"NL:Q:72600780","_quaycode":"NL:Q:72600780","_town":"Roosendaal","_status":"available","_mode":"bus","_direction":332,"_visuallyAccessible":false,"_disabledAccessible":true,"geojson_lng":4.481193785131179,"geojson_lat":51.529605835629816},"geometry":{"type":"Point","coordinates":[4.481193785131179,51.529605835629816]}},{"type":"Feature","properties":{"highway":"bus_stop","public_transport":"platform","name":"Sprundelseweg","ref:IFOPT":"NL:Q:72400010","_quaycode":"NL:Q:72400010","_town":"Rucphen","_status":"available","_mode":"bus","_direction":283,"_visuallyAccessible":true,"_disabledAccessible":true,"geojson_lng":4.565426615341561,"geojson_lat":51.532197251253244},"geometry":{"type":"Point","coordinates":[4.565426615341561,51.532197251253244]}},{"type":"Feature","properties":{"highway":"bus_stop","public_transport":"platform","name":"St. Gerardushof","ref:IFOPT":"NL:Q:72508010","_quaycode":"NL:Q:72508010","_town":"Bosschenhoofd","_status":"available","_mode":"bus","_direction":283,"_visuallyAccessible":true,"_disabledAccessible":true,"geojson_lng":4.5424291295012305,"geojson_lat":51.56140038678203},"geometry":{"type":"Point","coordinates":[4.5424291295012305,51.56140038678203]}},{"type":"Feature","properties":{"highway":"bus_stop","public_transport":"platform","name":"Gebrande Hoefstraat","ref:IFOPT":"NL:Q:72400210","_quaycode":"NL:Q:72400210","_town":"Rucphen","_status":"available","_mode":"bus","_direction":110,"_visuallyAccessible":true,"_disabledAccessible":true,"geojson_lng":4.549990077463867,"geojson_lat":51.534586612108065},"geometry":{"type":"Point","coordinates":[4.549990077463867,51.534586612108065]}},{"type":"Feature","properties":{"highway":"bus_stop","public_transport":"platform","name":"Onze Lieve Vrouwestraat","ref:IFOPT":"NL:Q:72500050","_quaycode":"NL:Q:72500050","_town":"Zegge","_status":"available","_mode":"bus","_direction":8,"_visuallyAccessible":false,"_disabledAccessible":true,"geojson_lng":4.5163752621280775,"geojson_lat":51.555806778815395},"geometry":{"type":"Point","coordinates":[4.5163752621280775,51.555806778815395]}},{"type":"Feature","properties":{"highway":"bus_stop","public_transport":"platform","name":"St. Gerardushof","ref:IFOPT":"NL:Q:72508000","_quaycode":"NL:Q:72508000","_town":"Bosschenhoofd","_status":"available","_mode":"bus","_direction":103,"_visuallyAccessible":true,"_disabledAccessible":true,"geojson_lng":4.542574163639718,"geojson_lat":51.56135648976164},"geometry":{"type":"Point","coordinates":[4.542574163639718,51.56135648976164]}},{"type":"Feature","properties":{"highway":"bus_stop","public_transport":"platform","name":"Gebrande Hoefstraat","ref:IFOPT":"NL:Q:72400180","_quaycode":"NL:Q:72400180","_town":"Rucphen","_status":"available","_mode":"bus","_direction":290,"_visuallyAccessible":true,"_disabledAccessible":true,"geojson_lng":4.550060975308447,"geojson_lat":51.534650043262},"geometry":{"type":"Point","coordinates":[4.550060975308447,51.534650043262]}},{"type":"Feature","properties":{"highway":"bus_stop","public_transport":"platform","name":"Sterrebos","ref:IFOPT":"NL:Q:72600820","_quaycode":"NL:Q:72600820","_town":"Roosendaal","_status":"available","_mode":"bus","_direction":78,"_visuallyAccessible":true,"_disabledAccessible":true,"geojson_lng":4.492394065046386,"geojson_lat":51.519237839621766},"geometry":{"type":"Point","coordinates":[4.492394065046386,51.519237839621766]}},{"type":"Feature","properties":{"highway":"bus_stop","public_transport":"platform","name":"Sprundelseweg","ref:IFOPT":"NL:Q:72400120","_quaycode":"NL:Q:72400120","_town":"Rucphen","_status":"available","_mode":"bus","_direction":103,"_visuallyAccessible":false,"_disabledAccessible":false,"geojson_lng":4.565211593687972,"geojson_lat":51.53213281566707},"geometry":{"type":"Point","coordinates":[4.565211593687972,51.53213281566707]}},{"type":"Feature","properties":{"highway":"bus_stop","public_transport":"platform","name":"Pagnevaartdreef","ref:IFOPT":"NL:Q:72500620","_quaycode":"NL:Q:72500620","_town":"Bosschenhoofd","_status":"available","_mode":"bus","_direction":106,"_visuallyAccessible":false,"_disabledAccessible":false,"geojson_lng":4.55233235603982,"geojson_lat":51.5632154034888},"geometry":{"type":"Point","coordinates":[4.55233235603982,51.5632154034888]}},{"type":"Feature","properties":{"highway":"bus_stop","public_transport":"platform","name":"Pagnevaartdreef","ref:IFOPT":"NL:Q:72500720","_quaycode":"NL:Q:72500720","_town":"Bosschenhoofd","_status":"available","_mode":"bus","_direction":286,"_visuallyAccessible":true,"_disabledAccessible":true,"geojson_lng":4.552519160915541,"geojson_lat":51.56325269350411},"geometry":{"type":"Point","coordinates":[4.552519160915541,51.56325269350411]}},{"type":"Feature","properties":{"highway":"bus_stop","public_transport":"platform","name":"Dolomietdijk","ref:IFOPT":"NL:Q:72601850","_quaycode":"NL:Q:72601850","_town":"Roosendaal","_status":"available","_mode":"bus","_direction":10,"_visuallyAccessible":false,"_disabledAccessible":false,"geojson_lng":4.491197754558582,"geojson_lat":51.52949421375404},"geometry":{"type":"Point","coordinates":[4.491197754558582,51.52949421375404]}},{"type":"Feature","properties":{"highway":"bus_stop","public_transport":"platform","name":"Rucphensebaan","ref:IFOPT":"NL:Q:72500320","_quaycode":"NL:Q:72500320","_town":"Roosendaal","_status":"available","_mode":"bus","_direction":108,"_visuallyAccessible":true,"_disabledAccessible":false,"geojson_lng":4.510584178577551,"geojson_lat":51.53383917444876},"geometry":{"type":"Point","coordinates":[4.510584178577551,51.53383917444876]}},{"type":"Feature","properties":{"highway":"bus_stop","public_transport":"platform","name":"Raadhuisstraat","ref:IFOPT":"NL:Q:72400050","_quaycode":"NL:Q:72400050","_town":"Rucphen","_status":"available","_mode":"bus","_direction":310,"_visuallyAccessible":false,"_disabledAccessible":true,"geojson_lng":4.558863065378879,"geojson_lat":51.53331048736684},"geometry":{"type":"Point","coordinates":[4.558863065378879,51.53331048736684]}},{"type":"Feature","properties":{"highway":"bus_stop","public_transport":"platform","name":"A-Dijk","ref:IFOPT":"NL:Q:72600150","_quaycode":"NL:Q:72600150","_town":"Roosendaal","_status":"available","_mode":"bus","_direction":9,"_visuallyAccessible":true,"_disabledAccessible":true,"geojson_lng":4.483021263719244,"geojson_lat":51.52467598806532},"geometry":{"type":"Point","coordinates":[4.483021263719244,51.52467598806532]}},{"type":"Feature","properties":{"highway":"bus_stop","public_transport":"platform","name":"Rucphensebaan","ref:IFOPT":"NL:Q:72500310","_quaycode":"NL:Q:72500310","_town":"Roosendaal","_status":"available","_mode":"bus","_direction":273,"_visuallyAccessible":true,"_disabledAccessible":true,"geojson_lng":4.513022748378144,"geojson_lat":51.53369564133957},"geometry":{"type":"Point","coordinates":[4.513022748378144,51.53369564133957]}},{"type":"Feature","properties":{"highway":"bus_stop","public_transport":"platform","name":"Flintdijk","ref:IFOPT":"NL:Q:72601940","_quaycode":"NL:Q:72601940","_town":"Roosendaal","_status":"available","_mode":"bus","_direction":10,"_visuallyAccessible":false,"_disabledAccessible":true,"geojson_lng":4.494327572061449,"geojson_lat":51.52423259081756},"geometry":{"type":"Point","coordinates":[4.494327572061449,51.52423259081756]}},{"type":"Feature","properties":{"highway":"bus_stop","public_transport":"platform","name":"D-dijk","ref:IFOPT":"NL:Q:72602020","_quaycode":"NL:Q:72602020","_town":"Roosendaal","_status":"available","_mode":"bus","_direction":106,"_visuallyAccessible":true,"_disabledAccessible":true,"geojson_lng":4.491112703436433,"geojson_lat":51.53380832371714},"geometry":{"type":"Point","coordinates":[4.491112703436433,51.53380832371714]}},{"type":"Feature","properties":{"highway":"bus_stop","public_transport":"platform","name":"Onyxdijk","ref:IFOPT":"NL:Q:72602140","_quaycode":"NL:Q:72602140","_town":"Roosendaal","_status":"available","_mode":"bus","_direction":45,"_visuallyAccessible":true,"_disabledAccessible":true,"geojson_lng":4.49509111051382,"geojson_lat":51.520570875194636},"geometry":{"type":"Point","coordinates":[4.49509111051382,51.520570875194636]}},{"type":"Feature","properties":{"highway":"bus_stop","public_transport":"platform","name":"Dolomietdijk","ref:IFOPT":"NL:Q:72601760","_quaycode":"NL:Q:72601760","_town":"Roosendaal","_status":"available","_mode":"bus","_direction":189,"_visuallyAccessible":false,"_disabledAccessible":false,"geojson_lng":4.4911896046338695,"geojson_lat":51.52990764935769},"geometry":{"type":"Point","coordinates":[4.4911896046338695,51.52990764935769]}},{"type":"Feature","properties":{"highway":"bus_stop","public_transport":"platform","name":"'t Zand","ref:IFOPT":"NL:Q:72602080","_quaycode":"NL:Q:72602080","_town":"Roosendaal","_status":"available","_mode":"bus","_direction":46,"_visuallyAccessible":true,"_disabledAccessible":true,"geojson_lng":4.482375818059935,"geojson_lat":51.52090455657263},"geometry":{"type":"Point","coordinates":[4.482375818059935,51.52090455657263]}},{"type":"Feature","properties":{"highway":"bus_stop","public_transport":"platform","name":"  't Zand","ref:IFOPT":"NL:Q:72602070","_quaycode":"NL:Q:72602070","_town":"Roosendaal","_status":"available","_mode":"bus","_direction":226,"_visuallyAccessible":true,"_disabledAccessible":true,"geojson_lng":4.482374565962939,"geojson_lat":51.520967470604944},"geometry":{"type":"Point","coordinates":[4.482374565962939,51.520967470604944]}},{"type":"Feature","properties":{"highway":"bus_stop","public_transport":"platform","name":"Lavadijk","ref:IFOPT":"NL:Q:72601900","_quaycode":"NL:Q:72601900","_town":"Roosendaal","_status":"available","_mode":"bus","_direction":4,"_visuallyAccessible":true,"_disabledAccessible":true,"geojson_lng":4.492519575023205,"geojson_lat":51.52677166032617},"geometry":{"type":"Point","coordinates":[4.492519575023205,51.52677166032617]}},{"type":"Feature","properties":{"highway":"bus_stop","public_transport":"platform","name":"D-dijk","ref:IFOPT":"NL:Q:72602030","_quaycode":"NL:Q:72602030","_town":"Roosendaal","_status":"available","_mode":"bus","_direction":286,"_visuallyAccessible":true,"_disabledAccessible":true,"geojson_lng":4.490836414342665,"geojson_lat":51.533932051674675},"geometry":{"type":"Point","coordinates":[4.490836414342665,51.533932051674675]}},{"type":"Feature","properties":{"highway":"bus_stop","public_transport":"platform","name":"Lisztlaan","ref:IFOPT":"NL:Q:72603700","_quaycode":"NL:Q:72603700","_town":"Roosendaal","_status":"available","_mode":"bus","_direction":252,"_visuallyAccessible":false,"_disabledAccessible":false,"geojson_lng":4.485342385752814,"geojson_lat":51.53914839255746},"geometry":{"type":"Point","coordinates":[4.485342385752814,51.53914839255746]}},{"type":"Feature","properties":{"highway":"bus_stop","public_transport":"platform","name":"Sint Martinusstraat","ref:IFOPT":"NL:Q:72400020","_quaycode":"NL:Q:72400020","_town":"Rucphen","_status":"available","_mode":"bus","_direction":282,"_visuallyAccessible":false,"_disabledAccessible":false,"geojson_lng":4.555654295090733,"geojson_lat":51.533809058623376},"geometry":{"type":"Point","coordinates":[4.555654295090733,51.533809058623376]}},{"type":"Feature","properties":{"highway":"bus_stop","public_transport":"platform","name":"Bergkristaldijk","ref:IFOPT":"NL:Q:72601780","_quaycode":"NL:Q:72601780","_town":"Roosendaal","_status":"available","_mode":"bus","_direction":290,"_visuallyAccessible":true,"_disabledAccessible":true,"geojson_lng":4.487852063529654,"geojson_lat":51.52814711089877},"geometry":{"type":"Point","coordinates":[4.487852063529654,51.52814711089877]}},{"type":"Feature","properties":{"highway":"bus_stop","public_transport":"platform","name":"Lavadijk","ref:IFOPT":"NL:Q:72601910","_quaycode":"NL:Q:72601910","_town":"Roosendaal","_status":"available","_mode":"bus","_direction":184,"_visuallyAccessible":true,"_disabledAccessible":true,"geojson_lng":4.492485096775329,"geojson_lat":51.52705904715807},"geometry":{"type":"Point","coordinates":[4.492485096775329,51.52705904715807]}},{"type":"Feature","properties":{"highway":"bus_stop","public_transport":"platform","name":"Diamantdijk","ref:IFOPT":"NL:Q:72601830","_quaycode":"NL:Q:72601830","_town":"Roosendaal","_status":"available","_mode":"bus","_direction":3,"_visuallyAccessible":true,"_disabledAccessible":true,"geojson_lng":4.4911036833952895,"geojson_lat":51.5276866851728},"geometry":{"type":"Point","coordinates":[4.4911036833952895,51.5276866851728]}},{"type":"Feature","properties":{"highway":"bus_stop","public_transport":"platform","name":"Flintdijk","ref:IFOPT":"NL:Q:72601950","_quaycode":"NL:Q:72601950","_town":"Roosendaal","_status":"available","_mode":"bus","_direction":144,"_visuallyAccessible":false,"_disabledAccessible":false,"geojson_lng":4.493876790862204,"geojson_lat":51.52517299912263},"geometry":{"type":"Point","coordinates":[4.493876790862204,51.52517299912263]}},{"type":"Feature","properties":{"highway":"bus_stop","public_transport":"platform","name":"A-Dijk","ref:IFOPT":"NL:Q:72600160","_quaycode":"NL:Q:72600160","_town":"Roosendaal","_status":"available","_mode":"bus","_direction":188,"_visuallyAccessible":true,"_disabledAccessible":true,"geojson_lng":4.48269202578118,"geojson_lat":51.524565570210456},"geometry":{"type":"Point","coordinates":[4.48269202578118,51.524565570210456]}},{"type":"Feature","properties":{"highway":"bus_stop","public_transport":"platform","name":"Landerije","ref:IFOPT":"NL:Q:72602000","_quaycode":"NL:Q:72602000","_town":"Roosendaal","_status":"available","_mode":"bus","_direction":106,"_visuallyAccessible":true,"_disabledAccessible":true,"geojson_lng":4.4978957018176535,"geojson_lat":51.53261965426488},"geometry":{"type":"Point","coordinates":[4.4978957018176535,51.53261965426488]}},{"type":"Feature","properties":{"highway":"bus_stop","public_transport":"platform","name":"Sint Martinusstraat","ref:IFOPT":"NL:Q:72400030","_quaycode":"NL:Q:72400030","_town":"Rucphen","_status":"available","_mode":"bus","_direction":102,"_visuallyAccessible":false,"_disabledAccessible":false,"geojson_lng":4.55567018617484,"geojson_lat":51.53372827052191},"geometry":{"type":"Point","coordinates":[4.55567018617484,51.53372827052191]}},{"type":"Feature","properties":{"highway":"bus_stop","public_transport":"platform","name":"Raadhuisstraat","ref:IFOPT":"NL:Q:72400060","_quaycode":"NL:Q:72400060","_town":"Rucphen","_status":"available","_mode":"bus","_direction":90,"_visuallyAccessible":false,"_disabledAccessible":true,"geojson_lng":4.55936286075821,"geojson_lat":51.532774688395406},"geometry":{"type":"Point","coordinates":[4.55936286075821,51.532774688395406]}},{"type":"Feature","properties":{"highway":"bus_stop","public_transport":"platform","name":"Landerije","ref:IFOPT":"NL:Q:72602010","_quaycode":"NL:Q:72602010","_town":"Roosendaal","_status":"available","_mode":"bus","_direction":286,"_visuallyAccessible":true,"_disabledAccessible":true,"geojson_lng":4.497851766653217,"geojson_lat":51.532655276173244},"geometry":{"type":"Point","coordinates":[4.497851766653217,51.532655276173244]}},{"type":"Feature","properties":{"highway":"bus_stop","public_transport":"platform","name":"Diamantdijk","ref:IFOPT":"NL:Q:72601820","_quaycode":"NL:Q:72601820","_town":"Roosendaal","_status":"available","_mode":"bus","_direction":181,"_visuallyAccessible":true,"_disabledAccessible":true,"geojson_lng":4.491030043769421,"geojson_lat":51.5277670221469},"geometry":{"type":"Point","coordinates":[4.491030043769421,51.5277670221469]}},{"type":"Feature","properties":{"highway":"bus_stop","public_transport":"platform","name":"Lisztlaan","ref:IFOPT":"NL:Q:72607000","_quaycode":"NL:Q:72607000","_town":"Roosendaal","_status":"available","_mode":"bus","_direction":72,"_visuallyAccessible":false,"_disabledAccessible":false,"geojson_lng":4.485558396302014,"geojson_lat":51.539159048621286},"geometry":{"type":"Point","coordinates":[4.485558396302014,51.539159048621286]}},{"type":"Feature","properties":{"highway":"bus_stop","public_transport":"platform","name":"Onyxdijk","ref:IFOPT":"NL:Q:72602130","_quaycode":"NL:Q:72602130","_town":"Roosendaal","_status":"available","_mode":"bus","_direction":225,"_visuallyAccessible":true,"_disabledAccessible":true,"geojson_lng":4.494919288061878,"geojson_lat":51.52051562835657},"geometry":{"type":"Point","coordinates":[4.494919288061878,51.52051562835657]}},{"type":"Feature","properties":{"highway":"bus_stop","public_transport":"platform","name":"Koraaldijk","ref:IFOPT":"NL:Q:72601870","_quaycode":"NL:Q:72601870","_town":"Roosendaal","_status":"available","_mode":"bus","_direction":173,"_visuallyAccessible":false,"_disabledAccessible":false,"geojson_lng":4.493751779269636,"geojson_lat":51.52933399098616},"geometry":{"type":"Point","coordinates":[4.493751779269636,51.52933399098616]}},{"type":"Feature","properties":{"highway":"bus_stop","public_transport":"platform","name":"Bergkristaldijk","ref:IFOPT":"NL:Q:72601790","_quaycode":"NL:Q:72601790","_town":"Roosendaal","_status":"available","_mode":"bus","_direction":112,"_visuallyAccessible":false,"_disabledAccessible":false,"geojson_lng":4.487694274738294,"geojson_lat":51.528109939784244},"geometry":{"type":"Point","coordinates":[4.487694274738294,51.528109939784244]}},{"type":"Feature","properties":{"highway":"bus_stop","public_transport":"platform","name":"Bosschenhoofdseweg","ref:IFOPT":"NL:Q:72500130","_quaycode":"NL:Q:72500130","_town":"Zegge","_status":"available","_mode":"bus","_direction":189,"_visuallyAccessible":true,"_disabledAccessible":true,"geojson_lng":4.516387671802728,"geojson_lat":51.561928409609926},"geometry":{"type":"Point","coordinates":[4.516387671802728,51.561928409609926]}}]}