{"type":"FeatureCollection","features":[{"type":"Feature","properties":{"SeqNo":"511026","Type":"S","DHID":"de:05111:18215","Parent":"de:05111:18215","Name":"D-Rather Broich","MunicipalityCode":"05111000","Municipality":"Düsseldorf","DistrictCode":"","District":"","Description":"","Authority":"VRR","DelfiName":"-","THID":"D913F7004727","LastOperationDate":"2025-06-14T00:00:00","SEV":"nein","longitude":"6,822372","latitude":"51,25468","geojson_lng":6.822372,"geojson_lat":51.25468},"geometry":{"type":"Point","coordinates":[6.822372,51.25468]}},{"type":"Feature","properties":{"SeqNo":"511027","Type":"A","DHID":"de:05111:18215:1","Parent":"de:05111:18215","Name":"Steig 1","MunicipalityCode":"00000000","Municipality":"-","DistrictCode":"-","District":"-","Description":"","Authority":"VRR","DelfiName":"-","THID":"-","LastOperationDate":"","SEV":"nein","longitude":"6,822318","latitude":"51,254877","geojson_lng":6.822318,"geojson_lat":51.254877},"geometry":{"type":"Point","coordinates":[6.822318,51.254877]}},{"type":"Feature","properties":{"SeqNo":"511029","Type":"A","DHID":"de:05111:18215:3","Parent":"de:05111:18215","Name":"Steig 3","MunicipalityCode":"00000000","Municipality":"-","DistrictCode":"-","District":"-","Description":"","Authority":"VRR","DelfiName":"-","THID":"-","LastOperationDate":"","SEV":"nein","longitude":"6,821797","latitude":"51,254894","geojson_lng":6.821797,"geojson_lat":51.254894},"geometry":{"type":"Point","coordinates":[6.821797,51.254894]}},{"type":"Feature","properties":{"SeqNo":"511030","Type":"A","DHID":"de:05111:18215:4","Parent":"de:05111:18215","Name":"Steig 4","MunicipalityCode":"00000000","Municipality":"-","DistrictCode":"-","District":"-","Description":"","Authority":"VRR","DelfiName":"-","THID":"-","LastOperationDate":"","SEV":"nein","longitude":"6,822579","latitude":"51,254343","geojson_lng":6.822579,"geojson_lat":51.254343},"geometry":{"type":"Point","coordinates":[6.822579,51.254343]}},{"type":"Feature","properties":{"SeqNo":"511031","Type":"Q","DHID":"de:05111:18215:1:1","Parent":"de:05111:18215:1","Name":"712 HRG/719 PZP","MunicipalityCode":"00000000","Municipality":"-","DistrictCode":"-","District":"-","Description":"","Authority":"VRR","DelfiName":"-","THID":"-","LastOperationDate":"","SEV":"nein","longitude":"6,822354","latitude":"51,254866","geojson_lng":6.822354,"geojson_lat":51.254866},"geometry":{"type":"Point","coordinates":[6.822354,51.254866]}},{"type":"Feature","properties":{"SeqNo":"511033","Type":"Q","DHID":"de:05111:18215:2:3","Parent":"de:05111:18215:3","Name":"730 SDA/810 LFD","MunicipalityCode":"00000000","Municipality":"-","DistrictCode":"-","District":"-","Description":"","Authority":"VRR","DelfiName":"-","THID":"-","LastOperationDate":"","SEV":"nein","longitude":"6,82186","latitude":"51,254911","geojson_lng":6.82186,"geojson_lat":51.254911},"geometry":{"type":"Point","coordinates":[6.82186,51.254911]}},{"type":"Feature","properties":{"SeqNo":"511034","Type":"Q","DHID":"de:05111:18215:2:4","Parent":"de:05111:18215:4","Name":"730 FGP","MunicipalityCode":"00000000","Municipality":"-","DistrictCode":"-","District":"-","Description":"","Authority":"VRR","DelfiName":"-","THID":"-","LastOperationDate":"","SEV":"nein","longitude":"6,822525","latitude":"51,254349","geojson_lng":6.822525,"geojson_lat":51.254349},"geometry":{"type":"Point","coordinates":[6.822525,51.254349]}},{"type":"Feature","properties":{"SeqNo":"511035","Type":"S","DHID":"de:05111:18216","Parent":"de:05111:18216","Name":"D-Mörsenbroicher Weg","MunicipalityCode":"05111000","Municipality":"Düsseldorf","DistrictCode":"","District":"","Description":"","Authority":"VRR","DelfiName":"-","THID":"D913F7004728","LastOperationDate":"2025-06-14T00:00:00","SEV":"nein","longitude":"6,822184","latitude":"51,250981","geojson_lng":6.822184,"geojson_lat":51.250981},"geometry":{"type":"Point","coordinates":[6.822184,51.250981]}},{"type":"Feature","properties":{"SeqNo":"511036","Type":"A","DHID":"de:05111:18216:1","Parent":"de:05111:18216","Name":"U72-HRG","MunicipalityCode":"00000000","Municipality":"-","DistrictCode":"-","District":"-","Description":"","Authority":"VRR","DelfiName":"-","THID":"-","LastOperationDate":"","SEV":"nein","longitude":"6,822139","latitude":"51,251178","geojson_lng":6.822139,"geojson_lat":51.251178},"geometry":{"type":"Point","coordinates":[6.822139,51.251178]}},{"type":"Feature","properties":{"SeqNo":"511037","Type":"A","DHID":"de:05111:18216:2","Parent":"de:05111:18216","Name":"U72-RMT","MunicipalityCode":"00000000","Municipality":"-","DistrictCode":"-","District":"-","Description":"","Authority":"VRR","DelfiName":"-","THID":"-","LastOperationDate":"","SEV":"nein","longitude":"6,822291","latitude":"51,251611","geojson_lng":6.822291,"geojson_lat":51.251611},"geometry":{"type":"Point","coordinates":[6.822291,51.251611]}},{"type":"Feature","properties":{"SeqNo":"511040","Type":"A","DHID":"de:05111:18216:5","Parent":"de:05111:18216","Name":"733-SVK","MunicipalityCode":"00000000","Municipality":"-","DistrictCode":"-","District":"-","Description":"","Authority":"VRR","DelfiName":"-","THID":"-","LastOperationDate":"","SEV":"nein","longitude":"6,820854","latitude":"51,250829","geojson_lng":6.820854,"geojson_lat":51.250829},"geometry":{"type":"Point","coordinates":[6.820854,51.250829]}},{"type":"Feature","properties":{"SeqNo":"511041","Type":"A","DHID":"de:05111:18216:6","Parent":"de:05111:18216","Name":"733-HBP","MunicipalityCode":"00000000","Municipality":"-","DistrictCode":"-","District":"-","Description":"","Authority":"VRR","DelfiName":"-","THID":"-","LastOperationDate":"","SEV":"nein","longitude":"6,821348","latitude":"51,250756","geojson_lng":6.821348,"geojson_lat":51.250756},"geometry":{"type":"Point","coordinates":[6.821348,51.250756]}},{"type":"Feature","properties":{"SeqNo":"511042","Type":"A","DHID":"de:05111:18216:7","Parent":"de:05111:18216","Name":"810-LFD/NE2-DHB","MunicipalityCode":"00000000","Municipality":"-","DistrictCode":"-","District":"-","Description":"","Authority":"VRR","DelfiName":"-","THID":"-","LastOperationDate":"","SEV":"nein","longitude":"6,821977","latitude":"51,251195","geojson_lng":6.821977,"geojson_lat":51.251195},"geometry":{"type":"Point","coordinates":[6.821977,51.251195]}},{"type":"Feature","properties":{"SeqNo":"511043","Type":"A","DHID":"de:05111:18216:8","Parent":"de:05111:18216","Name":"NE2-UTR","MunicipalityCode":"00000000","Municipality":"-","DistrictCode":"-","District":"-","Description":"","Authority":"VRR","DelfiName":"-","THID":"-","LastOperationDate":"","SEV":"nein","longitude":"6,822399","latitude":"51,251318","geojson_lng":6.822399,"geojson_lat":51.251318},"geometry":{"type":"Point","coordinates":[6.822399,51.251318]}},{"type":"Feature","properties":{"SeqNo":"511044","Type":"Q","DHID":"de:05111:18216:0:1","Parent":"de:05111:18216:1","Name":"712-HRG","MunicipalityCode":"00000000","Municipality":"-","DistrictCode":"-","District":"-","Description":"","Authority":"VRR","DelfiName":"-","THID":"-","LastOperationDate":"","SEV":"nein","longitude":"6,822166","latitude":"51,251178","geojson_lng":6.822166,"geojson_lat":51.251178},"geometry":{"type":"Point","coordinates":[6.822166,51.251178]}},{"type":"Feature","properties":{"SeqNo":"511045","Type":"Q","DHID":"de:05111:18216:0:2","Parent":"de:05111:18216:2","Name":"712-RMT","MunicipalityCode":"00000000","Municipality":"-","DistrictCode":"-","District":"-","Description":"","Authority":"VRR","DelfiName":"-","THID":"-","LastOperationDate":"","SEV":"nein","longitude":"6,822273","latitude":"51,251611","geojson_lng":6.822273,"geojson_lat":51.251611},"geometry":{"type":"Point","coordinates":[6.822273,51.251611]}},{"type":"Feature","properties":{"SeqNo":"511048","Type":"Q","DHID":"de:05111:18216:0:5","Parent":"de:05111:18216:5","Name":"733-SVK","MunicipalityCode":"00000000","Municipality":"-","DistrictCode":"-","District":"-","Description":"","Authority":"VRR","DelfiName":"-","THID":"-","LastOperationDate":"","SEV":"nein","longitude":"6,820881","latitude":"51,250773","geojson_lng":6.820881,"geojson_lat":51.250773},"geometry":{"type":"Point","coordinates":[6.820881,51.250773]}},{"type":"Feature","properties":{"SeqNo":"511049","Type":"Q","DHID":"de:05111:18216:0:6","Parent":"de:05111:18216:6","Name":"733-APK","MunicipalityCode":"00000000","Municipality":"-","DistrictCode":"-","District":"-","Description":"","Authority":"VRR","DelfiName":"-","THID":"-","LastOperationDate":"","SEV":"nein","longitude":"6,821312","latitude":"51,250818","geojson_lng":6.821312,"geojson_lat":51.250818},"geometry":{"type":"Point","coordinates":[6.821312,51.250818]}},{"type":"Feature","properties":{"SeqNo":"511050","Type":"Q","DHID":"de:05111:18216:0:7","Parent":"de:05111:18216:7","Name":"810-LFD/NE2-DHB","MunicipalityCode":"00000000","Municipality":"-","DistrictCode":"-","District":"-","Description":"","Authority":"VRR","DelfiName":"-","THID":"-","LastOperationDate":"","SEV":"nein","longitude":"6,822013","latitude":"51,251195","geojson_lng":6.822013,"geojson_lat":51.251195},"geometry":{"type":"Point","coordinates":[6.822013,51.251195]}},{"type":"Feature","properties":{"SeqNo":"511051","Type":"Q","DHID":"de:05111:18216:0:8","Parent":"de:05111:18216:8","Name":"NE2-UTR","MunicipalityCode":"00000000","Municipality":"-","DistrictCode":"-","District":"-","Description":"","Authority":"VRR","DelfiName":"-","THID":"-","LastOperationDate":"","SEV":"nein","longitude":"6,822354","latitude":"51,251318","geojson_lng":6.822354,"geojson_lat":51.251318},"geometry":{"type":"Point","coordinates":[6.822354,51.251318]}},{"type":"Feature","properties":{"SeqNo":"513808","Type":"S","DHID":"de:05111:18805","Parent":"de:05111:18805","Name":"D-Vinckestraße","MunicipalityCode":"05111000","Municipality":"Düsseldorf","DistrictCode":"","District":"","Description":"","Authority":"VRR","DelfiName":"-","THID":"D913F7004975","LastOperationDate":"2025-06-14T00:00:00","SEV":"nein","longitude":"6,814144","latitude":"51,250644","geojson_lng":6.814144,"geojson_lat":51.250644},"geometry":{"type":"Point","coordinates":[6.814144,51.250644]}},{"type":"Feature","properties":{"SeqNo":"513809","Type":"A","DHID":"de:05111:18805:1","Parent":"de:05111:18805","Name":"für Steig 1","MunicipalityCode":"00000000","Municipality":"-","DistrictCode":"-","District":"-","Description":"","Authority":"VRR","DelfiName":"-","THID":"-","LastOperationDate":"","SEV":"nein","longitude":"6,813479","latitude":"51,250717","geojson_lng":6.813479,"geojson_lat":51.250717},"geometry":{"type":"Point","coordinates":[6.813479,51.250717]}},{"type":"Feature","properties":{"SeqNo":"513810","Type":"A","DHID":"de:05111:18805:2","Parent":"de:05111:18805","Name":"für Steig 2","MunicipalityCode":"00000000","Municipality":"-","DistrictCode":"-","District":"-","Description":"","Authority":"VRR","DelfiName":"-","THID":"-","LastOperationDate":"","SEV":"nein","longitude":"6,814593","latitude":"51,250554","geojson_lng":6.814593,"geojson_lat":51.250554},"geometry":{"type":"Point","coordinates":[6.814593,51.250554]}},{"type":"Feature","properties":{"SeqNo":"513811","Type":"Q","DHID":"de:05111:18805:1:1","Parent":"de:05111:18805:1","Name":"Ri. Heinrichstr.","MunicipalityCode":"00000000","Municipality":"-","DistrictCode":"-","District":"-","Description":"","Authority":"VRR","DelfiName":"-","THID":"-","LastOperationDate":"","SEV":"nein","longitude":"6,81347","latitude":"51,2507","geojson_lng":6.81347,"geojson_lat":51.2507},"geometry":{"type":"Point","coordinates":[6.81347,51.2507]}},{"type":"Feature","properties":{"SeqNo":"513812","Type":"Q","DHID":"de:05111:18805:2:2","Parent":"de:05111:18805:2","Name":"Ri. BMS","MunicipalityCode":"00000000","Municipality":"-","DistrictCode":"-","District":"-","Description":"","Authority":"VRR","DelfiName":"-","THID":"-","LastOperationDate":"","SEV":"nein","longitude":"6,814602","latitude":"51,250587","geojson_lng":6.814602,"geojson_lat":51.250587},"geometry":{"type":"Point","coordinates":[6.814602,51.250587]}}]}