{"type":"FeatureCollection","features":[{"type":"Feature","properties":{"SeqNo":"520131","Type":"S","DHID":"de:05111:18215","Parent":"de:05111:18215","Name":"D-Rather Broich","Latitude":"51,25468","Longitude":"6,822372","MunicipalityCode":"05111000","Municipality":"Düsseldorf","DistrictCode":"","District":"","Description":"","Authority":"VRR","DelfiName":"-","THID":"D913F7004727","TariffProvider":"-","LastOperationDate":"2025-12-13T00:00:00","SEV":"nein","geojson_lng":6.822372,"geojson_lat":51.25468},"geometry":{"type":"Point","coordinates":[6.822372,51.25468]}},{"type":"Feature","properties":{"SeqNo":"520132","Type":"A","DHID":"de:05111:18215:1","Parent":"de:05111:18215","Name":"Steig 1","Latitude":"51,254877","Longitude":"6,822318","MunicipalityCode":"00000000","Municipality":"-","DistrictCode":"-","District":"-","Description":"","Authority":"VRR","DelfiName":"-","THID":"-","TariffProvider":"-","LastOperationDate":"","SEV":"nein","geojson_lng":6.822318,"geojson_lat":51.254877},"geometry":{"type":"Point","coordinates":[6.822318,51.254877]}},{"type":"Feature","properties":{"SeqNo":"520134","Type":"A","DHID":"de:05111:18215:3","Parent":"de:05111:18215","Name":"Steig 3","Latitude":"51,254894","Longitude":"6,821797","MunicipalityCode":"00000000","Municipality":"-","DistrictCode":"-","District":"-","Description":"","Authority":"VRR","DelfiName":"-","THID":"-","TariffProvider":"-","LastOperationDate":"","SEV":"nein","geojson_lng":6.821797,"geojson_lat":51.254894},"geometry":{"type":"Point","coordinates":[6.821797,51.254894]}},{"type":"Feature","properties":{"SeqNo":"520135","Type":"A","DHID":"de:05111:18215:4","Parent":"de:05111:18215","Name":"Steig 4","Latitude":"51,254343","Longitude":"6,822579","MunicipalityCode":"00000000","Municipality":"-","DistrictCode":"-","District":"-","Description":"","Authority":"VRR","DelfiName":"-","THID":"-","TariffProvider":"-","LastOperationDate":"","SEV":"nein","geojson_lng":6.822579,"geojson_lat":51.254343},"geometry":{"type":"Point","coordinates":[6.822579,51.254343]}},{"type":"Feature","properties":{"SeqNo":"520136","Type":"Q","DHID":"de:05111:18215:1:1","Parent":"de:05111:18215:1","Name":"712 HRG/719 PZP","Latitude":"51,254866","Longitude":"6,822354","MunicipalityCode":"00000000","Municipality":"-","DistrictCode":"-","District":"-","Description":"","Authority":"VRR","DelfiName":"-","THID":"-","TariffProvider":"-","LastOperationDate":"","SEV":"nein","geojson_lng":6.822354,"geojson_lat":51.254866},"geometry":{"type":"Point","coordinates":[6.822354,51.254866]}},{"type":"Feature","properties":{"SeqNo":"520138","Type":"Q","DHID":"de:05111:18215:2:3","Parent":"de:05111:18215:3","Name":"730 SDA/810 LFD","Latitude":"51,254911","Longitude":"6,82186","MunicipalityCode":"00000000","Municipality":"-","DistrictCode":"-","District":"-","Description":"","Authority":"VRR","DelfiName":"-","THID":"-","TariffProvider":"-","LastOperationDate":"","SEV":"nein","geojson_lng":6.82186,"geojson_lat":51.254911},"geometry":{"type":"Point","coordinates":[6.82186,51.254911]}},{"type":"Feature","properties":{"SeqNo":"520139","Type":"Q","DHID":"de:05111:18215:2:4","Parent":"de:05111:18215:4","Name":"730 FGP","Latitude":"51,254349","Longitude":"6,822525","MunicipalityCode":"00000000","Municipality":"-","DistrictCode":"-","District":"-","Description":"","Authority":"VRR","DelfiName":"-","THID":"-","TariffProvider":"-","LastOperationDate":"","SEV":"nein","geojson_lng":6.822525,"geojson_lat":51.254349},"geometry":{"type":"Point","coordinates":[6.822525,51.254349]}},{"type":"Feature","properties":{"SeqNo":"520140","Type":"S","DHID":"de:05111:18216","Parent":"de:05111:18216","Name":"D-Mörsenbroicher Weg","Latitude":"51,250981","Longitude":"6,822184","MunicipalityCode":"05111000","Municipality":"Düsseldorf","DistrictCode":"","District":"","Description":"","Authority":"VRR","DelfiName":"-","THID":"D913F7004728","TariffProvider":"-","LastOperationDate":"2025-12-13T00:00:00","SEV":"nein","geojson_lng":6.822184,"geojson_lat":51.250981},"geometry":{"type":"Point","coordinates":[6.822184,51.250981]}},{"type":"Feature","properties":{"SeqNo":"520141","Type":"A","DHID":"de:05111:18216:1","Parent":"de:05111:18216","Name":"U72-HRG","Latitude":"51,251178","Longitude":"6,822139","MunicipalityCode":"00000000","Municipality":"-","DistrictCode":"-","District":"-","Description":"","Authority":"VRR","DelfiName":"-","THID":"-","TariffProvider":"-","LastOperationDate":"","SEV":"nein","geojson_lng":6.822139,"geojson_lat":51.251178},"geometry":{"type":"Point","coordinates":[6.822139,51.251178]}},{"type":"Feature","properties":{"SeqNo":"520142","Type":"A","DHID":"de:05111:18216:2","Parent":"de:05111:18216","Name":"U72-RMT","Latitude":"51,251611","Longitude":"6,822291","MunicipalityCode":"00000000","Municipality":"-","DistrictCode":"-","District":"-","Description":"","Authority":"VRR","DelfiName":"-","THID":"-","TariffProvider":"-","LastOperationDate":"","SEV":"nein","geojson_lng":6.822291,"geojson_lat":51.251611},"geometry":{"type":"Point","coordinates":[6.822291,51.251611]}},{"type":"Feature","properties":{"SeqNo":"520145","Type":"A","DHID":"de:05111:18216:5","Parent":"de:05111:18216","Name":"733-SVK","Latitude":"51,250829","Longitude":"6,820854","MunicipalityCode":"00000000","Municipality":"-","DistrictCode":"-","District":"-","Description":"","Authority":"VRR","DelfiName":"-","THID":"-","TariffProvider":"-","LastOperationDate":"","SEV":"nein","geojson_lng":6.820854,"geojson_lat":51.250829},"geometry":{"type":"Point","coordinates":[6.820854,51.250829]}},{"type":"Feature","properties":{"SeqNo":"520146","Type":"A","DHID":"de:05111:18216:6","Parent":"de:05111:18216","Name":"733-HBP","Latitude":"51,250756","Longitude":"6,821348","MunicipalityCode":"00000000","Municipality":"-","DistrictCode":"-","District":"-","Description":"","Authority":"VRR","DelfiName":"-","THID":"-","TariffProvider":"-","LastOperationDate":"","SEV":"nein","geojson_lng":6.821348,"geojson_lat":51.250756},"geometry":{"type":"Point","coordinates":[6.821348,51.250756]}},{"type":"Feature","properties":{"SeqNo":"520147","Type":"A","DHID":"de:05111:18216:7","Parent":"de:05111:18216","Name":"810-LFD/NE2-DHB","Latitude":"51,251195","Longitude":"6,821977","MunicipalityCode":"00000000","Municipality":"-","DistrictCode":"-","District":"-","Description":"","Authority":"VRR","DelfiName":"-","THID":"-","TariffProvider":"-","LastOperationDate":"","SEV":"nein","geojson_lng":6.821977,"geojson_lat":51.251195},"geometry":{"type":"Point","coordinates":[6.821977,51.251195]}},{"type":"Feature","properties":{"SeqNo":"520148","Type":"A","DHID":"de:05111:18216:8","Parent":"de:05111:18216","Name":"NE2-UTR","Latitude":"51,251318","Longitude":"6,822399","MunicipalityCode":"00000000","Municipality":"-","DistrictCode":"-","District":"-","Description":"","Authority":"VRR","DelfiName":"-","THID":"-","TariffProvider":"-","LastOperationDate":"","SEV":"nein","geojson_lng":6.822399,"geojson_lat":51.251318},"geometry":{"type":"Point","coordinates":[6.822399,51.251318]}},{"type":"Feature","properties":{"SeqNo":"520149","Type":"Q","DHID":"de:05111:18216:0:1","Parent":"de:05111:18216:1","Name":"712-HRG","Latitude":"51,251178","Longitude":"6,822166","MunicipalityCode":"00000000","Municipality":"-","DistrictCode":"-","District":"-","Description":"","Authority":"VRR","DelfiName":"-","THID":"-","TariffProvider":"-","LastOperationDate":"","SEV":"nein","geojson_lng":6.822166,"geojson_lat":51.251178},"geometry":{"type":"Point","coordinates":[6.822166,51.251178]}},{"type":"Feature","properties":{"SeqNo":"520150","Type":"Q","DHID":"de:05111:18216:0:2","Parent":"de:05111:18216:2","Name":"712-RMT","Latitude":"51,251611","Longitude":"6,822273","MunicipalityCode":"00000000","Municipality":"-","DistrictCode":"-","District":"-","Description":"","Authority":"VRR","DelfiName":"-","THID":"-","TariffProvider":"-","LastOperationDate":"","SEV":"nein","geojson_lng":6.822273,"geojson_lat":51.251611},"geometry":{"type":"Point","coordinates":[6.822273,51.251611]}},{"type":"Feature","properties":{"SeqNo":"520153","Type":"Q","DHID":"de:05111:18216:0:5","Parent":"de:05111:18216:5","Name":"733-SVK","Latitude":"51,250773","Longitude":"6,820881","MunicipalityCode":"00000000","Municipality":"-","DistrictCode":"-","District":"-","Description":"","Authority":"VRR","DelfiName":"-","THID":"-","TariffProvider":"-","LastOperationDate":"","SEV":"nein","geojson_lng":6.820881,"geojson_lat":51.250773},"geometry":{"type":"Point","coordinates":[6.820881,51.250773]}},{"type":"Feature","properties":{"SeqNo":"520154","Type":"Q","DHID":"de:05111:18216:0:6","Parent":"de:05111:18216:6","Name":"733-APK","Latitude":"51,250818","Longitude":"6,821312","MunicipalityCode":"00000000","Municipality":"-","DistrictCode":"-","District":"-","Description":"","Authority":"VRR","DelfiName":"-","THID":"-","TariffProvider":"-","LastOperationDate":"","SEV":"nein","geojson_lng":6.821312,"geojson_lat":51.250818},"geometry":{"type":"Point","coordinates":[6.821312,51.250818]}},{"type":"Feature","properties":{"SeqNo":"520155","Type":"Q","DHID":"de:05111:18216:0:7","Parent":"de:05111:18216:7","Name":"810-LFD/NE2-DHB","Latitude":"51,251195","Longitude":"6,822013","MunicipalityCode":"00000000","Municipality":"-","DistrictCode":"-","District":"-","Description":"","Authority":"VRR","DelfiName":"-","THID":"-","TariffProvider":"-","LastOperationDate":"","SEV":"nein","geojson_lng":6.822013,"geojson_lat":51.251195},"geometry":{"type":"Point","coordinates":[6.822013,51.251195]}},{"type":"Feature","properties":{"SeqNo":"520156","Type":"Q","DHID":"de:05111:18216:0:8","Parent":"de:05111:18216:8","Name":"NE2-UTR","Latitude":"51,251318","Longitude":"6,822354","MunicipalityCode":"00000000","Municipality":"-","DistrictCode":"-","District":"-","Description":"","Authority":"VRR","DelfiName":"-","THID":"-","TariffProvider":"-","LastOperationDate":"","SEV":"nein","geojson_lng":6.822354,"geojson_lat":51.251318},"geometry":{"type":"Point","coordinates":[6.822354,51.251318]}},{"type":"Feature","properties":{"SeqNo":"522979","Type":"S","DHID":"de:05111:18805","Parent":"de:05111:18805","Name":"D-Vinckestraße","Latitude":"51,250644","Longitude":"6,814144","MunicipalityCode":"05111000","Municipality":"Düsseldorf","DistrictCode":"","District":"","Description":"","Authority":"VRR","DelfiName":"-","THID":"D913F7004975","TariffProvider":"-","LastOperationDate":"2025-12-13T00:00:00","SEV":"nein","geojson_lng":6.814144,"geojson_lat":51.250644},"geometry":{"type":"Point","coordinates":[6.814144,51.250644]}},{"type":"Feature","properties":{"SeqNo":"522980","Type":"A","DHID":"de:05111:18805:1","Parent":"de:05111:18805","Name":"für Steig 1","Latitude":"51,250717","Longitude":"6,813479","MunicipalityCode":"00000000","Municipality":"-","DistrictCode":"-","District":"-","Description":"","Authority":"VRR","DelfiName":"-","THID":"-","TariffProvider":"-","LastOperationDate":"","SEV":"nein","geojson_lng":6.813479,"geojson_lat":51.250717},"geometry":{"type":"Point","coordinates":[6.813479,51.250717]}},{"type":"Feature","properties":{"SeqNo":"522981","Type":"A","DHID":"de:05111:18805:2","Parent":"de:05111:18805","Name":"für Steig 2","Latitude":"51,250554","Longitude":"6,814593","MunicipalityCode":"00000000","Municipality":"-","DistrictCode":"-","District":"-","Description":"","Authority":"VRR","DelfiName":"-","THID":"-","TariffProvider":"-","LastOperationDate":"","SEV":"nein","geojson_lng":6.814593,"geojson_lat":51.250554},"geometry":{"type":"Point","coordinates":[6.814593,51.250554]}},{"type":"Feature","properties":{"SeqNo":"522982","Type":"Q","DHID":"de:05111:18805:1:1","Parent":"de:05111:18805:1","Name":"Ri. Heinrichstr.","Latitude":"51,2507","Longitude":"6,81347","MunicipalityCode":"00000000","Municipality":"-","DistrictCode":"-","District":"-","Description":"","Authority":"VRR","DelfiName":"-","THID":"-","TariffProvider":"-","LastOperationDate":"","SEV":"nein","geojson_lng":6.81347,"geojson_lat":51.2507},"geometry":{"type":"Point","coordinates":[6.81347,51.2507]}},{"type":"Feature","properties":{"SeqNo":"522983","Type":"Q","DHID":"de:05111:18805:2:2","Parent":"de:05111:18805:2","Name":"Ri. BMS","Latitude":"51,250587","Longitude":"6,814602","MunicipalityCode":"00000000","Municipality":"-","DistrictCode":"-","District":"-","Description":"","Authority":"VRR","DelfiName":"-","THID":"-","TariffProvider":"-","LastOperationDate":"","SEV":"nein","geojson_lng":6.814602,"geojson_lat":51.250587},"geometry":{"type":"Point","coordinates":[6.814602,51.250587]}}]}