{"type":"FeatureCollection","features":[{"type":"Feature","properties":{"SeqNo":"510129","Type":"S","DHID":"de:05111:18092","Parent":"de:05111:18092","Name":"D-Provinzialplatz","MunicipalityCode":"05111000","Municipality":"Düsseldorf","DistrictCode":"","District":"","Description":"","Authority":"VRR","DelfiName":"-","THID":"D913F70046AC","LastOperationDate":"2025-06-14T00:00:00","SEV":"nein","longitude":"6,811862","latitude":"51,198396","geojson_lng":6.811862,"geojson_lat":51.198396},"geometry":{"type":"Point","coordinates":[6.811862,51.198396]}},{"type":"Feature","properties":{"SeqNo":"510130","Type":"A","DHID":"de:05111:18092:1","Parent":"de:05111:18092","Name":"Steig 1","MunicipalityCode":"00000000","Municipality":"-","DistrictCode":"-","District":"-","Description":"","Authority":"VRR","DelfiName":"-","THID":"-","LastOperationDate":"","SEV":"nein","longitude":"6,811781","latitude":"51,199015","geojson_lng":6.811781,"geojson_lat":51.199015},"geometry":{"type":"Point","coordinates":[6.811781,51.199015]}},{"type":"Feature","properties":{"SeqNo":"510131","Type":"A","DHID":"de:05111:18092:2","Parent":"de:05111:18092","Name":"Steig 2","MunicipalityCode":"00000000","Municipality":"-","DistrictCode":"-","District":"-","Description":"","Authority":"VRR","DelfiName":"-","THID":"-","LastOperationDate":"","SEV":"nein","longitude":"6,811889","latitude":"51,199043","geojson_lng":6.811889,"geojson_lat":51.199043},"geometry":{"type":"Point","coordinates":[6.811889,51.199043]}},{"type":"Feature","properties":{"SeqNo":"510132","Type":"A","DHID":"de:05111:18092:3","Parent":"de:05111:18092","Name":"Steig 3","MunicipalityCode":"00000000","Municipality":"-","DistrictCode":"-","District":"-","Description":"","Authority":"VRR","DelfiName":"-","THID":"-","LastOperationDate":"","SEV":"nein","longitude":"6,811808","latitude":"51,197844","geojson_lng":6.811808,"geojson_lat":51.197844},"geometry":{"type":"Point","coordinates":[6.811808,51.197844]}},{"type":"Feature","properties":{"SeqNo":"510133","Type":"A","DHID":"de:05111:18092:4","Parent":"de:05111:18092","Name":"Steig 4","MunicipalityCode":"00000000","Municipality":"-","DistrictCode":"-","District":"-","Description":"","Authority":"VRR","DelfiName":"-","THID":"-","LastOperationDate":"","SEV":"nein","longitude":"6,81206","latitude":"51,197979","geojson_lng":6.81206,"geojson_lat":51.197979},"geometry":{"type":"Point","coordinates":[6.81206,51.197979]}},{"type":"Feature","properties":{"SeqNo":"510134","Type":"Q","DHID":"de:05111:18092:0:1","Parent":"de:05111:18092:1","Name":"Ri. HOL","MunicipalityCode":"00000000","Municipality":"-","DistrictCode":"-","District":"-","Description":"","Authority":"VRR","DelfiName":"-","THID":"-","LastOperationDate":"","SEV":"nein","longitude":"6,811826","latitude":"51,198807","geojson_lng":6.811826,"geojson_lat":51.198807},"geometry":{"type":"Point","coordinates":[6.811826,51.198807]}},{"type":"Feature","properties":{"SeqNo":"510135","Type":"Q","DHID":"de:05111:18092:0:5","Parent":"de:05111:18092:1","Name":"Zugang 1","MunicipalityCode":"00000000","Municipality":"-","DistrictCode":"-","District":"-","Description":"","Authority":"VRR","DelfiName":"-","THID":"-","LastOperationDate":"","SEV":"nein","longitude":"6,811799","latitude":"51,198492","geojson_lng":6.811799,"geojson_lat":51.198492},"geometry":{"type":"Point","coordinates":[6.811799,51.198492]}},{"type":"Feature","properties":{"SeqNo":"510136","Type":"Q","DHID":"de:05111:18092:0:7","Parent":"de:05111:18092:1","Name":"Zugang 3","MunicipalityCode":"00000000","Municipality":"-","DistrictCode":"-","District":"-","Description":"","Authority":"VRR","DelfiName":"-","THID":"-","LastOperationDate":"","SEV":"nein","longitude":"6,811709","latitude":"51,199741","geojson_lng":6.811709,"geojson_lat":51.199741},"geometry":{"type":"Point","coordinates":[6.811709,51.199741]}},{"type":"Feature","properties":{"SeqNo":"510137","Type":"Q","DHID":"de:05111:18092:0:2","Parent":"de:05111:18092:2","Name":"Ri. DHB","MunicipalityCode":"00000000","Municipality":"-","DistrictCode":"-","District":"-","Description":"","Authority":"VRR","DelfiName":"-","THID":"-","LastOperationDate":"","SEV":"nein","longitude":"6,81188","latitude":"51,19888","geojson_lng":6.81188,"geojson_lat":51.19888},"geometry":{"type":"Point","coordinates":[6.81188,51.19888]}},{"type":"Feature","properties":{"SeqNo":"510138","Type":"Q","DHID":"de:05111:18092:0:8","Parent":"de:05111:18092:2","Name":"Zugang 4","MunicipalityCode":"00000000","Municipality":"-","DistrictCode":"-","District":"-","Description":"","Authority":"VRR","DelfiName":"-","THID":"-","LastOperationDate":"","SEV":"nein","longitude":"6,811853","latitude":"51,199753","geojson_lng":6.811853,"geojson_lat":51.199753},"geometry":{"type":"Point","coordinates":[6.811853,51.199753]}},{"type":"Feature","properties":{"SeqNo":"510139","Type":"Q","DHID":"de:05111:18092:0:Z","Parent":"de:05111:18092:2","Name":"Zugang 2","MunicipalityCode":"00000000","Municipality":"-","DistrictCode":"-","District":"-","Description":"","Authority":"VRR","DelfiName":"-","THID":"-","LastOperationDate":"","SEV":"nein","longitude":"6,811934","latitude":"51,198497","geojson_lng":6.811934,"geojson_lat":51.198497},"geometry":{"type":"Point","coordinates":[6.811934,51.198497]}},{"type":"Feature","properties":{"SeqNo":"510140","Type":"Q","DHID":"de:05111:18092:0:3","Parent":"de:05111:18092:3","Name":"Ri. SFH/BBF","MunicipalityCode":"00000000","Municipality":"-","DistrictCode":"-","District":"-","Description":"","Authority":"VRR","DelfiName":"-","THID":"-","LastOperationDate":"","SEV":"nein","longitude":"6,81179","latitude":"51,197856","geojson_lng":6.81179,"geojson_lat":51.197856},"geometry":{"type":"Point","coordinates":[6.81179,51.197856]}},{"type":"Feature","properties":{"SeqNo":"510141","Type":"Q","DHID":"de:05111:18092:0:4","Parent":"de:05111:18092:4","Name":"Ri. ELM/HHA","MunicipalityCode":"00000000","Municipality":"-","DistrictCode":"-","District":"-","Description":"","Authority":"VRR","DelfiName":"-","THID":"-","LastOperationDate":"","SEV":"nein","longitude":"6,812042","latitude":"51,197991","geojson_lng":6.812042,"geojson_lat":51.197991},"geometry":{"type":"Point","coordinates":[6.812042,51.197991]}},{"type":"Feature","properties":{"SeqNo":"510788","Type":"S","DHID":"de:05111:18191","Parent":"de:05111:18191","Name":"D-Ohligser Straße","MunicipalityCode":"05111000","Municipality":"Düsseldorf","DistrictCode":"","District":"","Description":"","Authority":"VRR","DelfiName":"-","THID":"D913F700470F","LastOperationDate":"2025-06-14T00:00:00","SEV":"nein","longitude":"6,82124","latitude":"51,195486","geojson_lng":6.82124,"geojson_lat":51.195486},"geometry":{"type":"Point","coordinates":[6.82124,51.195486]}},{"type":"Feature","properties":{"SeqNo":"510789","Type":"A","DHID":"de:05111:18191:1","Parent":"de:05111:18191","Name":"für Steig 1","MunicipalityCode":"00000000","Municipality":"-","DistrictCode":"-","District":"-","Description":"","Authority":"VRR","DelfiName":"-","THID":"-","LastOperationDate":"","SEV":"nein","longitude":"6,821061","latitude":"51,19561","geojson_lng":6.821061,"geojson_lat":51.19561},"geometry":{"type":"Point","coordinates":[6.821061,51.19561]}},{"type":"Feature","properties":{"SeqNo":"510790","Type":"A","DHID":"de:05111:18191:2","Parent":"de:05111:18191","Name":"für Steig 2","MunicipalityCode":"00000000","Municipality":"-","DistrictCode":"-","District":"-","Description":"","Authority":"VRR","DelfiName":"-","THID":"-","LastOperationDate":"","SEV":"nein","longitude":"6,821465","latitude":"51,195322","geojson_lng":6.821465,"geojson_lat":51.195322},"geometry":{"type":"Point","coordinates":[6.821465,51.195322]}},{"type":"Feature","properties":{"SeqNo":"510791","Type":"Q","DHID":"de:05111:18191:1:1","Parent":"de:05111:18191:1","Name":"Ri. Wersten","MunicipalityCode":"00000000","Municipality":"-","DistrictCode":"-","District":"-","Description":"","Authority":"VRR","DelfiName":"-","THID":"-","LastOperationDate":"","SEV":"nein","longitude":"6,821034","latitude":"51,195587","geojson_lng":6.821034,"geojson_lat":51.195587},"geometry":{"type":"Point","coordinates":[6.821034,51.195587]}},{"type":"Feature","properties":{"SeqNo":"510792","Type":"Q","DHID":"de:05111:18191:2:2","Parent":"de:05111:18191:2","Name":"Ri. Eller","MunicipalityCode":"00000000","Municipality":"-","DistrictCode":"-","District":"-","Description":"","Authority":"VRR","DelfiName":"-","THID":"-","LastOperationDate":"","SEV":"nein","longitude":"6,821501","latitude":"51,195362","geojson_lng":6.821501,"geojson_lat":51.195362},"geometry":{"type":"Point","coordinates":[6.821501,51.195362]}},{"type":"Feature","properties":{"SeqNo":"510793","Type":"S","DHID":"de:05111:18192","Parent":"de:05111:18192","Name":"D-Wipperfürther Straße","MunicipalityCode":"05111000","Municipality":"Düsseldorf","DistrictCode":"","District":"","Description":"","Authority":"VRR","DelfiName":"-","THID":"D913F7004710","LastOperationDate":"2025-06-14T00:00:00","SEV":"nein","longitude":"6,817638","latitude":"51,196595","geojson_lng":6.817638,"geojson_lat":51.196595},"geometry":{"type":"Point","coordinates":[6.817638,51.196595]}},{"type":"Feature","properties":{"SeqNo":"510794","Type":"A","DHID":"de:05111:18192:1","Parent":"de:05111:18192","Name":"für Steig 1","MunicipalityCode":"00000000","Municipality":"-","DistrictCode":"-","District":"-","Description":"","Authority":"VRR","DelfiName":"-","THID":"-","LastOperationDate":"","SEV":"nein","longitude":"6,817584","latitude":"51,196668","geojson_lng":6.817584,"geojson_lat":51.196668},"geometry":{"type":"Point","coordinates":[6.817584,51.196668]}},{"type":"Feature","properties":{"SeqNo":"510795","Type":"A","DHID":"de:05111:18192:2","Parent":"de:05111:18192","Name":"für Steig 2","MunicipalityCode":"00000000","Municipality":"-","DistrictCode":"-","District":"-","Description":"","Authority":"VRR","DelfiName":"-","THID":"-","LastOperationDate":"","SEV":"nein","longitude":"6,817647","latitude":"51,196544","geojson_lng":6.817647,"geojson_lat":51.196544},"geometry":{"type":"Point","coordinates":[6.817647,51.196544]}},{"type":"Feature","properties":{"SeqNo":"510796","Type":"Q","DHID":"de:05111:18192:1:1","Parent":"de:05111:18192:1","Name":"723 Ri. Plange Mühle","MunicipalityCode":"00000000","Municipality":"-","DistrictCode":"-","District":"-","Description":"","Authority":"VRR","DelfiName":"-","THID":"-","LastOperationDate":"","SEV":"nein","longitude":"6,817557","latitude":"51,196634","geojson_lng":6.817557,"geojson_lat":51.196634},"geometry":{"type":"Point","coordinates":[6.817557,51.196634]}},{"type":"Feature","properties":{"SeqNo":"510797","Type":"Q","DHID":"de:05111:18192:2:2","Parent":"de:05111:18192:2","Name":"723 Ri. Eller","MunicipalityCode":"00000000","Municipality":"-","DistrictCode":"-","District":"-","Description":"","Authority":"VRR","DelfiName":"-","THID":"-","LastOperationDate":"","SEV":"nein","longitude":"6,817674","latitude":"51,196583","geojson_lng":6.817674,"geojson_lat":51.196583},"geometry":{"type":"Point","coordinates":[6.817674,51.196583]}},{"type":"Feature","properties":{"SeqNo":"511845","Type":"S","DHID":"de:05111:18268","Parent":"de:05111:18268","Name":"D-Werstener Dorfstraße","MunicipalityCode":"05111000","Municipality":"Düsseldorf","DistrictCode":"","District":"","Description":"","Authority":"VRR","DelfiName":"-","THID":"D913F700475C","LastOperationDate":"2025-06-14T00:00:00","SEV":"nein","longitude":"6,814746","latitude":"51,193093","geojson_lng":6.814746,"geojson_lat":51.193093},"geometry":{"type":"Point","coordinates":[6.814746,51.193093]}},{"type":"Feature","properties":{"SeqNo":"511846","Type":"A","DHID":"de:05111:18268:1","Parent":"de:05111:18268","Name":"Ri. UNV","MunicipalityCode":"00000000","Municipality":"-","DistrictCode":"-","District":"-","Description":"","Authority":"VRR","DelfiName":"-","THID":"-","LastOperationDate":"","SEV":"nein","longitude":"6,81444","latitude":"51,193335","geojson_lng":6.81444,"geojson_lat":51.193335},"geometry":{"type":"Point","coordinates":[6.81444,51.193335]}},{"type":"Feature","properties":{"SeqNo":"511847","Type":"A","DHID":"de:05111:18268:2","Parent":"de:05111:18268","Name":"Bus Ri. H.H.Allee","MunicipalityCode":"00000000","Municipality":"-","DistrictCode":"-","District":"-","Description":"","Authority":"VRR","DelfiName":"-","THID":"-","LastOperationDate":"","SEV":"nein","longitude":"6,813721","latitude":"51,1932","geojson_lng":6.813721,"geojson_lat":51.1932},"geometry":{"type":"Point","coordinates":[6.813721,51.1932]}},{"type":"Feature","properties":{"SeqNo":"511849","Type":"A","DHID":"de:05111:18268:4","Parent":"de:05111:18268","Name":"Bus Ri. Hbf","MunicipalityCode":"00000000","Municipality":"-","DistrictCode":"-","District":"-","Description":"","Authority":"VRR","DelfiName":"-","THID":"-","LastOperationDate":"","SEV":"nein","longitude":"6,81453","latitude":"51,193707","geojson_lng":6.81453,"geojson_lat":51.193707},"geometry":{"type":"Point","coordinates":[6.81453,51.193707]}},{"type":"Feature","properties":{"SeqNo":"511850","Type":"A","DHID":"de:05111:18268:5","Parent":"de:05111:18268","Name":"Bus Ri. Hol.","MunicipalityCode":"00000000","Municipality":"-","DistrictCode":"-","District":"-","Description":"","Authority":"VRR","DelfiName":"-","THID":"-","LastOperationDate":"","SEV":"nein","longitude":"6,813973","latitude":"51,193763","geojson_lng":6.813973,"geojson_lat":51.193763},"geometry":{"type":"Point","coordinates":[6.813973,51.193763]}},{"type":"Feature","properties":{"SeqNo":"511852","Type":"A","DHID":"de:05111:18268:7","Parent":"de:05111:18268","Name":"2 Ri. DHB","MunicipalityCode":"00000000","Municipality":"-","DistrictCode":"-","District":"-","Description":"","Authority":"VRR","DelfiName":"-","THID":"-","LastOperationDate":"","SEV":"nein","longitude":"6,814449","latitude":"51,19356","geojson_lng":6.814449,"geojson_lat":51.19356},"geometry":{"type":"Point","coordinates":[6.814449,51.19356]}},{"type":"Feature","properties":{"SeqNo":"511855","Type":"Q","DHID":"de:05111:18268:1:1","Parent":"de:05111:18268:1","Name":"Ri. HOL","MunicipalityCode":"00000000","Municipality":"-","DistrictCode":"-","District":"-","Description":"","Authority":"VRR","DelfiName":"-","THID":"-","LastOperationDate":"","SEV":"nein","longitude":"6,814422","latitude":"51,193346","geojson_lng":6.814422,"geojson_lat":51.193346},"geometry":{"type":"Point","coordinates":[6.814422,51.193346]}},{"type":"Feature","properties":{"SeqNo":"511856","Type":"Q","DHID":"de:05111:18268:2:6","Parent":"de:05111:18268:2","Name":"Ri. HHO SB50","MunicipalityCode":"00000000","Municipality":"-","DistrictCode":"-","District":"-","Description":"","Authority":"VRR","DelfiName":"-","THID":"-","LastOperationDate":"","SEV":"nein","longitude":"6,813703","latitude":"51,193211","geojson_lng":6.813703,"geojson_lat":51.193211},"geometry":{"type":"Point","coordinates":[6.813703,51.193211]}},{"type":"Feature","properties":{"SeqNo":"511858","Type":"Q","DHID":"de:05111:18268:4:8","Parent":"de:05111:18268:4","Name":"Ri. Eller 723","MunicipalityCode":"00000000","Municipality":"-","DistrictCode":"-","District":"-","Description":"","Authority":"VRR","DelfiName":"-","THID":"-","LastOperationDate":"","SEV":"nein","longitude":"6,814512","latitude":"51,193718","geojson_lng":6.814512,"geojson_lat":51.193718},"geometry":{"type":"Point","coordinates":[6.814512,51.193718]}},{"type":"Feature","properties":{"SeqNo":"511859","Type":"Q","DHID":"de:05111:18268:5:7","Parent":"de:05111:18268:5","Name":"Ri. BEN 817/1. Halt 723","MunicipalityCode":"00000000","Municipality":"-","DistrictCode":"-","District":"-","Description":"","Authority":"VRR","DelfiName":"-","THID":"-","LastOperationDate":"","SEV":"nein","longitude":"6,813955","latitude":"51,193774","geojson_lng":6.813955,"geojson_lat":51.193774},"geometry":{"type":"Point","coordinates":[6.813955,51.193774]}},{"type":"Feature","properties":{"SeqNo":"511861","Type":"Q","DHID":"de:05111:18268:1:2","Parent":"de:05111:18268:7","Name":"Ri. DHB","MunicipalityCode":"00000000","Municipality":"-","DistrictCode":"-","District":"-","Description":"","Authority":"VRR","DelfiName":"-","THID":"-","LastOperationDate":"","SEV":"nein","longitude":"6,814431","latitude":"51,193572","geojson_lng":6.814431,"geojson_lat":51.193572},"geometry":{"type":"Point","coordinates":[6.814431,51.193572]}},{"type":"Feature","properties":{"SeqNo":"513015","Type":"S","DHID":"de:05111:18619","Parent":"de:05111:18619","Name":"D-Meisenheimer Weg","MunicipalityCode":"05111000","Municipality":"Düsseldorf","DistrictCode":"","District":"","Description":"","Authority":"VRR","DelfiName":"-","THID":"D913F70048BB","LastOperationDate":"2025-06-14T00:00:00","SEV":"nein","longitude":"6,821079","latitude":"51,199905","geojson_lng":6.821079,"geojson_lat":51.199905},"geometry":{"type":"Point","coordinates":[6.821079,51.199905]}},{"type":"Feature","properties":{"SeqNo":"513016","Type":"A","DHID":"de:05111:18619:1","Parent":"de:05111:18619","Name":"für Steig 1","MunicipalityCode":"00000000","Municipality":"-","DistrictCode":"-","District":"-","Description":"","Authority":"VRR","DelfiName":"-","THID":"-","LastOperationDate":"","SEV":"nein","longitude":"6,82115","latitude":"51,199989","geojson_lng":6.82115,"geojson_lat":51.199989},"geometry":{"type":"Point","coordinates":[6.82115,51.199989]}},{"type":"Feature","properties":{"SeqNo":"513017","Type":"A","DHID":"de:05111:18619:2","Parent":"de:05111:18619","Name":"für Steig 2","MunicipalityCode":"00000000","Municipality":"-","DistrictCode":"-","District":"-","Description":"","Authority":"VRR","DelfiName":"-","THID":"-","LastOperationDate":"","SEV":"nein","longitude":"6,820926","latitude":"51,199792","geojson_lng":6.820926,"geojson_lat":51.199792},"geometry":{"type":"Point","coordinates":[6.820926,51.199792]}},{"type":"Feature","properties":{"SeqNo":"513018","Type":"Q","DHID":"de:05111:18619:1:1","Parent":"de:05111:18619:1","Name":"732-VNA","MunicipalityCode":"00000000","Municipality":"-","DistrictCode":"-","District":"-","Description":"","Authority":"VRR","DelfiName":"-","THID":"-","LastOperationDate":"","SEV":"nein","longitude":"6,821168","latitude":"51,199967","geojson_lng":6.821168,"geojson_lat":51.199967},"geometry":{"type":"Point","coordinates":[6.821168,51.199967]}},{"type":"Feature","properties":{"SeqNo":"513019","Type":"Q","DHID":"de:05111:18619:2:2","Parent":"de:05111:18619:2","Name":"732-LWD","MunicipalityCode":"00000000","Municipality":"-","DistrictCode":"-","District":"-","Description":"","Authority":"VRR","DelfiName":"-","THID":"-","LastOperationDate":"","SEV":"nein","longitude":"6,820908","latitude":"51,199803","geojson_lng":6.820908,"geojson_lat":51.199803},"geometry":{"type":"Point","coordinates":[6.820908,51.199803]}}]}