{"type":"FeatureCollection","features":[{"type":"Feature","properties":{"SeqNo":"573324","Type":"S","DHID":"de:05362:83261","Parent":"de:05362:83261","Name":"Hürth Berrenrath Bahnhof","MunicipalityCode":"05362028","Municipality":"Hürth","DistrictCode":"","District":"","Description":"","Authority":"VRR","DelfiName":"-","THID":"D914F201453D","LastOperationDate":"2024-12-20T00:00:00","SEV":"nein","longitude":"6,821465","latitude":"50,864164","geojson_lng":6.821465,"geojson_lat":50.864164},"geometry":{"type":"Point","coordinates":[6.821465,50.864164]}},{"type":"Feature","properties":{"SeqNo":"573325","Type":"A","DHID":"de:05362:83261:2","Parent":"de:05362:83261","Name":"Berrenrath Bahnho","MunicipalityCode":"00000000","Municipality":"-","DistrictCode":"-","District":"-","Description":"","Authority":"VRR","DelfiName":"-","THID":"-","LastOperationDate":"","SEV":"nein","longitude":"6,821465","latitude":"50,864158","geojson_lng":6.821465,"geojson_lat":50.864158},"geometry":{"type":"Point","coordinates":[6.821465,50.864158]}},{"type":"Feature","properties":{"SeqNo":"573326","Type":"Q","DHID":"de:05362:83261:2:21","Parent":"de:05362:83261:2","Name":"","MunicipalityCode":"00000000","Municipality":"-","DistrictCode":"-","District":"-","Description":"","Authority":"VRR","DelfiName":"-","THID":"-","LastOperationDate":"","SEV":"nein","longitude":"6,821375","latitude":"50,864022","geojson_lng":6.821375,"geojson_lat":50.864022},"geometry":{"type":"Point","coordinates":[6.821375,50.864022]}},{"type":"Feature","properties":{"SeqNo":"573327","Type":"Q","DHID":"de:05362:83261:2:22","Parent":"de:05362:83261:2","Name":"","MunicipalityCode":"00000000","Municipality":"-","DistrictCode":"-","District":"-","Description":"","Authority":"VRR","DelfiName":"-","THID":"-","LastOperationDate":"","SEV":"nein","longitude":"6,821582","latitude":"50,864289","geojson_lng":6.821582,"geojson_lat":50.864289},"geometry":{"type":"Point","coordinates":[6.821582,50.864289]}},{"type":"Feature","properties":{"SeqNo":"573328","Type":"S","DHID":"de:05362:83262","Parent":"de:05362:83262","Name":"Hürth Berrenrath Eifelstr.","MunicipalityCode":"05362028","Municipality":"Hürth","DistrictCode":"","District":"","Description":"","Authority":"VRR","DelfiName":"-","THID":"D914F201453E","LastOperationDate":"2025-01-06T00:00:00","SEV":"nein","longitude":"6,816309","latitude":"50,866341","geojson_lng":6.816309,"geojson_lat":50.866341},"geometry":{"type":"Point","coordinates":[6.816309,50.866341]}},{"type":"Feature","properties":{"SeqNo":"573329","Type":"A","DHID":"de:05362:83262:2","Parent":"de:05362:83262","Name":"Eifelstr.","MunicipalityCode":"00000000","Municipality":"-","DistrictCode":"-","District":"-","Description":"","Authority":"VRR","DelfiName":"-","THID":"-","LastOperationDate":"","SEV":"nein","longitude":"6,816309","latitude":"50,866341","geojson_lng":6.816309,"geojson_lat":50.866341},"geometry":{"type":"Point","coordinates":[6.816309,50.866341]}},{"type":"Feature","properties":{"SeqNo":"573330","Type":"Q","DHID":"de:05362:83262:2:21","Parent":"de:05362:83262:2","Name":"","MunicipalityCode":"00000000","Municipality":"-","DistrictCode":"-","District":"-","Description":"","Authority":"VRR","DelfiName":"-","THID":"-","LastOperationDate":"","SEV":"nein","longitude":"6,816228","latitude":"50,866001","geojson_lng":6.816228,"geojson_lat":50.866001},"geometry":{"type":"Point","coordinates":[6.816228,50.866001]}},{"type":"Feature","properties":{"SeqNo":"573331","Type":"Q","DHID":"de:05362:83262:2:22","Parent":"de:05362:83262:2","Name":"","MunicipalityCode":"00000000","Municipality":"-","DistrictCode":"-","District":"-","Description":"","Authority":"VRR","DelfiName":"-","THID":"-","LastOperationDate":"","SEV":"nein","longitude":"6,8163","latitude":"50,86616","geojson_lng":6.8163,"geojson_lat":50.86616},"geometry":{"type":"Point","coordinates":[6.8163,50.86616]}},{"type":"Feature","properties":{"SeqNo":"573332","Type":"Q","DHID":"de:05362:83262:2:23","Parent":"de:05362:83262:2","Name":"","MunicipalityCode":"00000000","Municipality":"-","DistrictCode":"-","District":"-","Description":"","Authority":"VRR","DelfiName":"-","THID":"-","LastOperationDate":"","SEV":"nein","longitude":"6,816309","latitude":"50,866347","geojson_lng":6.816309,"geojson_lat":50.866347},"geometry":{"type":"Point","coordinates":[6.816309,50.866347]}},{"type":"Feature","properties":{"SeqNo":"573349","Type":"S","DHID":"de:05362:83269","Parent":"de:05362:83269","Name":"Hürth Berrenrath Siedlung","MunicipalityCode":"05362028","Municipality":"Hürth","DistrictCode":"","District":"","Description":"","Authority":"VRR","DelfiName":"-","THID":"D914F2014545","LastOperationDate":"2024-12-20T00:00:00","SEV":"nein","longitude":"6,817584","latitude":"50,865343","geojson_lng":6.817584,"geojson_lat":50.865343},"geometry":{"type":"Point","coordinates":[6.817584,50.865343]}},{"type":"Feature","properties":{"SeqNo":"573350","Type":"A","DHID":"de:05362:83269:2","Parent":"de:05362:83269","Name":"Berrenrath Siedlu","MunicipalityCode":"00000000","Municipality":"-","DistrictCode":"-","District":"-","Description":"","Authority":"VRR","DelfiName":"-","THID":"-","LastOperationDate":"","SEV":"nein","longitude":"6,817584","latitude":"50,865332","geojson_lng":6.817584,"geojson_lat":50.865332},"geometry":{"type":"Point","coordinates":[6.817584,50.865332]}},{"type":"Feature","properties":{"SeqNo":"573351","Type":"Q","DHID":"de:05362:83269:2:21","Parent":"de:05362:83269:2","Name":"","MunicipalityCode":"00000000","Municipality":"-","DistrictCode":"-","District":"-","Description":"","Authority":"VRR","DelfiName":"-","THID":"-","LastOperationDate":"","SEV":"nein","longitude":"6,817144","latitude":"50,865389","geojson_lng":6.817144,"geojson_lat":50.865389},"geometry":{"type":"Point","coordinates":[6.817144,50.865389]}},{"type":"Feature","properties":{"SeqNo":"573352","Type":"Q","DHID":"de:05362:83269:2:22","Parent":"de:05362:83269:2","Name":"","MunicipalityCode":"00000000","Municipality":"-","DistrictCode":"-","District":"-","Description":"","Authority":"VRR","DelfiName":"-","THID":"-","LastOperationDate":"","SEV":"nein","longitude":"6,817485","latitude":"50,865451","geojson_lng":6.817485,"geojson_lat":50.865451},"geometry":{"type":"Point","coordinates":[6.817485,50.865451]}}]}