{"type":"FeatureCollection","features":[{"type":"Feature","properties":{"SeqNo":"844601","Type":"A","DHID":"de:14612:94:1","Parent":"de:14612:94","Name":"Bus sdtw","MunicipalityCode":"00000000","Municipality":"-","DistrictCode":"-","District":"-","Description":"","Authority":"VVO","DelfiName":"-","THID":"-","LastOperationDate":"","SEV":"nein","longitude":"13,831675","latitude":"51,00969","geojson_lng":13.831675,"geojson_lat":51.00969},"geometry":{"type":"Point","coordinates":[13.831675,51.00969]}},{"type":"Feature","properties":{"SeqNo":"844607","Type":"Q","DHID":"de:14612:94:1:2","Parent":"de:14612:94:1","Name":"2","MunicipalityCode":"00000000","Municipality":"-","DistrictCode":"-","District":"-","Description":"","Authority":"VVO","DelfiName":"-","THID":"-","LastOperationDate":"","SEV":"nein","longitude":"13,831711","latitude":"51,00969","geojson_lng":13.831711,"geojson_lat":51.00969},"geometry":{"type":"Point","coordinates":[13.831711,51.00969]}},{"type":"Feature","properties":{"SeqNo":"844608","Type":"Q","DHID":"de:14612:94:1:5","Parent":"de:14612:94:1","Name":"Alita landwärts Pirnaer Landstr","MunicipalityCode":"00000000","Municipality":"-","DistrictCode":"-","District":"-","Description":"","Authority":"VVO","DelfiName":"-","THID":"-","LastOperationDate":"","SEV":"nein","longitude":"13,831738","latitude":"51,009628","geojson_lng":13.831738,"geojson_lat":51.009628},"geometry":{"type":"Point","coordinates":[13.831738,51.009628]}},{"type":"Feature","properties":{"SeqNo":"844614","Type":"S","DHID":"de:14612:940","Parent":"de:14612:940","Name":"Dresden Kastanienstraße","MunicipalityCode":"14612000","Municipality":"Dresden","DistrictCode":"","District":"","Description":"","Authority":"VVO","DelfiName":"Dresden, Kastanienstraße","THID":"D939140003AC","LastOperationDate":"2025-02-28T00:00:00","SEV":"nein","longitude":"13,835636","latitude":"51,007458","geojson_lng":13.835636,"geojson_lat":51.007458},"geometry":{"type":"Point","coordinates":[13.835636,51.007458]}},{"type":"Feature","properties":{"SeqNo":"844615","Type":"A","DHID":"de:14612:940:1","Parent":"de:14612:940","Name":"Haltestelle","MunicipalityCode":"00000000","Municipality":"-","DistrictCode":"-","District":"-","Description":"","Authority":"VVO","DelfiName":"-","THID":"-","LastOperationDate":"","SEV":"nein","longitude":"13,835627","latitude":"51,007446","geojson_lng":13.835627,"geojson_lat":51.007446},"geometry":{"type":"Point","coordinates":[13.835627,51.007446]}},{"type":"Feature","properties":{"SeqNo":"844616","Type":"Q","DHID":"de:14612:940:1:1","Parent":"de:14612:940:1","Name":"stadtwärts","MunicipalityCode":"00000000","Municipality":"-","DistrictCode":"-","District":"-","Description":"","Authority":"VVO","DelfiName":"-","THID":"-","LastOperationDate":"","SEV":"nein","longitude":"13,835906","latitude":"51,007373","geojson_lng":13.835906,"geojson_lat":51.007373},"geometry":{"type":"Point","coordinates":[13.835906,51.007373]}},{"type":"Feature","properties":{"SeqNo":"844617","Type":"Q","DHID":"de:14612:940:1:2","Parent":"de:14612:940:1","Name":"landwärts","MunicipalityCode":"00000000","Municipality":"-","DistrictCode":"-","District":"-","Description":"","Authority":"VVO","DelfiName":"-","THID":"-","LastOperationDate":"","SEV":"nein","longitude":"13,835367","latitude":"51,007531","geojson_lng":13.835367,"geojson_lat":51.007531},"geometry":{"type":"Point","coordinates":[13.835367,51.007531]}},{"type":"Feature","properties":{"SeqNo":"844618","Type":"Q","DHID":"de:14612:940:1:ldw","Parent":"de:14612:940:1","Name":"landwärts","MunicipalityCode":"00000000","Municipality":"-","DistrictCode":"-","District":"-","Description":"","Authority":"VVO","DelfiName":"-","THID":"-","LastOperationDate":"","SEV":"nein","longitude":"13,835223","latitude":"51,007661","geojson_lng":13.835223,"geojson_lat":51.007661},"geometry":{"type":"Point","coordinates":[13.835223,51.007661]}},{"type":"Feature","properties":{"SeqNo":"844619","Type":"Q","DHID":"de:14612:940:1:stw","Parent":"de:14612:940:1","Name":"stadtwärts","MunicipalityCode":"00000000","Municipality":"-","DistrictCode":"-","District":"-","Description":"","Authority":"VVO","DelfiName":"-","THID":"-","LastOperationDate":"","SEV":"nein","longitude":"13,835753","latitude":"51,007362","geojson_lng":13.835753,"geojson_lat":51.007362},"geometry":{"type":"Point","coordinates":[13.835753,51.007362]}},{"type":"Feature","properties":{"SeqNo":"844886","Type":"S","DHID":"de:14612:99","Parent":"de:14612:99","Name":"Dresden Heckenweg","MunicipalityCode":"14612000","Municipality":"Dresden","DistrictCode":"","District":"","Description":"","Authority":"VVO","DelfiName":"Dresden, Heckenweg","THID":"D93914000063","LastOperationDate":"2025-02-28T00:00:00","SEV":"nein","longitude":"13,839921","latitude":"51,008746","geojson_lng":13.839921,"geojson_lat":51.008746},"geometry":{"type":"Point","coordinates":[13.839921,51.008746]}},{"type":"Feature","properties":{"SeqNo":"844887","Type":"A","DHID":"de:14612:99:1","Parent":"de:14612:99","Name":"Haltestelle","MunicipalityCode":"00000000","Municipality":"-","DistrictCode":"-","District":"-","Description":"","Authority":"VVO","DelfiName":"-","THID":"-","LastOperationDate":"","SEV":"nein","longitude":"13,839921","latitude":"51,008741","geojson_lng":13.839921,"geojson_lat":51.008741},"geometry":{"type":"Point","coordinates":[13.839921,51.008741]}},{"type":"Feature","properties":{"SeqNo":"844888","Type":"Q","DHID":"de:14612:99:1:1","Parent":"de:14612:99:1","Name":"Strab. stadtwärts","MunicipalityCode":"00000000","Municipality":"-","DistrictCode":"-","District":"-","Description":"","Authority":"VVO","DelfiName":"-","THID":"-","LastOperationDate":"","SEV":"nein","longitude":"13,839742","latitude":"51,008786","geojson_lng":13.839742,"geojson_lat":51.008786},"geometry":{"type":"Point","coordinates":[13.839742,51.008786]}},{"type":"Feature","properties":{"SeqNo":"844889","Type":"Q","DHID":"de:14612:99:1:2","Parent":"de:14612:99:1","Name":"Strab. landwärts","MunicipalityCode":"00000000","Municipality":"-","DistrictCode":"-","District":"-","Description":"","Authority":"VVO","DelfiName":"-","THID":"-","LastOperationDate":"","SEV":"nein","longitude":"13,840083","latitude":"51,008707","geojson_lng":13.840083,"geojson_lat":51.008707},"geometry":{"type":"Point","coordinates":[13.840083,51.008707]}}]}