{"type":"FeatureCollection","features":[{"type":"Feature","properties":{"highway":"bus_stop","public_transport":"platform","name":"Margrietstraat","ref:IFOPT":"NL:Q:20003950","_quaycode":"NL:Q:20003950","_town":"Leeuwarden","_status":"available","_mode":"bus","_direction":99,"_visuallyAccessible":false,"_disabledAccessible":false,"geojson_lng":5.787584678844621,"geojson_lat":53.1847348182502},"geometry":{"type":"Point","coordinates":[5.787584678844621,53.1847348182502]}},{"type":"Feature","properties":{"highway":"bus_stop","public_transport":"platform","name":"Oostergoplein","ref:IFOPT":"NL:Q:20004610","_quaycode":"NL:Q:20004610","_town":"Leeuwarden","_status":"available","_mode":"bus","_direction":185,"_visuallyAccessible":true,"_disabledAccessible":true,"geojson_lng":5.79666014730441,"geojson_lat":53.18581840060899},"geometry":{"type":"Point","coordinates":[5.79666014730441,53.18581840060899]}},{"type":"Feature","properties":{"highway":"bus_stop","public_transport":"platform","name":"Margrietstraat","ref:IFOPT":"NL:Q:20003960","_quaycode":"NL:Q:20003960","_town":"Leeuwarden","_status":"available","_mode":"bus","_direction":275,"_visuallyAccessible":false,"_disabledAccessible":false,"geojson_lng":5.788063771312391,"geojson_lat":53.18477814613182},"geometry":{"type":"Point","coordinates":[5.788063771312391,53.18477814613182]}},{"type":"Feature","properties":{"highway":"bus_stop","public_transport":"platform","name":"Soestdijkstraat","ref:IFOPT":"NL:Q:20005470","_quaycode":"NL:Q:20005470","_town":"Leeuwarden","_status":"available","_mode":"bus","_direction":243,"_visuallyAccessible":false,"_disabledAccessible":false,"geojson_lng":5.794710314990424,"geojson_lat":53.185276913379326},"geometry":{"type":"Point","coordinates":[5.794710314990424,53.185276913379326]}},{"type":"Feature","properties":{"highway":"bus_stop","public_transport":"platform","name":"Aldlânsdyk","ref:IFOPT":"NL:Q:20000150","_quaycode":"NL:Q:20000150","_town":"Leeuwarden","_status":"available","_mode":"bus","_direction":90,"_visuallyAccessible":false,"_disabledAccessible":false,"geojson_lng":5.800464965902319,"geojson_lat":53.1863534771259},"geometry":{"type":"Point","coordinates":[5.800464965902319,53.1863534771259]}},{"type":"Feature","properties":{"highway":"bus_stop","public_transport":"platform","name":"Nijlânstate","ref:IFOPT":"NL:Q:20004520","_quaycode":"NL:Q:20004520","_town":"Leeuwarden","_status":"available","_mode":"bus","_direction":82,"_visuallyAccessible":true,"_disabledAccessible":true,"geojson_lng":5.792221684435084,"geojson_lat":53.184701272779265},"geometry":{"type":"Point","coordinates":[5.792221684435084,53.184701272779265]}},{"type":"Feature","properties":{"highway":"bus_stop","public_transport":"platform","name":"Nijlânsdyk","ref:IFOPT":"NL:Q:20004410","_quaycode":"NL:Q:20004410","_town":"Leeuwarden","_status":"available","_mode":"bus","_direction":275,"_visuallyAccessible":false,"_disabledAccessible":false,"geojson_lng":5.7828629265032,"geojson_lat":53.18531659373874},"geometry":{"type":"Point","coordinates":[5.7828629265032,53.18531659373874]}},{"type":"Feature","properties":{"highway":"bus_stop","public_transport":"platform","name":"Nijlânstate","ref:IFOPT":"NL:Q:20004500","_quaycode":"NL:Q:20004500","_town":"Leeuwarden","_status":"available","_mode":"bus","_direction":261,"_visuallyAccessible":true,"_disabledAccessible":true,"geojson_lng":5.792027895100214,"geojson_lat":53.18477381312909},"geometry":{"type":"Point","coordinates":[5.792027895100214,53.18477381312909]}},{"type":"Feature","properties":{"highway":"bus_stop","public_transport":"platform","name":"Goutum","ref:IFOPT":"NL:Q:23745540","_quaycode":"NL:Q:23745540","_town":"Leeuwarden","_status":"available","_mode":"bus","_direction":194,"_visuallyAccessible":false,"_disabledAccessible":false,"geojson_lng":5.796443920269858,"geojson_lat":53.18193729854869},"geometry":{"type":"Point","coordinates":[5.796443920269858,53.18193729854869]}},{"type":"Feature","properties":{"highway":"bus_stop","public_transport":"platform","name":"Goutum","ref:IFOPT":"NL:Q:23745550","_quaycode":"NL:Q:23745550","_town":"Leeuwarden","_status":"available","_mode":"bus","_direction":3,"_visuallyAccessible":true,"_disabledAccessible":true,"geojson_lng":5.796871000000005,"geojson_lat":53.18123494009735},"geometry":{"type":"Point","coordinates":[5.796871000000005,53.18123494009735]}},{"type":"Feature","properties":{"highway":"bus_stop","public_transport":"platform","name":"Oostergoplein","ref:IFOPT":"NL:Q:20004600","_quaycode":"NL:Q:20004600","_town":"Leeuwarden","_status":"available","_mode":"bus","_direction":0,"_visuallyAccessible":true,"_disabledAccessible":true,"geojson_lng":5.797126430270304,"geojson_lat":53.18608637946026},"geometry":{"type":"Point","coordinates":[5.797126430270304,53.18608637946026]}},{"type":"Feature","properties":{"highway":"bus_stop","public_transport":"platform","name":"Mauritsplein","ref:IFOPT":"NL:Q:20003910","_quaycode":"NL:Q:20003910","_town":"Leeuwarden","_status":"available","_mode":"bus","_direction":81,"_visuallyAccessible":false,"_disabledAccessible":false,"geojson_lng":5.79516963190401,"geojson_lat":53.18480809308906},"geometry":{"type":"Point","coordinates":[5.79516963190401,53.18480809308906]}},{"type":"Feature","properties":{"highway":"bus_stop","public_transport":"platform","name":"Nijlânsdyk","ref:IFOPT":"NL:Q:20004400","_quaycode":"NL:Q:20004400","_town":"Leeuwarden","_status":"available","_mode":"bus","_direction":96,"_visuallyAccessible":false,"_disabledAccessible":false,"geojson_lng":5.782891775787392,"geojson_lat":53.18519968403731},"geometry":{"type":"Point","coordinates":[5.782891775787392,53.18519968403731]}}]}