{"type":"FeatureCollection","features":[{"type":"Feature","properties":{"highway":"bus_stop","public_transport":"platform","name":"Hilaard","ref:IFOPT":"NL:Q:20170820","_quaycode":"NL:Q:20170820","_town":"Littenseradeel","_status":"available","_mode":"bus","_direction":285,"_visuallyAccessible":false,"_disabledAccessible":false,"geojson_lng":5.71107185418359,"geojson_lat":53.16512542491066},"geometry":{"type":"Point","coordinates":[5.71107185418359,53.16512542491066]}},{"type":"Feature","properties":{"highway":"bus_stop","public_transport":"platform","name":"Tsjerkebuorren","ref:IFOPT":"NL:Q:21320800","_quaycode":"NL:Q:21320800","_town":"Winsum","_status":"available","_mode":"bus","_direction":99,"_visuallyAccessible":false,"_disabledAccessible":false,"geojson_lng":5.634953068429478,"geojson_lat":53.152601111108055},"geometry":{"type":"Point","coordinates":[5.634953068429478,53.152601111108055]}},{"type":"Feature","properties":{"highway":"bus_stop","public_transport":"platform","name":"Hervormde Kerk","ref:IFOPT":"NL:Q:21320500","_quaycode":"NL:Q:21320500","_town":"Winsum","_status":"available","_mode":"bus","_direction":119,"_visuallyAccessible":false,"_disabledAccessible":false,"geojson_lng":5.631651296217086,"geojson_lat":53.15290442369333},"geometry":{"type":"Point","coordinates":[5.631651296217086,53.15290442369333]}},{"type":"Feature","properties":{"highway":"bus_stop","public_transport":"platform","name":"Baijum","ref:IFOPT":"NL:Q:21221000","_quaycode":"NL:Q:21221000","_town":"Baijum","_status":"available","_mode":"bus","_direction":252,"_visuallyAccessible":false,"_disabledAccessible":false,"geojson_lng":5.632991089759906,"geojson_lat":53.16509534233255},"geometry":{"type":"Point","coordinates":[5.632991089759906,53.16509534233255]}},{"type":"Feature","properties":{"highway":"bus_stop","public_transport":"platform","name":"Hilaard Provinciale weg","ref:IFOPT":"NL:Q:20170800","_quaycode":"NL:Q:20170800","_town":"Hilaard","_status":"available","_mode":"bus","_direction":209,"_visuallyAccessible":true,"_disabledAccessible":false,"geojson_lng":5.698392227441134,"geojson_lat":53.16719877257972},"geometry":{"type":"Point","coordinates":[5.698392227441134,53.16719877257972]}},{"type":"Feature","properties":{"highway":"bus_stop","public_transport":"platform","name":"Hervormde Kerk","ref:IFOPT":"NL:Q:21320510","_quaycode":"NL:Q:21320510","_town":"Winsum","_status":"available","_mode":"bus","_direction":297,"_visuallyAccessible":false,"_disabledAccessible":false,"geojson_lng":5.632024483743357,"geojson_lat":53.152813804020845},"geometry":{"type":"Point","coordinates":[5.632024483743357,53.152813804020845]}},{"type":"Feature","properties":{"highway":"bus_stop","public_transport":"platform","name":"Easterlittens","ref:IFOPT":"NL:Q:21320201","_quaycode":"NL:Q:21320201","_town":"Easterlittens","_status":"available","_mode":"bus","_direction":315,"_visuallyAccessible":false,"_disabledAccessible":false,"geojson_lng":5.650184737907053,"geojson_lat":53.135333888071806},"geometry":{"type":"Point","coordinates":[5.650184737907053,53.135333888071806]}},{"type":"Feature","properties":{"highway":"bus_stop","public_transport":"platform","name":"Wammert","ref:IFOPT":"NL:Q:21320310","_quaycode":"NL:Q:21320310","_town":"Easterlittens","_status":"available","_mode":"bus","_direction":118,"_visuallyAccessible":true,"_disabledAccessible":true,"geojson_lng":5.664413494127538,"geojson_lat":53.12662148296875},"geometry":{"type":"Point","coordinates":[5.664413494127538,53.12662148296875]}},{"type":"Feature","properties":{"highway":"bus_stop","public_transport":"platform","name":"Station","ref:IFOPT":"NL:Q:22330800","_quaycode":"NL:Q:22330800","_town":"Mantgum","_status":"available","_mode":"bus","_direction":124,"_visuallyAccessible":true,"_disabledAccessible":true,"geojson_lng":5.713372781775225,"geojson_lat":53.129175944890264},"geometry":{"type":"Point","coordinates":[5.713372781775225,53.129175944890264]}},{"type":"Feature","properties":{"highway":"bus_stop","public_transport":"platform","name":"Lucht en veld","ref:IFOPT":"NL:Q:21230210","_quaycode":"NL:Q:21230210","_town":"Jorwert","_status":"available","_mode":"bus","_direction":247,"_visuallyAccessible":false,"_disabledAccessible":false,"geojson_lng":5.703236295724183,"geojson_lat":53.13637382503086},"geometry":{"type":"Point","coordinates":[5.703236295724183,53.13637382503086]}},{"type":"Feature","properties":{"highway":"bus_stop","public_transport":"platform","name":"Baard","ref:IFOPT":"NL:Q:21320100","_quaycode":"NL:Q:21320100","_town":"Baard","_status":"available","_mode":"bus","_direction":135,"_visuallyAccessible":false,"_disabledAccessible":false,"geojson_lng":5.668085088960082,"geojson_lat":53.14223030013473},"geometry":{"type":"Point","coordinates":[5.668085088960082,53.14223030013473]}},{"type":"Feature","properties":{"highway":"bus_stop","public_transport":"platform","name":"Huns Provinciale weg","ref:IFOPT":"NL:Q:21220410","_quaycode":"NL:Q:21220410","_town":"Huns","_status":"available","_mode":"bus","_direction":73,"_visuallyAccessible":true,"_disabledAccessible":false,"geojson_lng":5.668289015573986,"geojson_lat":53.157532614468856},"geometry":{"type":"Point","coordinates":[5.668289015573986,53.157532614468856]}},{"type":"Feature","properties":{"highway":"bus_stop","public_transport":"platform","name":"Huns Provinciale weg","ref:IFOPT":"NL:Q:21220400","_quaycode":"NL:Q:21220400","_town":"Huns","_status":"available","_mode":"bus","_direction":253,"_visuallyAccessible":true,"_disabledAccessible":false,"geojson_lng":5.666013814749708,"geojson_lat":53.15708864186821},"geometry":{"type":"Point","coordinates":[5.666013814749708,53.15708864186821]}},{"type":"Feature","properties":{"highway":"bus_stop","public_transport":"platform","name":"Tsjerkebuorren","ref:IFOPT":"NL:Q:21320810","_quaycode":"NL:Q:21320810","_town":"Winsum","_status":"available","_mode":"bus","_direction":270,"_visuallyAccessible":false,"_disabledAccessible":false,"geojson_lng":5.634759313260817,"geojson_lat":53.152700355054485},"geometry":{"type":"Point","coordinates":[5.634759313260817,53.152700355054485]}},{"type":"Feature","properties":{"highway":"bus_stop","public_transport":"platform","name":"Kleasterdyk","ref:IFOPT":"NL:Q:21320600","_quaycode":"NL:Q:21320600","_town":"Winsum","_status":"available","_mode":"bus","_direction":118,"_visuallyAccessible":true,"_disabledAccessible":true,"geojson_lng":5.6291035017652975,"geojson_lat":53.15439224579707},"geometry":{"type":"Point","coordinates":[5.6291035017652975,53.15439224579707]}},{"type":"Feature","properties":{"highway":"bus_stop","public_transport":"platform","name":"Lucht en veld","ref:IFOPT":"NL:Q:21230200","_quaycode":"NL:Q:21230200","_town":"Jorwert","_status":"available","_mode":"bus","_direction":68,"_visuallyAccessible":false,"_disabledAccessible":false,"geojson_lng":5.703310809278665,"geojson_lat":53.136346670914136},"geometry":{"type":"Point","coordinates":[5.703310809278665,53.136346670914136]}},{"type":"Feature","properties":{"highway":"bus_stop","public_transport":"platform","name":"Station","ref:IFOPT":"NL:Q:22330801","_quaycode":"NL:Q:22330801","_town":"Mantgum","_status":"available","_mode":"bus","_direction":297,"_visuallyAccessible":true,"_disabledAccessible":true,"geojson_lng":5.712778305115438,"geojson_lat":53.1295909118318},"geometry":{"type":"Point","coordinates":[5.712778305115438,53.1295909118318]}},{"type":"Feature","properties":{"highway":"bus_stop","public_transport":"platform","name":"Baard","ref:IFOPT":"NL:Q:21320101","_quaycode":"NL:Q:21320101","_town":"Baard","_status":"available","_mode":"bus","_direction":313,"_visuallyAccessible":false,"_disabledAccessible":false,"geojson_lng":5.668160042663791,"geojson_lat":53.142266067597205},"geometry":{"type":"Point","coordinates":[5.668160042663791,53.142266067597205]}},{"type":"Feature","properties":{"highway":"bus_stop","public_transport":"platform","name":"Leons","ref:IFOPT":"NL:Q:21230310","_quaycode":"NL:Q:21230310","_town":"Leons","_status":"available","_mode":"bus","_direction":314,"_visuallyAccessible":false,"_disabledAccessible":false,"geojson_lng":5.679329336871928,"geojson_lat":53.15199792752389},"geometry":{"type":"Point","coordinates":[5.679329336871928,53.15199792752389]}},{"type":"Feature","properties":{"highway":"bus_stop","public_transport":"platform","name":"Easterlittens","ref:IFOPT":"NL:Q:21320200","_quaycode":"NL:Q:21320200","_town":"Easterlittens","_status":"available","_mode":"bus","_direction":135,"_visuallyAccessible":false,"_disabledAccessible":false,"geojson_lng":5.649990168095839,"geojson_lat":53.13528040018542},"geometry":{"type":"Point","coordinates":[5.649990168095839,53.13528040018542]}},{"type":"Feature","properties":{"highway":"bus_stop","public_transport":"platform","name":"Kleasterdyk","ref:IFOPT":"NL:Q:21320610","_quaycode":"NL:Q:21320610","_town":"Winsum","_status":"available","_mode":"bus","_direction":299,"_visuallyAccessible":true,"_disabledAccessible":true,"geojson_lng":5.628940073512245,"geojson_lat":53.154572290850545},"geometry":{"type":"Point","coordinates":[5.628940073512245,53.154572290850545]}},{"type":"Feature","properties":{"highway":"bus_stop","public_transport":"platform","name":"Busstation","ref:IFOPT":"NL:Q:21320720","_quaycode":"NL:Q:21320720","_town":"Winsum","_status":"available","_mode":"bus","_direction":135,"_visuallyAccessible":false,"_disabledAccessible":true,"geojson_lng":5.640056947747658,"geojson_lat":53.15117968209177},"geometry":{"type":"Point","coordinates":[5.640056947747658,53.15117968209177]}},{"type":"Feature","properties":{"highway":"bus_stop","public_transport":"platform","name":"Busstation","ref:IFOPT":"NL:Q:21320710","_quaycode":"NL:Q:21320710","_town":"Winsum","_status":"available","_mode":"bus","_direction":135,"_visuallyAccessible":false,"_disabledAccessible":true,"geojson_lng":5.6397737891765,"geojson_lat":53.151324051730725},"geometry":{"type":"Point","coordinates":[5.6397737891765,53.151324051730725]}},{"type":"Feature","properties":{"highway":"bus_stop","public_transport":"platform","name":"Busstation","ref:IFOPT":"NL:Q:21320700","_quaycode":"NL:Q:21320700","_town":"Winsum","_status":"available","_mode":"bus","_direction":135,"_visuallyAccessible":false,"_disabledAccessible":true,"geojson_lng":5.639535523058348,"geojson_lat":53.151477311919656},"geometry":{"type":"Point","coordinates":[5.639535523058348,53.151477311919656]}},{"type":"Feature","properties":{"highway":"bus_stop","public_transport":"platform","name":"Hilaard Provinciale weg","ref:IFOPT":"NL:Q:20170810","_quaycode":"NL:Q:20170810","_town":"Hilaard","_status":"available","_mode":"bus","_direction":17,"_visuallyAccessible":false,"_disabledAccessible":false,"geojson_lng":5.701846102378193,"geojson_lat":53.1671627977334},"geometry":{"type":"Point","coordinates":[5.701846102378193,53.1671627977334]}},{"type":"Feature","properties":{"highway":"bus_stop","public_transport":"platform","name":"Wammert","ref:IFOPT":"NL:Q:21320300","_quaycode":"NL:Q:21320300","_town":"Easterlittens","_status":"available","_mode":"bus","_direction":298,"_visuallyAccessible":false,"_disabledAccessible":false,"geojson_lng":5.663818985034563,"geojson_lat":53.12709910761641},"geometry":{"type":"Point","coordinates":[5.663818985034563,53.12709910761641]}}]}