{"type":"FeatureCollection","features":[{"type":"Feature","properties":{"SeqNo":"97664","Type":"S","DHID":"de:09775:4663","Parent":"de:09775:4663","Name":"Grafertshofen Rosenwirtstraße","MunicipalityCode":"09775164","Municipality":"Weißenhorn","DistrictCode":"","District":"","Description":"","Authority":"NVBW","DelfiName":"-","THID":"D9262F001237","LastOperationDate":"2025-06-14T00:00:00","SEV":"nein","longitude":"10,160611","latitude":"48,296898","geojson_lng":10.160611,"geojson_lat":48.296898},"geometry":{"type":"Point","coordinates":[10.160611,48.296898]}},{"type":"Feature","properties":{"SeqNo":"97665","Type":"Q","DHID":"de:09775:4663:0:1","Parent":"de:09775:4663","Name":"Illertissen // Roggenburg","MunicipalityCode":"00000000","Municipality":"-","DistrictCode":"-","District":"-","Description":"","Authority":"NVBW","DelfiName":"-","THID":"-","LastOperationDate":"","SEV":"nein","longitude":"10,160566","latitude":"48,297161","geojson_lng":10.160566,"geojson_lat":48.297161},"geometry":{"type":"Point","coordinates":[10.160566,48.297161]}},{"type":"Feature","properties":{"SeqNo":"97666","Type":"Q","DHID":"de:09775:4663:0:2","Parent":"de:09775:4663","Name":"Weißenhorn","MunicipalityCode":"00000000","Municipality":"-","DistrictCode":"-","District":"-","Description":"","Authority":"NVBW","DelfiName":"-","THID":"-","LastOperationDate":"","SEV":"nein","longitude":"10,16079","latitude":"48,29703","geojson_lng":10.16079,"geojson_lat":48.29703},"geometry":{"type":"Point","coordinates":[10.16079,48.29703]}},{"type":"Feature","properties":{"SeqNo":"97667","Type":"S","DHID":"de:09775:4664","Parent":"de:09775:4664","Name":"Grafertshofen Sattlerstraße","MunicipalityCode":"09775164","Municipality":"Weißenhorn","DistrictCode":"","District":"","Description":"","Authority":"NVBW","DelfiName":"-","THID":"D9262F001238","LastOperationDate":"2025-06-14T00:00:00","SEV":"nein","longitude":"10,161114","latitude":"48,292063","geojson_lng":10.161114,"geojson_lat":48.292063},"geometry":{"type":"Point","coordinates":[10.161114,48.292063]}},{"type":"Feature","properties":{"SeqNo":"97668","Type":"Q","DHID":"de:09775:4664:0:1","Parent":"de:09775:4664","Name":"Illertissen","MunicipalityCode":"00000000","Municipality":"-","DistrictCode":"-","District":"-","Description":"","Authority":"NVBW","DelfiName":"-","THID":"-","LastOperationDate":"","SEV":"nein","longitude":"10,161123","latitude":"48,292033","geojson_lng":10.161123,"geojson_lat":48.292033},"geometry":{"type":"Point","coordinates":[10.161123,48.292033]}},{"type":"Feature","properties":{"SeqNo":"97669","Type":"Q","DHID":"de:09775:4664:0:2","Parent":"de:09775:4664","Name":"Weißenhorn","MunicipalityCode":"00000000","Municipality":"-","DistrictCode":"-","District":"-","Description":"","Authority":"NVBW","DelfiName":"-","THID":"-","LastOperationDate":"","SEV":"nein","longitude":"10,161141","latitude":"48,292087","geojson_lng":10.161141,"geojson_lat":48.292087},"geometry":{"type":"Point","coordinates":[10.161141,48.292087]}}]}