{"type":"FeatureCollection","features":[{"type":"Feature","properties":{"highway":"bus_stop","public_transport":"platform","name":"Watergat","ref:IFOPT":"NL:Q:42036202","_quaycode":"NL:Q:42036202","_town":"Monster","_status":"available","_mode":"bus","_direction":13,"_visuallyAccessible":true,"_disabledAccessible":false,"geojson_lng":4.180531046922782,"geojson_lat":52.03242466351689},"geometry":{"type":"Point","coordinates":[4.180531046922782,52.03242466351689]}},{"type":"Feature","properties":{"highway":"bus_stop","public_transport":"platform","name":"Schelppad","ref:IFOPT":"NL:Q:42035702","_quaycode":"NL:Q:42035702","_town":"Monster","_status":"available","_mode":"bus","_direction":40,"_visuallyAccessible":true,"_disabledAccessible":true,"geojson_lng":4.19061781798011,"geojson_lat":52.0389097644613},"geometry":{"type":"Point","coordinates":[4.19061781798011,52.0389097644613]}},{"type":"Feature","properties":{"highway":"bus_stop","public_transport":"platform","name":"Madeweg","ref:IFOPT":"NL:Q:54290170","_quaycode":"NL:Q:54290170","_town":"Monster","_status":"available","_mode":"bus","_direction":140,"_visuallyAccessible":false,"_disabledAccessible":false,"geojson_lng":4.179955780842174,"geojson_lat":52.02889508923682},"geometry":{"type":"Point","coordinates":[4.179955780842174,52.02889508923682]}},{"type":"Feature","properties":{"highway":"bus_stop","public_transport":"platform","name":"Schelppad","ref:IFOPT":"NL:Q:42035701","_quaycode":"NL:Q:42035701","_town":"Monster","_status":"available","_mode":"bus","_direction":220,"_visuallyAccessible":true,"_disabledAccessible":true,"geojson_lng":4.19032661725649,"geojson_lat":52.03889781591162},"geometry":{"type":"Point","coordinates":[4.19032661725649,52.03889781591162]}},{"type":"Feature","properties":{"highway":"bus_stop","public_transport":"platform","name":"Duinstraat","ref:IFOPT":"NL:Q:42035202","_quaycode":"NL:Q:42035202","_town":"Monster","_status":"available","_mode":"bus","_direction":45,"_visuallyAccessible":true,"_disabledAccessible":true,"geojson_lng":4.177757853688847,"geojson_lat":52.02933995708903},"geometry":{"type":"Point","coordinates":[4.177757853688847,52.02933995708903]}},{"type":"Feature","properties":{"highway":"bus_stop","public_transport":"platform","name":"Watergat","ref:IFOPT":"NL:Q:42036201","_quaycode":"NL:Q:42036201","_town":"Monster","_status":"available","_mode":"bus","_direction":203,"_visuallyAccessible":true,"_disabledAccessible":false,"geojson_lng":4.1802175321404,"geojson_lat":52.03216076979045},"geometry":{"type":"Point","coordinates":[4.1802175321404,52.03216076979045]}},{"type":"Feature","properties":{"highway":"bus_stop","public_transport":"platform","name":"Madeweg","ref:IFOPT":"NL:Q:54290180","_quaycode":"NL:Q:54290180","_town":"Monster","_status":"available","_mode":"bus","_direction":317,"_visuallyAccessible":false,"_disabledAccessible":false,"geojson_lng":4.180755320886723,"geojson_lat":52.0284268697335},"geometry":{"type":"Point","coordinates":[4.180755320886723,52.0284268697335]}}]}