{"type":"FeatureCollection","features":[{"type":"Feature","properties":{"SeqNo":"841257","Type":"S","DHID":"de:14612:322","Parent":"de:14612:322","Name":"Dresden Jacob-Winter-Platz","MunicipalityCode":"14612000","Municipality":"Dresden","DistrictCode":"","District":"","Description":"","Authority":"VVO","DelfiName":"Dresden, Jacob-Winter-Platz","THID":"D93914000142","LastOperationDate":"2025-02-28T00:00:00","SEV":"nein","longitude":"13,799039","latitude":"51,005236","geojson_lng":13.799039,"geojson_lat":51.005236},"geometry":{"type":"Point","coordinates":[13.799039,51.005236]}},{"type":"Feature","properties":{"SeqNo":"841258","Type":"A","DHID":"de:14612:322:1","Parent":"de:14612:322","Name":"J-Winter Strab","MunicipalityCode":"00000000","Municipality":"-","DistrictCode":"-","District":"-","Description":"","Authority":"VVO","DelfiName":"-","THID":"-","LastOperationDate":"","SEV":"nein","longitude":"13,799039","latitude":"51,005236","geojson_lng":13.799039,"geojson_lat":51.005236},"geometry":{"type":"Point","coordinates":[13.799039,51.005236]}},{"type":"Feature","properties":{"SeqNo":"841260","Type":"Q","DHID":"de:14612:322:1:1","Parent":"de:14612:322:1","Name":"Straßenbahn stadtw.","MunicipalityCode":"00000000","Municipality":"-","DistrictCode":"-","District":"-","Description":"","Authority":"VVO","DelfiName":"-","THID":"-","LastOperationDate":"","SEV":"nein","longitude":"13,799488","latitude":"51,005485","geojson_lng":13.799488,"geojson_lat":51.005485},"geometry":{"type":"Point","coordinates":[13.799488,51.005485]}},{"type":"Feature","properties":{"SeqNo":"841261","Type":"Q","DHID":"de:14612:322:1:2","Parent":"de:14612:322:1","Name":"Straßenbahn landwärts","MunicipalityCode":"00000000","Municipality":"-","DistrictCode":"-","District":"-","Description":"","Authority":"VVO","DelfiName":"-","THID":"-","LastOperationDate":"","SEV":"nein","longitude":"13,799057","latitude":"51,005259","geojson_lng":13.799057,"geojson_lat":51.005259},"geometry":{"type":"Point","coordinates":[13.799057,51.005259]}},{"type":"Feature","properties":{"SeqNo":"841262","Type":"Q","DHID":"de:14612:322:2:91","Parent":"de:14612:322:2","Name":"91","MunicipalityCode":"00000000","Municipality":"-","DistrictCode":"-","District":"-","Description":"","Authority":"VVO","DelfiName":"-","THID":"-","LastOperationDate":"","SEV":"nein","longitude":"13,798841","latitude":"51,004869","geojson_lng":13.798841,"geojson_lat":51.004869},"geometry":{"type":"Point","coordinates":[13.798841,51.004869]}},{"type":"Feature","properties":{"SeqNo":"841264","Type":"Q","DHID":"de:14612:322:2:94","Parent":"de:14612:322:2","Name":"94","MunicipalityCode":"00000000","Municipality":"-","DistrictCode":"-","District":"-","Description":"","Authority":"VVO","DelfiName":"-","THID":"-","LastOperationDate":"","SEV":"nein","longitude":"13,799093","latitude":"51,004829","geojson_lng":13.799093,"geojson_lat":51.004829},"geometry":{"type":"Point","coordinates":[13.799093,51.004829]}},{"type":"Feature","properties":{"SeqNo":"843731","Type":"A","DHID":"de:14612:791:1","Parent":"de:14612:791","Name":"Bad","MunicipalityCode":"00000000","Municipality":"-","DistrictCode":"-","District":"-","Description":"","Authority":"VVO","DelfiName":"-","THID":"-","LastOperationDate":"","SEV":"nein","longitude":"13,800027","latitude":"50,999843","geojson_lng":13.800027,"geojson_lat":50.999843},"geometry":{"type":"Point","coordinates":[13.800027,50.999843]}},{"type":"Feature","properties":{"SeqNo":"843733","Type":"Q","DHID":"de:14612:791:1:5","Parent":"de:14612:791:1","Name":"Bad","MunicipalityCode":"00000000","Municipality":"-","DistrictCode":"-","District":"-","Description":"","Authority":"VVO","DelfiName":"-","THID":"-","LastOperationDate":"","SEV":"nein","longitude":"13,800081","latitude":"50,999826","geojson_lng":13.800081,"geojson_lat":50.999826},"geometry":{"type":"Point","coordinates":[13.800081,50.999826]}},{"type":"Feature","properties":{"SeqNo":"843734","Type":"Q","DHID":"de:14612:791:1:6","Parent":"de:14612:791:1","Name":"Bad","MunicipalityCode":"00000000","Municipality":"-","DistrictCode":"-","District":"-","Description":"","Authority":"VVO","DelfiName":"-","THID":"-","LastOperationDate":"","SEV":"nein","longitude":"13,800009","latitude":"50,999826","geojson_lng":13.800009,"geojson_lat":50.999826},"geometry":{"type":"Point","coordinates":[13.800009,50.999826]}},{"type":"Feature","properties":{"SeqNo":"844550","Type":"S","DHID":"de:14612:932","Parent":"de:14612:932","Name":"Dresden Niedersedlitzer Straße","MunicipalityCode":"14612000","Municipality":"Dresden","DistrictCode":"","District":"","Description":"","Authority":"VVO","DelfiName":"Dresden, Niedersedlitzer Straße","THID":"D939140003A4","LastOperationDate":"2025-02-28T00:00:00","SEV":"nein","longitude":"13,807968","latitude":"51,005847","geojson_lng":13.807968,"geojson_lat":51.005847},"geometry":{"type":"Point","coordinates":[13.807968,51.005847]}},{"type":"Feature","properties":{"SeqNo":"844551","Type":"A","DHID":"de:14612:932:1","Parent":"de:14612:932","Name":"Ri. Prohlis","MunicipalityCode":"00000000","Municipality":"-","DistrictCode":"-","District":"-","Description":"","Authority":"VVO","DelfiName":"-","THID":"-","LastOperationDate":"","SEV":"nein","longitude":"13,807923","latitude":"51,005881","geojson_lng":13.807923,"geojson_lat":51.005881},"geometry":{"type":"Point","coordinates":[13.807923,51.005881]}},{"type":"Feature","properties":{"SeqNo":"844552","Type":"A","DHID":"de:14612:932:2","Parent":"de:14612:932","Name":"Ri. Blasewitz","MunicipalityCode":"00000000","Municipality":"-","DistrictCode":"-","District":"-","Description":"","Authority":"VVO","DelfiName":"-","THID":"-","LastOperationDate":"","SEV":"nein","longitude":"13,807995","latitude":"51,005835","geojson_lng":13.807995,"geojson_lat":51.005835},"geometry":{"type":"Point","coordinates":[13.807995,51.005835]}},{"type":"Feature","properties":{"SeqNo":"844553","Type":"A","DHID":"de:14612:932:3","Parent":"de:14612:932","Name":"Niedersedlitzer Str.","MunicipalityCode":"00000000","Municipality":"-","DistrictCode":"-","District":"-","Description":"","Authority":"VVO","DelfiName":"-","THID":"-","LastOperationDate":"","SEV":"nein","longitude":"13,808364","latitude":"51,005909","geojson_lng":13.808364,"geojson_lat":51.005909},"geometry":{"type":"Point","coordinates":[13.808364,51.005909]}},{"type":"Feature","properties":{"SeqNo":"844554","Type":"Q","DHID":"de:14612:932:1:2","Parent":"de:14612:932:1","Name":"Ri. Prohlis","MunicipalityCode":"00000000","Municipality":"-","DistrictCode":"-","District":"-","Description":"","Authority":"VVO","DelfiName":"-","THID":"-","LastOperationDate":"","SEV":"nein","longitude":"13,80795","latitude":"51,005835","geojson_lng":13.80795,"geojson_lat":51.005835},"geometry":{"type":"Point","coordinates":[13.80795,51.005835]}},{"type":"Feature","properties":{"SeqNo":"844555","Type":"Q","DHID":"de:14612:932:2:1","Parent":"de:14612:932:2","Name":"Ri. Blasewitz","MunicipalityCode":"00000000","Municipality":"-","DistrictCode":"-","District":"-","Description":"","Authority":"VVO","DelfiName":"-","THID":"-","LastOperationDate":"","SEV":"nein","longitude":"13,808022","latitude":"51,005835","geojson_lng":13.808022,"geojson_lat":51.005835},"geometry":{"type":"Point","coordinates":[13.808022,51.005835]}},{"type":"Feature","properties":{"SeqNo":"844556","Type":"Q","DHID":"de:14612:932:1:4","Parent":"de:14612:932:3","Name":"4","MunicipalityCode":"00000000","Municipality":"-","DistrictCode":"-","District":"-","Description":"","Authority":"VVO","DelfiName":"-","THID":"-","LastOperationDate":"","SEV":"nein","longitude":"13,808364","latitude":"51,005903","geojson_lng":13.808364,"geojson_lat":51.005903},"geometry":{"type":"Point","coordinates":[13.808364,51.005903]}},{"type":"Feature","properties":{"SeqNo":"844557","Type":"Q","DHID":"de:14612:932:3:3","Parent":"de:14612:932:3","Name":"3","MunicipalityCode":"00000000","Municipality":"-","DistrictCode":"-","District":"-","Description":"","Authority":"VVO","DelfiName":"-","THID":"-","LastOperationDate":"","SEV":"nein","longitude":"13,808382","latitude":"51,005903","geojson_lng":13.808382,"geojson_lat":51.005903},"geometry":{"type":"Point","coordinates":[13.808382,51.005903]}},{"type":"Feature","properties":{"SeqNo":"844558","Type":"S","DHID":"de:14612:933","Parent":"de:14612:933","Name":"Dresden Ernst-Toller-Straße","MunicipalityCode":"14612000","Municipality":"Dresden","DistrictCode":"","District":"","Description":"","Authority":"VVO","DelfiName":"Dresden, Ernst-Toller-Straße","THID":"D939140003A5","LastOperationDate":"2025-02-28T00:00:00","SEV":"nein","longitude":"13,802578","latitude":"51,001426","geojson_lng":13.802578,"geojson_lat":51.001426},"geometry":{"type":"Point","coordinates":[13.802578,51.001426]}},{"type":"Feature","properties":{"SeqNo":"844559","Type":"A","DHID":"de:14612:933:1","Parent":"de:14612:933","Name":"Ri. Hp. Dobritz","MunicipalityCode":"00000000","Municipality":"-","DistrictCode":"-","District":"-","Description":"","Authority":"VVO","DelfiName":"-","THID":"-","LastOperationDate":"","SEV":"nein","longitude":"13,802551","latitude":"51,00137","geojson_lng":13.802551,"geojson_lat":51.00137},"geometry":{"type":"Point","coordinates":[13.802551,51.00137]}},{"type":"Feature","properties":{"SeqNo":"844560","Type":"A","DHID":"de:14612:933:2","Parent":"de:14612:933","Name":"Ri. Prohlis","MunicipalityCode":"00000000","Municipality":"-","DistrictCode":"-","District":"-","Description":"","Authority":"VVO","DelfiName":"-","THID":"-","LastOperationDate":"","SEV":"nein","longitude":"13,802758","latitude":"51,001522","geojson_lng":13.802758,"geojson_lat":51.001522},"geometry":{"type":"Point","coordinates":[13.802758,51.001522]}},{"type":"Feature","properties":{"SeqNo":"844561","Type":"Q","DHID":"de:14612:933:1:1","Parent":"de:14612:933:1","Name":"Ri. Blasewitz","MunicipalityCode":"00000000","Municipality":"-","DistrictCode":"-","District":"-","Description":"","Authority":"VVO","DelfiName":"-","THID":"-","LastOperationDate":"","SEV":"nein","longitude":"13,802596","latitude":"51,001415","geojson_lng":13.802596,"geojson_lat":51.001415},"geometry":{"type":"Point","coordinates":[13.802596,51.001415]}},{"type":"Feature","properties":{"SeqNo":"844562","Type":"Q","DHID":"de:14612:933:2:2","Parent":"de:14612:933:2","Name":"Ri. Prohlis","MunicipalityCode":"00000000","Municipality":"-","DistrictCode":"-","District":"-","Description":"","Authority":"VVO","DelfiName":"-","THID":"-","LastOperationDate":"","SEV":"nein","longitude":"13,802596","latitude":"51,001387","geojson_lng":13.802596,"geojson_lat":51.001387},"geometry":{"type":"Point","coordinates":[13.802596,51.001387]}}]}