{"type":"FeatureCollection","features":[{"type":"Feature","properties":{"SeqNo":"114114","Type":"A","DHID":"de:09173:4746:2","Parent":"de:09173:4746","Name":"Bau","MunicipalityCode":"00000000","Municipality":"-","DistrictCode":"-","District":"-","Description":"","Authority":"BEG","DelfiName":"-","THID":"-","LastOperationDate":"","SEV":"nein","longitude":"11,481925","latitude":"47,856803","geojson_lng":11.481925,"geojson_lat":47.856803},"geometry":{"type":"Point","coordinates":[11.481925,47.856803]}},{"type":"Feature","properties":{"SeqNo":"114117","Type":"Q","DHID":"de:09173:4746:1:3","Parent":"de:09173:4746:2","Name":"Bau Ri. Nord / Waldfriedhof","MunicipalityCode":"00000000","Municipality":"-","DistrictCode":"-","District":"-","Description":"","Authority":"BEG","DelfiName":"-","THID":"-","LastOperationDate":"","SEV":"nein","longitude":"11,482086","latitude":"47,856647","geojson_lng":11.482086,"geojson_lat":47.856647},"geometry":{"type":"Point","coordinates":[11.482086,47.856647]}},{"type":"Feature","properties":{"SeqNo":"114118","Type":"Q","DHID":"de:09173:4746:1:4","Parent":"de:09173:4746:2","Name":"Bau Ri. Süd / Verdiweg","MunicipalityCode":"00000000","Municipality":"-","DistrictCode":"-","District":"-","Description":"","Authority":"BEG","DelfiName":"-","THID":"-","LastOperationDate":"","SEV":"nein","longitude":"11,481763","latitude":"47,856954","geojson_lng":11.481763,"geojson_lat":47.856954},"geometry":{"type":"Point","coordinates":[11.481763,47.856954]}},{"type":"Feature","properties":{"SeqNo":"114282","Type":"S","DHID":"de:09173:4784","Parent":"de:09173:4784","Name":"Geretsried, Am Stern","MunicipalityCode":"09173126","Municipality":"Geretsried","DistrictCode":"","District":"","Description":"","Authority":"BEG","DelfiName":"-","THID":"D923D50012B0","LastOperationDate":"2025-06-14T00:00:00","SEV":"nein","longitude":"11,48656","latitude":"47,856773","geojson_lng":11.48656,"geojson_lat":47.856773},"geometry":{"type":"Point","coordinates":[11.48656,47.856773]}},{"type":"Feature","properties":{"SeqNo":"114283","Type":"A","DHID":"de:09173:4784:1","Parent":"de:09173:4784","Name":"Ri Nordwest/Sudeten","MunicipalityCode":"00000000","Municipality":"-","DistrictCode":"-","District":"-","Description":"","Authority":"BEG","DelfiName":"-","THID":"-","LastOperationDate":"","SEV":"nein","longitude":"11,486443","latitude":"47,85687","geojson_lng":11.486443,"geojson_lat":47.85687},"geometry":{"type":"Point","coordinates":[11.486443,47.85687]}},{"type":"Feature","properties":{"SeqNo":"114284","Type":"A","DHID":"de:09173:4784:2","Parent":"de:09173:4784","Name":"Ri Südost/Gustav-A","MunicipalityCode":"00000000","Municipality":"-","DistrictCode":"-","District":"-","Description":"","Authority":"BEG","DelfiName":"-","THID":"-","LastOperationDate":"","SEV":"nein","longitude":"11,486713","latitude":"47,856659","geojson_lng":11.486713,"geojson_lat":47.856659},"geometry":{"type":"Point","coordinates":[11.486713,47.856659]}},{"type":"Feature","properties":{"SeqNo":"114285","Type":"Q","DHID":"de:09173:4784:0:1","Parent":"de:09173:4784:1","Name":"Ri. West / Sudetenstraße","MunicipalityCode":"00000000","Municipality":"-","DistrictCode":"-","District":"-","Description":"","Authority":"BEG","DelfiName":"-","THID":"-","LastOperationDate":"","SEV":"nein","longitude":"11,486443","latitude":"47,85687","geojson_lng":11.486443,"geojson_lat":47.85687},"geometry":{"type":"Point","coordinates":[11.486443,47.85687]}},{"type":"Feature","properties":{"SeqNo":"114286","Type":"Q","DHID":"de:09173:4784:0:2","Parent":"de:09173:4784:1","Name":"Ri. Ost / Gustav-Adolf-Str","MunicipalityCode":"00000000","Municipality":"-","DistrictCode":"-","District":"-","Description":"","Authority":"BEG","DelfiName":"-","THID":"-","LastOperationDate":"","SEV":"nein","longitude":"11,486704","latitude":"47,856659","geojson_lng":11.486704,"geojson_lat":47.856659},"geometry":{"type":"Point","coordinates":[11.486704,47.856659]}},{"type":"Feature","properties":{"SeqNo":"114287","Type":"S","DHID":"de:09173:4785","Parent":"de:09173:4785","Name":"Geretsried, Feuerwehr","MunicipalityCode":"09173126","Municipality":"Geretsried","DistrictCode":"","District":"","Description":"","Authority":"BEG","DelfiName":"-","THID":"D923D50012B1","LastOperationDate":"2025-06-14T00:00:00","SEV":"nein","longitude":"11,48797","latitude":"47,851228","geojson_lng":11.48797,"geojson_lat":47.851228},"geometry":{"type":"Point","coordinates":[11.48797,47.851228]}},{"type":"Feature","properties":{"SeqNo":"114288","Type":"Q","DHID":"de:09173:4785:0:1","Parent":"de:09173:4785","Name":"Ri. West / Keplerweg","MunicipalityCode":"00000000","Municipality":"-","DistrictCode":"-","District":"-","Description":"","Authority":"BEG","DelfiName":"-","THID":"-","LastOperationDate":"","SEV":"nein","longitude":"11,487314","latitude":"47,85133","geojson_lng":11.487314,"geojson_lat":47.85133},"geometry":{"type":"Point","coordinates":[11.487314,47.85133]}},{"type":"Feature","properties":{"SeqNo":"114289","Type":"Q","DHID":"de:09173:4785:0:2","Parent":"de:09173:4785","Name":"Ri. West / Schubertweg (Steig 3)","MunicipalityCode":"00000000","Municipality":"-","DistrictCode":"-","District":"-","Description":"","Authority":"BEG","DelfiName":"-","THID":"-","LastOperationDate":"","SEV":"nein","longitude":"11,488644","latitude":"47,851203","geojson_lng":11.488644,"geojson_lat":47.851203},"geometry":{"type":"Point","coordinates":[11.488644,47.851203]}},{"type":"Feature","properties":{"SeqNo":"114290","Type":"S","DHID":"de:09173:4786","Parent":"de:09173:4786","Name":"Geretsried, Schubertweg","MunicipalityCode":"09173126","Municipality":"Geretsried","DistrictCode":"","District":"","Description":"","Authority":"BEG","DelfiName":"-","THID":"D923D50012B2","LastOperationDate":"2025-06-14T00:00:00","SEV":"nein","longitude":"11,48179","latitude":"47,853132","geojson_lng":11.48179,"geojson_lat":47.853132},"geometry":{"type":"Point","coordinates":[11.48179,47.853132]}},{"type":"Feature","properties":{"SeqNo":"114291","Type":"Q","DHID":"de:09173:4786:0:1","Parent":"de:09173:4786","Name":"Ri. NO / Am Stern/Feuerwehr","MunicipalityCode":"00000000","Municipality":"-","DistrictCode":"-","District":"-","Description":"","Authority":"BEG","DelfiName":"-","THID":"-","LastOperationDate":"","SEV":"nein","longitude":"11,482005","latitude":"47,853211","geojson_lng":11.482005,"geojson_lat":47.853211},"geometry":{"type":"Point","coordinates":[11.482005,47.853211]}},{"type":"Feature","properties":{"SeqNo":"114292","Type":"Q","DHID":"de:09173:4786:0:2","Parent":"de:09173:4786","Name":"Ri. SW / Stein (376/378/379)","MunicipalityCode":"00000000","Municipality":"-","DistrictCode":"-","District":"-","Description":"","Authority":"BEG","DelfiName":"-","THID":"-","LastOperationDate":"","SEV":"nein","longitude":"11,481511","latitude":"47,853012","geojson_lng":11.481511,"geojson_lat":47.853012},"geometry":{"type":"Point","coordinates":[11.481511,47.853012]}},{"type":"Feature","properties":{"SeqNo":"114293","Type":"Q","DHID":"de:09173:4786:0:3","Parent":"de:09173:4786","Name":"Ri. West / Stein (370)","MunicipalityCode":"00000000","Municipality":"-","DistrictCode":"-","District":"-","Description":"","Authority":"BEG","DelfiName":"-","THID":"-","LastOperationDate":"","SEV":"nein","longitude":"11,483344","latitude":"47,852608","geojson_lng":11.483344,"geojson_lat":47.852608},"geometry":{"type":"Point","coordinates":[11.483344,47.852608]}},{"type":"Feature","properties":{"SeqNo":"114294","Type":"Q","DHID":"de:09173:4786:0:4","Parent":"de:09173:4786","Name":"Ri. Ost / Feuerwehr (370)","MunicipalityCode":"00000000","Municipality":"-","DistrictCode":"-","District":"-","Description":"","Authority":"BEG","DelfiName":"-","THID":"-","LastOperationDate":"","SEV":"nein","longitude":"11,482113","latitude":"47,852686","geojson_lng":11.482113,"geojson_lat":47.852686},"geometry":{"type":"Point","coordinates":[11.482113,47.852686]}}]}