{"type":"FeatureCollection","features":[{"type":"Feature","properties":{"highway":"bus_stop","public_transport":"platform","name":"Dillenburg","ref:IFOPT":"NL:Q:68600130","_quaycode":"NL:Q:68600130","_town":"Weert","_status":"available","_mode":"bus","_direction":173,"_visuallyAccessible":false,"_disabledAccessible":false,"geojson_lng":5.706527717840976,"geojson_lat":51.24531044272568},"geometry":{"type":"Point","coordinates":[5.706527717840976,51.24531044272568]}},{"type":"Feature","properties":{"highway":"bus_stop","public_transport":"platform","name":"Schaekenstraat","ref:IFOPT":"NL:Q:68600540","_quaycode":"NL:Q:68600540","_town":"Weert","_status":"available","_mode":"bus","_direction":181,"_visuallyAccessible":false,"_disabledAccessible":false,"geojson_lng":5.701900355600139,"geojson_lat":51.2430219262807},"geometry":{"type":"Point","coordinates":[5.701900355600139,51.2430219262807]}},{"type":"Feature","properties":{"highway":"bus_stop","public_transport":"platform","name":"Zuiderstraat","ref:IFOPT":"NL:Q:68600570","_quaycode":"NL:Q:68600570","_town":"Weert","_status":"available","_mode":"bus","_direction":338,"_visuallyAccessible":false,"_disabledAccessible":false,"geojson_lng":5.7025240087106255,"geojson_lat":51.239991001495234},"geometry":{"type":"Point","coordinates":[5.7025240087106255,51.239991001495234]}},{"type":"Feature","properties":{"highway":"bus_stop","public_transport":"platform","name":"Dries","ref:IFOPT":"NL:Q:68600140","_quaycode":"NL:Q:68600140","_town":"Weert","_status":"available","_mode":"bus","_direction":154,"_visuallyAccessible":false,"_disabledAccessible":false,"geojson_lng":5.70201867379628,"geojson_lat":51.247722754658064},"geometry":{"type":"Point","coordinates":[5.70201867379628,51.247722754658064]}},{"type":"Feature","properties":{"highway":"bus_stop","public_transport":"platform","name":"Ringbaan West","ref:IFOPT":"NL:Q:68601040","_quaycode":"NL:Q:68601040","_town":"Weert","_status":"available","_mode":"bus","_direction":70,"_visuallyAccessible":false,"_disabledAccessible":false,"geojson_lng":5.693152634138078,"geojson_lat":51.24764754784915},"geometry":{"type":"Point","coordinates":[5.693152634138078,51.24764754784915]}},{"type":"Feature","properties":{"highway":"bus_stop","public_transport":"platform","name":"Oranjeplein","ref:IFOPT":"NL:Q:68600460","_quaycode":"NL:Q:68600460","_town":"Weert","_status":"available","_mode":"bus","_direction":77,"_visuallyAccessible":false,"_disabledAccessible":false,"geojson_lng":5.7080728096399,"geojson_lat":51.243032017004566},"geometry":{"type":"Point","coordinates":[5.7080728096399,51.243032017004566]}},{"type":"Feature","properties":{"highway":"bus_stop","public_transport":"platform","name":"Dillenburg","ref:IFOPT":"NL:Q:68600120","_quaycode":"NL:Q:68600120","_town":"Weert","_status":"available","_mode":"bus","_direction":329,"_visuallyAccessible":false,"_disabledAccessible":false,"geojson_lng":5.706755416602176,"geojson_lat":51.245103074229796},"geometry":{"type":"Point","coordinates":[5.706755416602176,51.245103074229796]}},{"type":"Feature","properties":{"highway":"bus_stop","public_transport":"platform","name":"Dries","ref:IFOPT":"NL:Q:68600150","_quaycode":"NL:Q:68600150","_town":"Weert","_status":"available","_mode":"bus","_direction":9,"_visuallyAccessible":false,"_disabledAccessible":false,"geojson_lng":5.702189735118636,"geojson_lat":51.24760543670051},"geometry":{"type":"Point","coordinates":[5.702189735118636,51.24760543670051]}},{"type":"Feature","properties":{"highway":"bus_stop","public_transport":"platform","name":"Oranjeplein","ref:IFOPT":"NL:Q:68600450","_quaycode":"NL:Q:68600450","_town":"Weert","_status":"available","_mode":"bus","_direction":274,"_visuallyAccessible":false,"_disabledAccessible":false,"geojson_lng":5.707901717506596,"geojson_lat":51.24314035495681},"geometry":{"type":"Point","coordinates":[5.707901717506596,51.24314035495681]}},{"type":"Feature","properties":{"highway":"bus_stop","public_transport":"platform","name":"Het College","ref:IFOPT":"NL:Q:68601050","_quaycode":"NL:Q:68601050","_town":"Weert","_status":"available","_mode":"bus","_direction":170,"_visuallyAccessible":false,"_disabledAccessible":false,"geojson_lng":5.694726327977339,"geojson_lat":51.2452523711001},"geometry":{"type":"Point","coordinates":[5.694726327977339,51.2452523711001]}},{"type":"Feature","properties":{"highway":"bus_stop","public_transport":"platform","name":"Zuiderstraat","ref:IFOPT":"NL:Q:68600560","_quaycode":"NL:Q:68600560","_town":"Weert","_status":"available","_mode":"bus","_direction":197,"_visuallyAccessible":false,"_disabledAccessible":false,"geojson_lng":5.702353038472185,"geojson_lat":51.240117308600716},"geometry":{"type":"Point","coordinates":[5.702353038472185,51.240117308600716]}},{"type":"Feature","properties":{"highway":"bus_stop","public_transport":"platform","name":"Schaekenstraat","ref:IFOPT":"NL:Q:68600550","_quaycode":"NL:Q:68600550","_town":"Weert","_status":"available","_mode":"bus","_direction":359,"_visuallyAccessible":false,"_disabledAccessible":false,"geojson_lng":5.701971958703937,"geojson_lat":51.243021732426044},"geometry":{"type":"Point","coordinates":[5.701971958703937,51.243021732426044]}},{"type":"Feature","properties":{"highway":"bus_stop","public_transport":"platform","name":"Ringbaan West","ref:IFOPT":"NL:Q:68601030","_quaycode":"NL:Q:68601030","_town":"Weert","_status":"available","_mode":"bus","_direction":255,"_visuallyAccessible":false,"_disabledAccessible":false,"geojson_lng":5.692981309408311,"geojson_lat":51.247728897912005},"geometry":{"type":"Point","coordinates":[5.692981309408311,51.247728897912005]}}]}