{"type":"FeatureCollection","features":[{"type":"Feature","properties":{"SeqNo":"736088","Type":"S","DHID":"de:03257:20560","Parent":"de:03257:20560","Name":"Meerbeck Kreuzung","MunicipalityCode":"03257023","Municipality":"Meerbeck","DistrictCode":"","District":"","Description":"","Authority":"HannIT","DelfiName":"-","THID":"D90CB9005050","LastOperationDate":"1999-12-31T00:00:00","SEV":"nein","longitude":"9,145191","latitude":"52,341894","geojson_lng":9.145191,"geojson_lat":52.341894},"geometry":{"type":"Point","coordinates":[9.145191,52.341894]}},{"type":"Feature","properties":{"SeqNo":"737035","Type":"S","DHID":"de:03257:413","Parent":"de:03257:413","Name":"Meerbeck Abzw. Volksdorf","MunicipalityCode":"03257023","Municipality":"Meerbeck","DistrictCode":"","District":"","Description":"","Authority":"HannIT","DelfiName":"-","THID":"D90CB900019D","LastOperationDate":"2025-02-28T00:00:00","SEV":"nein","longitude":"9,145272","latitude":"52,341757","geojson_lng":9.145272,"geojson_lat":52.341757},"geometry":{"type":"Point","coordinates":[9.145272,52.341757]}},{"type":"Feature","properties":{"SeqNo":"737036","Type":"A","DHID":"de:03257:413:1","Parent":"de:03257:413","Name":"Bus","MunicipalityCode":"00000000","Municipality":"-","DistrictCode":"-","District":"-","Description":"","Authority":"HannIT","DelfiName":"-","THID":"-","LastOperationDate":"","SEV":"nein","longitude":"9,1452","latitude":"52,341724","geojson_lng":9.1452,"geojson_lat":52.341724},"geometry":{"type":"Point","coordinates":[9.1452,52.341724]}},{"type":"Feature","properties":{"SeqNo":"737037","Type":"Q","DHID":"de:03257:413:1:1","Parent":"de:03257:413:1","Name":"1","MunicipalityCode":"00000000","Municipality":"-","DistrictCode":"-","District":"-","Description":"","Authority":"HannIT","DelfiName":"-","THID":"-","LastOperationDate":"","SEV":"nein","longitude":"9,145191","latitude":"52,341746","geojson_lng":9.145191,"geojson_lat":52.341746},"geometry":{"type":"Point","coordinates":[9.145191,52.341746]}},{"type":"Feature","properties":{"SeqNo":"737038","Type":"Q","DHID":"de:03257:413:1:2","Parent":"de:03257:413:1","Name":"2","MunicipalityCode":"00000000","Municipality":"-","DistrictCode":"-","District":"-","Description":"","Authority":"HannIT","DelfiName":"-","THID":"-","LastOperationDate":"","SEV":"nein","longitude":"9,145218","latitude":"52,341702","geojson_lng":9.145218,"geojson_lat":52.341702},"geometry":{"type":"Point","coordinates":[9.145218,52.341702]}},{"type":"Feature","properties":{"SeqNo":"737039","Type":"S","DHID":"de:03257:414","Parent":"de:03257:414","Name":"Meerbeck Kirche","MunicipalityCode":"03257023","Municipality":"Meerbeck","DistrictCode":"","District":"","Description":"","Authority":"HannIT","DelfiName":"-","THID":"D90CB900019E","LastOperationDate":"2025-02-28T00:00:00","SEV":"nein","longitude":"9,149575","latitude":"52,341763","geojson_lng":9.149575,"geojson_lat":52.341763},"geometry":{"type":"Point","coordinates":[9.149575,52.341763]}},{"type":"Feature","properties":{"SeqNo":"737040","Type":"A","DHID":"de:03257:414:1","Parent":"de:03257:414","Name":"Bus","MunicipalityCode":"00000000","Municipality":"-","DistrictCode":"-","District":"-","Description":"","Authority":"HannIT","DelfiName":"-","THID":"-","LastOperationDate":"","SEV":"nein","longitude":"9,149602","latitude":"52,341763","geojson_lng":9.149602,"geojson_lat":52.341763},"geometry":{"type":"Point","coordinates":[9.149602,52.341763]}},{"type":"Feature","properties":{"SeqNo":"737041","Type":"Q","DHID":"de:03257:414:1:1","Parent":"de:03257:414:1","Name":"1","MunicipalityCode":"00000000","Municipality":"-","DistrictCode":"-","District":"-","Description":"","Authority":"HannIT","DelfiName":"-","THID":"-","LastOperationDate":"","SEV":"nein","longitude":"9,149548","latitude":"52,341779","geojson_lng":9.149548,"geojson_lat":52.341779},"geometry":{"type":"Point","coordinates":[9.149548,52.341779]}},{"type":"Feature","properties":{"SeqNo":"737042","Type":"Q","DHID":"de:03257:414:1:2","Parent":"de:03257:414:1","Name":"2","MunicipalityCode":"00000000","Municipality":"-","DistrictCode":"-","District":"-","Description":"","Authority":"HannIT","DelfiName":"-","THID":"-","LastOperationDate":"","SEV":"nein","longitude":"9,149638","latitude":"52,341757","geojson_lng":9.149638,"geojson_lat":52.341757},"geometry":{"type":"Point","coordinates":[9.149638,52.341757]}}]}