{"type":"FeatureCollection","features":[{"type":"Feature","properties":{"SeqNo":"14110","Type":"S","DHID":"de:08118:3342","Parent":"de:08118:3342","Name":"Bietigheim Freiberger Str.","MunicipalityCode":"08118079","Municipality":"Bietigheim-Bissingen","DistrictCode":"","District":"","Description":"","Authority":"NVBW","DelfiName":"-","THID":"D91FB6000D0E","LastOperationDate":"2025-02-28T00:00:00","SEV":"nein","longitude":"9,142379","latitude":"48,948285","geojson_lng":9.142379,"geojson_lat":48.948285},"geometry":{"type":"Point","coordinates":[9.142379,48.948285]}},{"type":"Feature","properties":{"SeqNo":"14111","Type":"Q","DHID":"de:08118:3342:0:3","Parent":"de:08118:3342","Name":"eRtg Buch Buchzentrum","MunicipalityCode":"00000000","Municipality":"-","DistrictCode":"-","District":"-","Description":"","Authority":"NVBW","DelfiName":"-","THID":"-","LastOperationDate":"","SEV":"nein","longitude":"9,142379","latitude":"48,948285","geojson_lng":9.142379,"geojson_lat":48.948285},"geometry":{"type":"Point","coordinates":[9.142379,48.948285]}},{"type":"Feature","properties":{"SeqNo":"14112","Type":"Q","DHID":"de:08118:3342:0:4","Parent":"de:08118:3342","Name":"Rtg ZOB","MunicipalityCode":"00000000","Municipality":"-","DistrictCode":"-","District":"-","Description":"","Authority":"NVBW","DelfiName":"-","THID":"-","LastOperationDate":"","SEV":"nein","longitude":"9,142379","latitude":"48,948285","geojson_lng":9.142379,"geojson_lat":48.948285},"geometry":{"type":"Point","coordinates":[9.142379,48.948285]}},{"type":"Feature","properties":{"SeqNo":"14113","Type":"S","DHID":"de:08118:3343","Parent":"de:08118:3343","Name":"Bietigh. Agentur für","MunicipalityCode":"08118079","Municipality":"Bietigheim-Bissingen","DistrictCode":"-","District":"-","Description":"","Authority":"NVBW","DelfiName":"-","THID":"D91FB6000D0F","LastOperationDate":"2025-02-28T00:00:00","SEV":"nein","longitude":"9,147167","latitude":"48,948161","geojson_lng":9.147167,"geojson_lat":48.948161},"geometry":{"type":"Point","coordinates":[9.147167,48.948161]}},{"type":"Feature","properties":{"SeqNo":"14114","Type":"Q","DHID":"de:08118:3343:0:3","Parent":"de:08118:3343","Name":"3","MunicipalityCode":"00000000","Municipality":"-","DistrictCode":"-","District":"-","Description":"eRtg Buch Buchzentrum","Authority":"NVBW","DelfiName":"-","THID":"-","LastOperationDate":"","SEV":"nein","longitude":"9,147167","latitude":"48,948161","geojson_lng":9.147167,"geojson_lat":48.948161},"geometry":{"type":"Point","coordinates":[9.147167,48.948161]}},{"type":"Feature","properties":{"SeqNo":"14115","Type":"Q","DHID":"de:08118:3343:0:4","Parent":"de:08118:3343","Name":"4","MunicipalityCode":"00000000","Municipality":"-","DistrictCode":"-","District":"-","Description":"Rtg Gustav-Rau-Str.","Authority":"NVBW","DelfiName":"-","THID":"-","LastOperationDate":"","SEV":"nein","longitude":"9,147167","latitude":"48,948161","geojson_lng":9.147167,"geojson_lat":48.948161},"geometry":{"type":"Point","coordinates":[9.147167,48.948161]}},{"type":"Feature","properties":{"SeqNo":"14188","Type":"S","DHID":"de:08118:3384","Parent":"de:08118:3384","Name":"Bietigheim Im Feldle","MunicipalityCode":"08118079","Municipality":"Bietigheim-Bissingen","DistrictCode":"-","District":"-","Description":"","Authority":"NVBW","DelfiName":"-","THID":"D91FB6000D38","LastOperationDate":"2025-02-28T00:00:00","SEV":"nein","longitude":"9,148631","latitude":"48,94743","geojson_lng":9.148631,"geojson_lat":48.94743},"geometry":{"type":"Point","coordinates":[9.148631,48.94743]}},{"type":"Feature","properties":{"SeqNo":"14189","Type":"Q","DHID":"de:08118:3384:0:3","Parent":"de:08118:3384","Name":"3","MunicipalityCode":"00000000","Municipality":"-","DistrictCode":"-","District":"-","Description":"eRtg Parkäcker","Authority":"NVBW","DelfiName":"-","THID":"-","LastOperationDate":"","SEV":"nein","longitude":"9,148631","latitude":"48,94743","geojson_lng":9.148631,"geojson_lat":48.94743},"geometry":{"type":"Point","coordinates":[9.148631,48.94743]}},{"type":"Feature","properties":{"SeqNo":"14190","Type":"Q","DHID":"de:08118:3384:0:4","Parent":"de:08118:3384","Name":"4","MunicipalityCode":"00000000","Municipality":"-","DistrictCode":"-","District":"-","Description":"eRtg Freiberger Straße","Authority":"NVBW","DelfiName":"-","THID":"-","LastOperationDate":"","SEV":"nein","longitude":"9,148631","latitude":"48,94743","geojson_lng":9.148631,"geojson_lat":48.94743},"geometry":{"type":"Point","coordinates":[9.148631,48.94743]}},{"type":"Feature","properties":{"SeqNo":"14191","Type":"S","DHID":"de:08118:3385","Parent":"de:08118:3385","Name":"Bietigh. Buch Buchze","MunicipalityCode":"08118079","Municipality":"Bietigheim-Bissingen","DistrictCode":"-","District":"-","Description":"","Authority":"NVBW","DelfiName":"-","THID":"D91FB6000D39","LastOperationDate":"2025-02-28T00:00:00","SEV":"nein","longitude":"9,146278","latitude":"48,946615","geojson_lng":9.146278,"geojson_lat":48.946615},"geometry":{"type":"Point","coordinates":[9.146278,48.946615]}},{"type":"Feature","properties":{"SeqNo":"14192","Type":"Q","DHID":"de:08118:3385:0:3","Parent":"de:08118:3385","Name":"3","MunicipalityCode":"00000000","Municipality":"-","DistrictCode":"-","District":"-","Description":"eRtg Buch Gröninger Weg","Authority":"NVBW","DelfiName":"-","THID":"-","LastOperationDate":"","SEV":"nein","longitude":"9,146278","latitude":"48,946615","geojson_lng":9.146278,"geojson_lat":48.946615},"geometry":{"type":"Point","coordinates":[9.146278,48.946615]}},{"type":"Feature","properties":{"SeqNo":"14193","Type":"Q","DHID":"de:08118:3385:0:4","Parent":"de:08118:3385","Name":"4","MunicipalityCode":"00000000","Municipality":"-","DistrictCode":"-","District":"-","Description":"eRtg Agentur für Arbeit/Freiberger Str.","Authority":"NVBW","DelfiName":"-","THID":"-","LastOperationDate":"","SEV":"nein","longitude":"9,146278","latitude":"48,946615","geojson_lng":9.146278,"geojson_lat":48.946615},"geometry":{"type":"Point","coordinates":[9.146278,48.946615]}},{"type":"Feature","properties":{"SeqNo":"15603","Type":"S","DHID":"de:08118:5675","Parent":"de:08118:5675","Name":"Bietigh. Buch Grön. Weg","MunicipalityCode":"08118079","Municipality":"Bietigheim-Bissingen","DistrictCode":"-","District":"-","Description":"","Authority":"NVBW","DelfiName":"-","THID":"D91FB600162B","LastOperationDate":"2025-02-28T00:00:00","SEV":"nein","longitude":"9,141777","latitude":"48,94432","geojson_lng":9.141777,"geojson_lat":48.94432},"geometry":{"type":"Point","coordinates":[9.141777,48.94432]}},{"type":"Feature","properties":{"SeqNo":"15604","Type":"Q","DHID":"de:08118:5675:0:3","Parent":"de:08118:5675","Name":"3","MunicipalityCode":"00000000","Municipality":"-","DistrictCode":"-","District":"-","Description":"eRtg Bietigheim","Authority":"NVBW","DelfiName":"-","THID":"-","LastOperationDate":"","SEV":"nein","longitude":"9,141777","latitude":"48,94432","geojson_lng":9.141777,"geojson_lat":48.94432},"geometry":{"type":"Point","coordinates":[9.141777,48.94432]}},{"type":"Feature","properties":{"SeqNo":"15605","Type":"Q","DHID":"de:08118:5675:0:4","Parent":"de:08118:5675","Name":"4","MunicipalityCode":"00000000","Municipality":"-","DistrictCode":"-","District":"-","Description":"eRtg Buch Sonderschule","Authority":"NVBW","DelfiName":"-","THID":"-","LastOperationDate":"","SEV":"nein","longitude":"9,141777","latitude":"48,94432","geojson_lng":9.141777,"geojson_lat":48.94432},"geometry":{"type":"Point","coordinates":[9.141777,48.94432]}},{"type":"Feature","properties":{"SeqNo":"15606","Type":"S","DHID":"de:08118:5676","Parent":"de:08118:5676","Name":"Bietigh. Buch Dresdner Str.","MunicipalityCode":"08118079","Municipality":"Bietigheim-Bissingen","DistrictCode":"-","District":"-","Description":"","Authority":"NVBW","DelfiName":"-","THID":"D91FB600162C","LastOperationDate":"2025-02-28T00:00:00","SEV":"nein","longitude":"9,146341","latitude":"48,94553","geojson_lng":9.146341,"geojson_lat":48.94553},"geometry":{"type":"Point","coordinates":[9.146341,48.94553]}},{"type":"Feature","properties":{"SeqNo":"15607","Type":"Q","DHID":"de:08118:5676:0:3","Parent":"de:08118:5676","Name":"3","MunicipalityCode":"00000000","Municipality":"-","DistrictCode":"-","District":"-","Description":"eRtg Buch Gröninger Weg","Authority":"NVBW","DelfiName":"-","THID":"-","LastOperationDate":"","SEV":"nein","longitude":"9,146341","latitude":"48,94553","geojson_lng":9.146341,"geojson_lat":48.94553},"geometry":{"type":"Point","coordinates":[9.146341,48.94553]}},{"type":"Feature","properties":{"SeqNo":"15608","Type":"Q","DHID":"de:08118:5676:0:4","Parent":"de:08118:5676","Name":"4","MunicipalityCode":"00000000","Municipality":"-","DistrictCode":"-","District":"-","Description":"eRtg Buch Buchschule","Authority":"NVBW","DelfiName":"-","THID":"-","LastOperationDate":"","SEV":"nein","longitude":"9,146341","latitude":"48,94553","geojson_lng":9.146341,"geojson_lat":48.94553},"geometry":{"type":"Point","coordinates":[9.146341,48.94553]}}]}