{"type":"FeatureCollection","features":[{"type":"Feature","properties":{"highway":"bus_stop","public_transport":"platform","name":"Boormolen","ref:IFOPT":"NL:Q:46200040","_quaycode":"NL:Q:46200040","_town":"Zwolle","_status":"available","_mode":"bus","_direction":325,"_visuallyAccessible":false,"_disabledAccessible":true,"geojson_lng":6.049512000000001,"geojson_lat":52.54547199999998},"geometry":{"type":"Point","coordinates":[6.049512000000001,52.54547199999998]}},{"type":"Feature","properties":{"highway":"bus_stop","public_transport":"platform","name":"Nieuwe Gemaal","ref:IFOPT":"NL:Q:46560060","_quaycode":"NL:Q:46560060","_town":"Kamperzeedijk","_status":"available","_mode":"bus","_direction":82,"_visuallyAccessible":false,"_disabledAccessible":false,"geojson_lng":5.974614068587347,"geojson_lat":52.59361464016469},"geometry":{"type":"Point","coordinates":[5.974614068587347,52.59361464016469]}},{"type":"Feature","properties":{"highway":"bus_stop","public_transport":"platform","name":"Kamperzeedijk 141","ref:IFOPT":"NL:Q:46560040","_quaycode":"NL:Q:46560040","_town":"Kamperzeedijk","_status":"available","_mode":"bus","_direction":72,"_visuallyAccessible":false,"_disabledAccessible":false,"geojson_lng":5.982818624546476,"geojson_lat":52.59463427948008},"geometry":{"type":"Point","coordinates":[5.982818624546476,52.59463427948008]}},{"type":"Feature","properties":{"highway":"bus_stop","public_transport":"platform","name":"De Trefkoele","ref:IFOPT":"NL:Q:46310610","_quaycode":"NL:Q:46310610","_town":"Dalfsen","_status":"available","_mode":"bus","_direction":270,"_visuallyAccessible":false,"_disabledAccessible":false,"geojson_lng":6.254508989014505,"geojson_lat":52.51132590198993},"geometry":{"type":"Point","coordinates":[6.254508989014505,52.51132590198993]}},{"type":"Feature","properties":{"highway":"bus_stop","public_transport":"platform","name":"Emmawijk/Centrum","ref:IFOPT":"NL:Q:46004810","_quaycode":"NL:Q:46004810","_town":"Zwolle","_status":"available","_mode":"bus","_direction":107,"_visuallyAccessible":true,"_disabledAccessible":true,"geojson_lng":6.088826406831032,"geojson_lat":52.51003022481321},"geometry":{"type":"Point","coordinates":[6.088826406831032,52.51003022481321]}},{"type":"Feature","properties":{"highway":"bus_stop","public_transport":"platform","name":"Mindenstraat","ref:IFOPT":"NL:Q:46110330","_quaycode":"NL:Q:46110330","_town":"Zwolle","_status":"available","_mode":"bus","_direction":280,"_visuallyAccessible":false,"_disabledAccessible":false,"geojson_lng":6.172219754299127,"geojson_lat":52.53026087237493},"geometry":{"type":"Point","coordinates":[6.172219754299127,52.53026087237493]}},{"type":"Feature","properties":{"highway":"bus_stop","public_transport":"platform","name":"Mindenstraat","ref:IFOPT":"NL:Q:46110340","_quaycode":"NL:Q:46110340","_town":"Zwolle","_status":"available","_mode":"bus","_direction":100,"_visuallyAccessible":false,"_disabledAccessible":true,"geojson_lng":6.171448000000004,"geojson_lat":52.53023699999997},"geometry":{"type":"Point","coordinates":[6.171448000000004,52.53023699999997]}},{"type":"Feature","properties":{"highway":"bus_stop","public_transport":"platform","name":"Westfalenstraat","ref:IFOPT":"NL:Q:46110350","_quaycode":"NL:Q:46110350","_town":"Zwolle","_status":"available","_mode":"bus","_direction":0,"_visuallyAccessible":false,"_disabledAccessible":false,"geojson_lng":6.177181999999998,"geojson_lat":52.532332999999966},"geometry":{"type":"Point","coordinates":[6.177181999999998,52.532332999999966]}},{"type":"Feature","properties":{"highway":"bus_stop","public_transport":"platform","name":"Westfalenstraat","ref:IFOPT":"NL:Q:46110360","_quaycode":"NL:Q:46110360","_town":"Zwolle","_status":"available","_mode":"bus","_direction":180,"_visuallyAccessible":false,"_disabledAccessible":false,"geojson_lng":6.177110542327884,"geojson_lat":52.53232499999994},"geometry":{"type":"Point","coordinates":[6.177110542327884,52.53232499999994]}},{"type":"Feature","properties":{"highway":"bus_stop","public_transport":"platform","name":"Siegenstraat","ref:IFOPT":"NL:Q:46120290","_quaycode":"NL:Q:46120290","_town":"Zwolle","_status":"available","_mode":"bus","_direction":345,"_visuallyAccessible":false,"_disabledAccessible":false,"geojson_lng":6.176082599999999,"geojson_lat":52.53673350000002},"geometry":{"type":"Point","coordinates":[6.176082599999999,52.53673350000002]}},{"type":"Feature","properties":{"highway":"bus_stop","public_transport":"platform","name":"Siegenstraat","ref:IFOPT":"NL:Q:46120300","_quaycode":"NL:Q:46120300","_town":"Zwolle","_status":"available","_mode":"bus","_direction":165,"_visuallyAccessible":false,"_disabledAccessible":false,"geojson_lng":6.176018000000001,"geojson_lat":52.53665700000002},"geometry":{"type":"Point","coordinates":[6.176018000000001,52.53665700000002]}},{"type":"Feature","properties":{"highway":"bus_stop","public_transport":"platform","name":"Esdoornstraat","ref:IFOPT":"NL:Q:46008110","_quaycode":"NL:Q:46008110","_town":"Zwolle","_status":"available","_mode":"bus","_direction":162,"_visuallyAccessible":true,"_disabledAccessible":true,"geojson_lng":6.090938392279102,"geojson_lat":52.521469592045825},"geometry":{"type":"Point","coordinates":[6.090938392279102,52.521469592045825]}},{"type":"Feature","properties":{"highway":"bus_stop","public_transport":"platform","name":"Esdoornstraat","ref:IFOPT":"NL:Q:46008120","_quaycode":"NL:Q:46008120","_town":"Zwolle","_status":"available","_mode":"bus","_direction":313,"_visuallyAccessible":true,"_disabledAccessible":true,"geojson_lng":6.091535833207928,"geojson_lat":52.52121331531978},"geometry":{"type":"Point","coordinates":[6.091535833207928,52.52121331531978]}},{"type":"Feature","properties":{"highway":"bus_stop","public_transport":"platform","name":"Station Stadshagen","ref:IFOPT":"NL:Q:46100145","_quaycode":"NL:Q:46100145","_town":"Zwolle","_status":"available","_mode":"bus","_direction":305,"_visuallyAccessible":true,"_disabledAccessible":false,"geojson_lng":6.0500300000000005,"geojson_lat":52.528800000000004},"geometry":{"type":"Point","coordinates":[6.0500300000000005,52.528800000000004]}},{"type":"Feature","properties":{"highway":"bus_stop","public_transport":"platform","name":"Zwolseweg 56","ref:IFOPT":"NL:Q:47130400","_quaycode":"NL:Q:47130400","_town":"Wilsum","_status":"available","_mode":"bus","_direction":98,"_visuallyAccessible":false,"_disabledAccessible":false,"geojson_lng":5.9987448289970535,"geojson_lat":52.5362969347055},"geometry":{"type":"Point","coordinates":[5.9987448289970535,52.5362969347055]}},{"type":"Feature","properties":{"highway":"bus_stop","public_transport":"platform","name":"Veneweg","ref:IFOPT":"NL:Q:46520030","_quaycode":"NL:Q:46520030","_town":"Sint Jansklooster","_status":"available","_mode":"bus","_direction":238,"_visuallyAccessible":false,"_disabledAccessible":true,"geojson_lng":6.013468444630581,"geojson_lat":52.6773841891649},"geometry":{"type":"Point","coordinates":[6.013468444630581,52.6773841891649]}},{"type":"Feature","properties":{"highway":"bus_stop","public_transport":"platform","name":"Halleweg","ref:IFOPT":"NL:Q:46522150","_quaycode":"NL:Q:46522150","_town":"Sint Jansklooster","_status":"available","_mode":"bus","_direction":293,"_visuallyAccessible":false,"_disabledAccessible":false,"geojson_lng":5.975798538360793,"geojson_lat":52.67007232848808},"geometry":{"type":"Point","coordinates":[5.975798538360793,52.67007232848808]}},{"type":"Feature","properties":{"highway":"bus_stop","public_transport":"platform","name":"Veneweg","ref:IFOPT":"NL:Q:46520040","_quaycode":"NL:Q:46520040","_town":"Sint Jansklooster","_status":"available","_mode":"bus","_direction":58,"_visuallyAccessible":false,"_disabledAccessible":false,"geojson_lng":6.0135106222291625,"geojson_lat":52.67723118494617},"geometry":{"type":"Point","coordinates":[6.0135106222291625,52.67723118494617]}},{"type":"Feature","properties":{"highway":"bus_stop","public_transport":"platform","name":"Halleweg","ref:IFOPT":"NL:Q:46522160","_quaycode":"NL:Q:46522160","_town":"Sint Jansklooster","_status":"available","_mode":"bus","_direction":115,"_visuallyAccessible":false,"_disabledAccessible":false,"geojson_lng":5.976163892951236,"geojson_lat":52.66975596834855},"geometry":{"type":"Point","coordinates":[5.976163892951236,52.66975596834855]}},{"type":"Feature","properties":{"highway":"bus_stop","public_transport":"platform","name":"Barsbeek 36","ref:IFOPT":"NL:Q:46522080","_quaycode":"NL:Q:46522080","_town":"Sint Jansklooster","_status":"available","_mode":"bus","_direction":176,"_visuallyAccessible":false,"_disabledAccessible":false,"geojson_lng":6.016503049473351,"geojson_lat":52.672461163708185},"geometry":{"type":"Point","coordinates":[6.016503049473351,52.672461163708185]}},{"type":"Feature","properties":{"highway":"bus_stop","public_transport":"platform","name":"Dennenbos","ref:IFOPT":"NL:Q:46522120","_quaycode":"NL:Q:46522120","_town":"Sint Jansklooster","_status":"available","_mode":"bus","_direction":102,"_visuallyAccessible":false,"_disabledAccessible":false,"geojson_lng":6.000921469550109,"geojson_lat":52.65986167122109},"geometry":{"type":"Point","coordinates":[6.000921469550109,52.65986167122109]}},{"type":"Feature","properties":{"highway":"bus_stop","public_transport":"platform","name":"Dennenbos","ref:IFOPT":"NL:Q:46522110","_quaycode":"NL:Q:46522110","_town":"Sint Jansklooster","_status":"available","_mode":"bus","_direction":281,"_visuallyAccessible":false,"_disabledAccessible":false,"geojson_lng":5.9994936327660255,"geojson_lat":52.66028244531292},"geometry":{"type":"Point","coordinates":[5.9994936327660255,52.66028244531292]}},{"type":"Feature","properties":{"highway":"bus_stop","public_transport":"platform","name":"Oldenhof Kadoelerweg","ref:IFOPT":"NL:Q:46522140","_quaycode":"NL:Q:46522140","_town":"Sint Jansklooster","_status":"available","_mode":"bus","_direction":114,"_visuallyAccessible":false,"_disabledAccessible":false,"geojson_lng":5.991491844124249,"geojson_lat":52.66203095616564},"geometry":{"type":"Point","coordinates":[5.991491844124249,52.66203095616564]}},{"type":"Feature","properties":{"highway":"bus_stop","public_transport":"platform","name":"Oldenhof Kadoelerweg","ref:IFOPT":"NL:Q:46522130","_quaycode":"NL:Q:46522130","_town":"Sint Jansklooster","_status":"available","_mode":"bus","_direction":304,"_visuallyAccessible":false,"_disabledAccessible":false,"geojson_lng":5.99070211066782,"geojson_lat":52.66264609713266},"geometry":{"type":"Point","coordinates":[5.99070211066782,52.66264609713266]}},{"type":"Feature","properties":{"highway":"bus_stop","public_transport":"platform","name":"Verlengde Duinweg","ref:IFOPT":"NL:Q:46531010","_quaycode":"NL:Q:46531010","_town":"Sint Jansklooster","_status":"available","_mode":"bus","_direction":263,"_visuallyAccessible":false,"_disabledAccessible":false,"geojson_lng":5.982186086767698,"geojson_lat":52.685426550426826},"geometry":{"type":"Point","coordinates":[5.982186086767698,52.685426550426826]}},{"type":"Feature","properties":{"highway":"bus_stop","public_transport":"platform","name":"Zuurbeek","ref:IFOPT":"NL:Q:46522180","_quaycode":"NL:Q:46522180","_town":"Sint Jansklooster","_status":"available","_mode":"bus","_direction":143,"_visuallyAccessible":false,"_disabledAccessible":false,"geojson_lng":5.971452438836116,"geojson_lat":52.67565681593739},"geometry":{"type":"Point","coordinates":[5.971452438836116,52.67565681593739]}},{"type":"Feature","properties":{"highway":"bus_stop","public_transport":"platform","name":"Verlengde Duinweg","ref:IFOPT":"NL:Q:46531020","_quaycode":"NL:Q:46531020","_town":"Sint Jansklooster","_status":"available","_mode":"bus","_direction":84,"_visuallyAccessible":false,"_disabledAccessible":false,"geojson_lng":5.98333954835527,"geojson_lat":52.685420774365504},"geometry":{"type":"Point","coordinates":[5.98333954835527,52.685420774365504]}},{"type":"Feature","properties":{"highway":"bus_stop","public_transport":"platform","name":"Flevoweg","ref:IFOPT":"NL:Q:46520020","_quaycode":"NL:Q:46520020","_town":"Sint Jansklooster","_status":"available","_mode":"bus","_direction":286,"_visuallyAccessible":false,"_disabledAccessible":false,"geojson_lng":6.002896943928233,"geojson_lat":52.68165437517993},"geometry":{"type":"Point","coordinates":[6.002896943928233,52.68165437517993]}},{"type":"Feature","properties":{"highway":"bus_stop","public_transport":"platform","name":"Flevoweg","ref:IFOPT":"NL:Q:46520010","_quaycode":"NL:Q:46520010","_town":"Sint Jansklooster","_status":"available","_mode":"bus","_direction":106,"_visuallyAccessible":false,"_disabledAccessible":false,"geojson_lng":6.002497326560636,"geojson_lat":52.68162948190101},"geometry":{"type":"Point","coordinates":[6.002497326560636,52.68162948190101]}},{"type":"Feature","properties":{"highway":"bus_stop","public_transport":"platform","name":"Barsbeek 36","ref:IFOPT":"NL:Q:46522070","_quaycode":"NL:Q:46522070","_town":"Sint Jansklooster","_status":"available","_mode":"bus","_direction":356,"_visuallyAccessible":false,"_disabledAccessible":false,"geojson_lng":6.01671092017841,"geojson_lat":52.67252297376789},"geometry":{"type":"Point","coordinates":[6.01671092017841,52.67252297376789]}},{"type":"Feature","properties":{"highway":"bus_stop","public_transport":"platform","name":"Brinkweg","ref:IFOPT":"NL:Q:47320060","_quaycode":"NL:Q:47320060","_town":"Zalk","_status":"available","_mode":"bus","_direction":270,"_visuallyAccessible":false,"_disabledAccessible":false,"geojson_lng":6.0000053973521466,"geojson_lat":52.52306085138872},"geometry":{"type":"Point","coordinates":[6.0000053973521466,52.52306085138872]}},{"type":"Feature","properties":{"highway":"bus_stop","public_transport":"platform","name":"Kloosterziel","ref:IFOPT":"NL:Q:46403020","_quaycode":"NL:Q:46403020","_town":"De Velde","_status":"available","_mode":"bus","_direction":126,"_visuallyAccessible":false,"_disabledAccessible":true,"geojson_lng":6.094092872064938,"geojson_lat":52.6108574847088},"geometry":{"type":"Point","coordinates":[6.094092872064938,52.6108574847088]}},{"type":"Feature","properties":{"highway":"bus_stop","public_transport":"platform","name":"Kloosterziel","ref:IFOPT":"NL:Q:46403010","_quaycode":"NL:Q:46403010","_town":"De Velde","_status":"available","_mode":"bus","_direction":306,"_visuallyAccessible":false,"_disabledAccessible":true,"geojson_lng":6.094037573275938,"geojson_lat":52.611091485934246},"geometry":{"type":"Point","coordinates":[6.094037573275938,52.611091485934246]}},{"type":"Feature","properties":{"highway":"bus_stop","public_transport":"platform","name":"Isala ziekenhuis","ref:IFOPT":"NL:Q:46002010","_quaycode":"NL:Q:46002010","_town":"Zwolle","_status":"available","_mode":"bus","_direction":266,"_visuallyAccessible":true,"_disabledAccessible":false,"geojson_lng":6.125191459998554,"geojson_lat":52.51427720509985},"geometry":{"type":"Point","coordinates":[6.125191459998554,52.51427720509985]}},{"type":"Feature","properties":{"highway":"bus_stop","public_transport":"platform","name":"Wkc De Dobbe/Rijnlaan","ref:IFOPT":"NL:Q:46006830","_quaycode":"NL:Q:46006830","_town":"Zwolle","_status":"available","_mode":"bus","_direction":171,"_visuallyAccessible":true,"_disabledAccessible":true,"geojson_lng":6.1005079462805325,"geojson_lat":52.5311181569537},"geometry":{"type":"Point","coordinates":[6.1005079462805325,52.5311181569537]}},{"type":"Feature","properties":{"highway":"bus_stop","public_transport":"platform","name":"Emmerweg","ref:IFOPT":"NL:Q:46210110","_quaycode":"NL:Q:46210110","_town":"Emmen","_status":"available","_mode":"bus","_direction":257,"_visuallyAccessible":false,"_disabledAccessible":true,"geojson_lng":6.233297283539935,"geojson_lat":52.498303099849295},"geometry":{"type":"Point","coordinates":[6.233297283539935,52.498303099849295]}},{"type":"Feature","properties":{"highway":"bus_stop","public_transport":"platform","name":"Steenwetering","ref:IFOPT":"NL:Q:16380130","_quaycode":"NL:Q:16380130","_town":"Lichtmis","_status":"available","_mode":"bus","_direction":214,"_visuallyAccessible":true,"_disabledAccessible":true,"geojson_lng":6.176305599469284,"geojson_lat":52.55682810251486},"geometry":{"type":"Point","coordinates":[6.176305599469284,52.55682810251486]}},{"type":"Feature","properties":{"highway":"bus_stop","public_transport":"platform","name":"Kerkweg","ref:IFOPT":"NL:Q:42124690","_quaycode":"NL:Q:42124690","_town":"Zwolle","_status":"available","_mode":"bus","_direction":267,"_visuallyAccessible":false,"_disabledAccessible":true,"geojson_lng":6.141132993179824,"geojson_lat":52.52386560177567},"geometry":{"type":"Point","coordinates":[6.141132993179824,52.52386560177567]}},{"type":"Feature","properties":{"highway":"bus_stop","public_transport":"platform","name":"Gorterstraat","ref:IFOPT":"NL:Q:46200010","_quaycode":"NL:Q:46200010","_town":"Zwolle","_status":"available","_mode":"bus","_direction":245,"_visuallyAccessible":true,"_disabledAccessible":true,"geojson_lng":6.0407557440207835,"geojson_lat":52.54457512871277},"geometry":{"type":"Point","coordinates":[6.0407557440207835,52.54457512871277]}},{"type":"Feature","properties":{"highway":"bus_stop","public_transport":"platform","name":"Matenweg","ref:IFOPT":"NL:Q:46302140","_quaycode":"NL:Q:46302140","_town":"Hasselt","_status":"available","_mode":"bus","_direction":265,"_visuallyAccessible":false,"_disabledAccessible":false,"geojson_lng":6.156024557499585,"geojson_lat":52.5861257410549},"geometry":{"type":"Point","coordinates":[6.156024557499585,52.5861257410549]}},{"type":"Feature","properties":{"highway":"bus_stop","public_transport":"platform","name":"Bouwhuisweg","ref:IFOPT":"NL:Q:16780200","_quaycode":"NL:Q:16780200","_town":"Nieuwleusen","_status":"available","_mode":"bus","_direction":253,"_visuallyAccessible":false,"_disabledAccessible":true,"geojson_lng":6.277775766255284,"geojson_lat":52.568593982519104},"geometry":{"type":"Point","coordinates":[6.277775766255284,52.568593982519104]}},{"type":"Feature","properties":{"highway":"bus_stop","public_transport":"platform","name":"Schuurmanstraat","ref:IFOPT":"NL:Q:46004450","_quaycode":"NL:Q:46004450","_town":"Zwolle","_status":"available","_mode":"bus","_direction":118,"_visuallyAccessible":true,"_disabledAccessible":true,"geojson_lng":6.102059592405691,"geojson_lat":52.510455346394004},"geometry":{"type":"Point","coordinates":[6.102059592405691,52.510455346394004]}},{"type":"Feature","properties":{"highway":"bus_stop","public_transport":"platform","name":"Burg Bijleveldsingel","ref:IFOPT":"NL:Q:47150800","_quaycode":"NL:Q:47150800","_town":"Hattem","_status":"available","_mode":"bus","_direction":248,"_visuallyAccessible":false,"_disabledAccessible":false,"geojson_lng":6.056525998853355,"geojson_lat":52.48021715216334},"geometry":{"type":"Point","coordinates":[6.056525998853355,52.48021715216334]}},{"type":"Feature","properties":{"highway":"bus_stop","public_transport":"platform","name":"Campus","ref:IFOPT":"NL:Q:46006400","_quaycode":"NL:Q:46006400","_town":"Zwolle","_status":"available","_mode":"bus","_direction":274,"_visuallyAccessible":false,"_disabledAccessible":true,"geojson_lng":6.08010098392018,"geojson_lat":52.49854228607928},"geometry":{"type":"Point","coordinates":[6.08010098392018,52.49854228607928]}},{"type":"Feature","properties":{"highway":"bus_stop","public_transport":"platform","name":"Bontekamp","ref:IFOPT":"NL:Q:46310760","_quaycode":"NL:Q:46310760","_town":"Dalfsen","_status":"available","_mode":"bus","_direction":5,"_visuallyAccessible":false,"_disabledAccessible":false,"geojson_lng":6.26036155218871,"geojson_lat":52.52196939747513},"geometry":{"type":"Point","coordinates":[6.26036155218871,52.52196939747513]}},{"type":"Feature","properties":{"highway":"bus_stop","public_transport":"platform","name":"Oud Gereformeerde Kerk","ref:IFOPT":"NL:Q:16280230","_quaycode":"NL:Q:16280230","_town":"Rouveen","_status":"available","_mode":"bus","_direction":180,"_visuallyAccessible":false,"_disabledAccessible":true,"geojson_lng":6.182596070205236,"geojson_lat":52.62431829886106},"geometry":{"type":"Point","coordinates":[6.182596070205236,52.62431829886106]}},{"type":"Feature","properties":{"highway":"bus_stop","public_transport":"platform","name":"Snelweg","ref:IFOPT":"NL:Q:16180160","_quaycode":"NL:Q:16180160","_town":"Staphorst","_status":"available","_mode":"bus","_direction":169,"_visuallyAccessible":false,"_disabledAccessible":false,"geojson_lng":6.202842083780094,"geojson_lat":52.64174250988074},"geometry":{"type":"Point","coordinates":[6.202842083780094,52.64174250988074]}},{"type":"Feature","properties":{"highway":"bus_stop","public_transport":"platform","name":"Dekkersweg","ref:IFOPT":"NL:Q:16280290","_quaycode":"NL:Q:16280290","_town":"Rouveen","_status":"available","_mode":"bus","_direction":230,"_visuallyAccessible":false,"_disabledAccessible":true,"geojson_lng":6.188903236135457,"geojson_lat":52.63571691743836},"geometry":{"type":"Point","coordinates":[6.188903236135457,52.63571691743836]}},{"type":"Feature","properties":{"highway":"bus_stop","public_transport":"platform","name":"Station","ref:IFOPT":"NL:Q:46311005","_quaycode":"NL:Q:46311005","_town":"Dalfsen","_status":"available","_mode":"bus","_direction":102,"_visuallyAccessible":false,"_disabledAccessible":true,"geojson_lng":6.259900847978653,"geojson_lat":52.49866753322302},"geometry":{"type":"Point","coordinates":[6.259900847978653,52.49866753322302]}},{"type":"Feature","properties":{"highway":"bus_stop","public_transport":"platform","name":"Boldewijnhuizen","ref:IFOPT":"NL:Q:16180320","_quaycode":"NL:Q:16180320","_town":"Staphorst","_status":"available","_mode":"bus","_direction":346,"_visuallyAccessible":false,"_disabledAccessible":false,"geojson_lng":6.196550444093692,"geojson_lat":52.665952617924965},"geometry":{"type":"Point","coordinates":[6.196550444093692,52.665952617924965]}},{"type":"Feature","properties":{"highway":"bus_stop","public_transport":"platform","name":"Dahliastraat","ref:IFOPT":"NL:Q:46006030","_quaycode":"NL:Q:46006030","_town":"Zwolle","_status":"available","_mode":"bus","_direction":291,"_visuallyAccessible":false,"_disabledAccessible":true,"geojson_lng":6.10372484095868,"geojson_lat":52.50142173031358},"geometry":{"type":"Point","coordinates":[6.10372484095868,52.50142173031358]}},{"type":"Feature","properties":{"highway":"bus_stop","public_transport":"platform","name":"Thomas a Kempisstraat","ref:IFOPT":"NL:Q:46001870","_quaycode":"NL:Q:46001870","_town":"Zwolle","_status":"available","_mode":"bus","_direction":127,"_visuallyAccessible":false,"_disabledAccessible":true,"geojson_lng":6.1057071795037405,"geojson_lat":52.517353758361885},"geometry":{"type":"Point","coordinates":[6.1057071795037405,52.517353758361885]}},{"type":"Feature","properties":{"highway":"bus_stop","public_transport":"platform","name":"Redder","ref:IFOPT":"NL:Q:16180060","_quaycode":"NL:Q:16180060","_town":"Staphorst","_status":"available","_mode":"bus","_direction":60,"_visuallyAccessible":false,"_disabledAccessible":false,"geojson_lng":6.23185545777467,"geojson_lat":52.653843668983114},"geometry":{"type":"Point","coordinates":[6.23185545777467,52.653843668983114]}},{"type":"Feature","properties":{"highway":"bus_stop","public_transport":"platform","name":"Noord","ref:IFOPT":"NL:Q:47155007","_quaycode":"NL:Q:47155007","_town":"Hattem","_status":"available","_mode":"bus","_direction":326,"_visuallyAccessible":true,"_disabledAccessible":true,"geojson_lng":6.061295156530144,"geojson_lat":52.482131455896265},"geometry":{"type":"Point","coordinates":[6.061295156530144,52.482131455896265]}},{"type":"Feature","properties":{"highway":"bus_stop","public_transport":"platform","name":"Station","ref:IFOPT":"NL:Q:46004028","_quaycode":"NL:Q:46004028","_town":"Zwolle","_status":"available","_mode":"bus","_direction":310,"_visuallyAccessible":false,"_disabledAccessible":true,"geojson_lng":6.0912056210084735,"geojson_lat":52.50413907380029},"geometry":{"type":"Point","coordinates":[6.0912056210084735,52.50413907380029]}},{"type":"Feature","properties":{"highway":"bus_stop","public_transport":"platform","name":"Noord","ref:IFOPT":"NL:Q:47155008","_quaycode":"NL:Q:47155008","_town":"Hattem","_status":"available","_mode":"bus","_direction":127,"_visuallyAccessible":true,"_disabledAccessible":true,"geojson_lng":6.061989214430413,"geojson_lat":52.481309632856465},"geometry":{"type":"Point","coordinates":[6.061989214430413,52.481309632856465]}},{"type":"Feature","properties":{"highway":"bus_stop","public_transport":"platform","name":"IJsselbrug","ref:IFOPT":"NL:Q:47155012","_quaycode":"NL:Q:47155012","_town":"Hattem","_status":"available","_mode":"bus","_direction":240,"_visuallyAccessible":true,"_disabledAccessible":true,"geojson_lng":6.050135831515058,"geojson_lat":52.49385131458622},"geometry":{"type":"Point","coordinates":[6.050135831515058,52.49385131458622]}},{"type":"Feature","properties":{"highway":"bus_stop","public_transport":"platform","name":"Erasmuslaan","ref:IFOPT":"NL:Q:46124710","_quaycode":"NL:Q:46124710","_town":"Zwolle","_status":"available","_mode":"bus","_direction":252,"_visuallyAccessible":true,"_disabledAccessible":false,"geojson_lng":6.138081948763347,"geojson_lat":52.52381305266312},"geometry":{"type":"Point","coordinates":[6.138081948763347,52.52381305266312]}},{"type":"Feature","properties":{"highway":"bus_stop","public_transport":"platform","name":"Station","ref:IFOPT":"NL:Q:46004005","_quaycode":"NL:Q:46004005","_town":"Zwolle","_status":"available","_mode":"bus","_direction":310,"_visuallyAccessible":false,"_disabledAccessible":true,"geojson_lng":6.08895094682421,"geojson_lat":52.50498828488744},"geometry":{"type":"Point","coordinates":[6.08895094682421,52.50498828488744]}},{"type":"Feature","properties":{"highway":"bus_stop","public_transport":"platform","name":"Klapvoortweg","ref:IFOPT":"NL:Q:46210060","_quaycode":"NL:Q:46210060","_town":"Hoonhorst","_status":"available","_mode":"bus","_direction":28,"_visuallyAccessible":false,"_disabledAccessible":false,"geojson_lng":6.227404142532497,"geojson_lat":52.493527567539545},"geometry":{"type":"Point","coordinates":[6.227404142532497,52.493527567539545]}},{"type":"Feature","properties":{"highway":"bus_stop","public_transport":"platform","name":"Tesjeslaan","ref:IFOPT":"NL:Q:47132800","_quaycode":"NL:Q:47132800","_town":"Zwolle","_status":"available","_mode":"bus","_direction":241,"_visuallyAccessible":false,"_disabledAccessible":true,"geojson_lng":6.044454694642698,"geojson_lat":52.51975814523142},"geometry":{"type":"Point","coordinates":[6.044454694642698,52.51975814523142]}},{"type":"Feature","properties":{"highway":"bus_stop","public_transport":"platform","name":"Martinetstraat","ref:IFOPT":"NL:Q:46200020","_quaycode":"NL:Q:46200020","_town":"Zwolle","_status":"available","_mode":"bus","_direction":170,"_visuallyAccessible":true,"_disabledAccessible":true,"geojson_lng":6.0340943915063425,"geojson_lat":52.54269729624176},"geometry":{"type":"Point","coordinates":[6.0340943915063425,52.54269729624176]}},{"type":"Feature","properties":{"highway":"bus_stop","public_transport":"platform","name":"Van Leeuwtemarke","ref:IFOPT":"NL:Q:46003200","_quaycode":"NL:Q:46003200","_town":"Zwolle","_status":"available","_mode":"bus","_direction":157,"_visuallyAccessible":true,"_disabledAccessible":true,"geojson_lng":6.101208098376412,"geojson_lat":52.48694883866574},"geometry":{"type":"Point","coordinates":[6.101208098376412,52.48694883866574]}},{"type":"Feature","properties":{"highway":"bus_stop","public_transport":"platform","name":"IJsselbrug","ref:IFOPT":"NL:Q:47150290","_quaycode":"NL:Q:47150290","_town":"Hattem","_status":"available","_mode":"bus","_direction":349,"_visuallyAccessible":false,"_disabledAccessible":false,"geojson_lng":6.0520462943581,"geojson_lat":52.49555724815871},"geometry":{"type":"Point","coordinates":[6.0520462943581,52.49555724815871]}},{"type":"Feature","properties":{"highway":"bus_stop","public_transport":"platform","name":"Irisstraat","ref:IFOPT":"NL:Q:46006150","_quaycode":"NL:Q:46006150","_town":"Zwolle","_status":"available","_mode":"bus","_direction":127,"_visuallyAccessible":false,"_disabledAccessible":true,"geojson_lng":6.104020403096726,"geojson_lat":52.504206107204816},"geometry":{"type":"Point","coordinates":[6.104020403096726,52.504206107204816]}},{"type":"Feature","properties":{"highway":"bus_stop","public_transport":"platform","name":"Burgemeester Roelenweg","ref:IFOPT":"NL:Q:46006530","_quaycode":"NL:Q:46006530","_town":"Zwolle","_status":"available","_mode":"bus","_direction":14,"_visuallyAccessible":true,"_disabledAccessible":true,"geojson_lng":6.086242736384163,"geojson_lat":52.517200441367095},"geometry":{"type":"Point","coordinates":[6.086242736384163,52.517200441367095]}},{"type":"Feature","properties":{"highway":"bus_stop","public_transport":"platform","name":"Hervormde Kerk","ref:IFOPT":"NL:Q:16280190","_quaycode":"NL:Q:16280190","_town":"Rouveen","_status":"available","_mode":"bus","_direction":150,"_visuallyAccessible":false,"_disabledAccessible":false,"geojson_lng":6.186302626794156,"geojson_lat":52.61535090993633},"geometry":{"type":"Point","coordinates":[6.186302626794156,52.61535090993633]}},{"type":"Feature","properties":{"highway":"bus_stop","public_transport":"platform","name":"Caspar Fagelstraat","ref:IFOPT":"NL:Q:46001300","_quaycode":"NL:Q:46001300","_town":"Zwolle","_status":"available","_mode":"bus","_direction":237,"_visuallyAccessible":false,"_disabledAccessible":true,"geojson_lng":6.115996218535477,"geojson_lat":52.52304304874378},"geometry":{"type":"Point","coordinates":[6.115996218535477,52.52304304874378]}},{"type":"Feature","properties":{"highway":"bus_stop","public_transport":"platform","name":"Meppelerstraatweg","ref:IFOPT":"NL:Q:46007020","_quaycode":"NL:Q:46007020","_town":"Zwolle","_status":"available","_mode":"bus","_direction":160,"_visuallyAccessible":true,"_disabledAccessible":true,"geojson_lng":6.117008946976773,"geojson_lat":52.522803145030935},"geometry":{"type":"Point","coordinates":[6.117008946976773,52.522803145030935]}},{"type":"Feature","properties":{"highway":"bus_stop","public_transport":"platform","name":"Sassenpoort","ref:IFOPT":"NL:Q:46002040","_quaycode":"NL:Q:46002040","_town":"Zwolle","_status":"available","_mode":"bus","_direction":162,"_visuallyAccessible":true,"_disabledAccessible":true,"geojson_lng":6.095684518861222,"geojson_lat":52.50973864228374},"geometry":{"type":"Point","coordinates":[6.095684518861222,52.50973864228374]}},{"type":"Feature","properties":{"highway":"bus_stop","public_transport":"platform","name":"Roelingsbeek","ref:IFOPT":"NL:Q:46001120","_quaycode":"NL:Q:46001120","_town":"Zwolle","_status":"available","_mode":"bus","_direction":40,"_visuallyAccessible":true,"_disabledAccessible":true,"geojson_lng":6.111510884950757,"geojson_lat":52.534349930571295},"geometry":{"type":"Point","coordinates":[6.111510884950757,52.534349930571295]}},{"type":"Feature","properties":{"highway":"bus_stop","public_transport":"platform","name":"Katerdijk","ref:IFOPT":"NL:Q:46100040","_quaycode":"NL:Q:46100040","_town":"Zwolle","_status":"available","_mode":"bus","_direction":258,"_visuallyAccessible":true,"_disabledAccessible":true,"geojson_lng":6.0802109194098835,"geojson_lat":52.517748128295466},"geometry":{"type":"Point","coordinates":[6.0802109194098835,52.517748128295466]}},{"type":"Feature","properties":{"highway":"bus_stop","public_transport":"platform","name":"Zuideindigerweg","ref:IFOPT":"NL:Q:16280120","_quaycode":"NL:Q:16280120","_town":"Rouveen","_status":"available","_mode":"bus","_direction":10,"_visuallyAccessible":false,"_disabledAccessible":false,"geojson_lng":6.196193867485759,"geojson_lat":52.601596019177684},"geometry":{"type":"Point","coordinates":[6.196193867485759,52.601596019177684]}},{"type":"Feature","properties":{"highway":"bus_stop","public_transport":"platform","name":"Dennenkamp","ref:IFOPT":"NL:Q:46419006","_quaycode":"NL:Q:46419006","_town":"Oudleusen","_status":"available","_mode":"bus","_direction":0,"_visuallyAccessible":false,"_disabledAccessible":false,"geojson_lng":6.309207362641335,"geojson_lat":52.532573875416865},"geometry":{"type":"Point","coordinates":[6.309207362641335,52.532573875416865]}},{"type":"Feature","properties":{"highway":"bus_stop","public_transport":"platform","name":"Welle","ref:IFOPT":"NL:Q:46008240","_quaycode":"NL:Q:46008240","_town":"Zwolle","_status":"available","_mode":"bus","_direction":75,"_visuallyAccessible":true,"_disabledAccessible":true,"geojson_lng":6.094026254927381,"geojson_lat":52.536810120615186},"geometry":{"type":"Point","coordinates":[6.094026254927381,52.536810120615186]}},{"type":"Feature","properties":{"highway":"bus_stop","public_transport":"platform","name":"Bachplein","ref:IFOPT":"NL:Q:46008220","_quaycode":"NL:Q:46008220","_town":"Zwolle","_status":"available","_mode":"bus","_direction":167,"_visuallyAccessible":true,"_disabledAccessible":true,"geojson_lng":6.082283414901266,"geojson_lat":52.525860761599134},"geometry":{"type":"Point","coordinates":[6.082283414901266,52.525860761599134]}},{"type":"Feature","properties":{"highway":"bus_stop","public_transport":"platform","name":"Station","ref:IFOPT":"NL:Q:46004008","_quaycode":"NL:Q:46004008","_town":"Zwolle","_status":"available","_mode":"bus","_direction":130,"_visuallyAccessible":false,"_disabledAccessible":true,"geojson_lng":6.0895235951017295,"geojson_lat":52.50487704357731},"geometry":{"type":"Point","coordinates":[6.0895235951017295,52.50487704357731]}},{"type":"Feature","properties":{"highway":"bus_stop","public_transport":"platform","name":"Oudeweg","ref:IFOPT":"NL:Q:46210080","_quaycode":"NL:Q:46210080","_town":"Emmen","_status":"available","_mode":"bus","_direction":16,"_visuallyAccessible":true,"_disabledAccessible":true,"geojson_lng":6.228466234253106,"geojson_lat":52.497492624019614},"geometry":{"type":"Point","coordinates":[6.228466234253106,52.497492624019614]}},{"type":"Feature","properties":{"highway":"bus_stop","public_transport":"platform","name":"Nieuwe Deventerweg","ref:IFOPT":"NL:Q:46004790","_quaycode":"NL:Q:46004790","_town":"Zwolle","_status":"available","_mode":"bus","_direction":130,"_visuallyAccessible":false,"_disabledAccessible":true,"geojson_lng":6.108971781560966,"geojson_lat":52.48994864230779},"geometry":{"type":"Point","coordinates":[6.108971781560966,52.48994864230779]}},{"type":"Feature","properties":{"highway":"bus_stop","public_transport":"platform","name":"Lubeckplein","ref:IFOPT":"NL:Q:46001760","_quaycode":"NL:Q:46001760","_town":"Zwolle","_status":"available","_mode":"bus","_direction":275,"_visuallyAccessible":false,"_disabledAccessible":true,"geojson_lng":6.0910819320372,"geojson_lat":52.503771316026},"geometry":{"type":"Point","coordinates":[6.0910819320372,52.503771316026]}},{"type":"Feature","properties":{"highway":"bus_stop","public_transport":"platform","name":"Melissepad","ref:IFOPT":"NL:Q:47132850","_quaycode":"NL:Q:47132850","_town":"Zwolle","_status":"available","_mode":"bus","_direction":120,"_visuallyAccessible":false,"_disabledAccessible":true,"geojson_lng":6.045035815515845,"geojson_lat":52.51821805412691},"geometry":{"type":"Point","coordinates":[6.045035815515845,52.51821805412691]}},{"type":"Feature","properties":{"highway":"bus_stop","public_transport":"platform","name":"Hasselterpand","ref:IFOPT":"NL:Q:46302160","_quaycode":"NL:Q:46302160","_town":"Hasselt","_status":"available","_mode":"bus","_direction":326,"_visuallyAccessible":false,"_disabledAccessible":false,"geojson_lng":6.128733025823133,"geojson_lat":52.58565220687067},"geometry":{"type":"Point","coordinates":[6.128733025823133,52.58565220687067]}},{"type":"Feature","properties":{"highway":"bus_stop","public_transport":"platform","name":"Petuniaplein","ref:IFOPT":"NL:Q:47132750","_quaycode":"NL:Q:47132750","_town":"Zwolle","_status":"available","_mode":"bus","_direction":216,"_visuallyAccessible":true,"_disabledAccessible":false,"geojson_lng":6.048192804874174,"geojson_lat":52.521445006168385},"geometry":{"type":"Point","coordinates":[6.048192804874174,52.521445006168385]}},{"type":"Feature","properties":{"highway":"bus_stop","public_transport":"platform","name":"Bedrijvenpark Hessenpoort","ref:IFOPT":"NL:Q:46120060","_quaycode":"NL:Q:46120060","_town":"Zwolle","_status":"available","_mode":"bus","_direction":98,"_visuallyAccessible":false,"_disabledAccessible":true,"geojson_lng":6.167703346338183,"geojson_lat":52.53070411015522},"geometry":{"type":"Point","coordinates":[6.167703346338183,52.53070411015522]}},{"type":"Feature","properties":{"highway":"bus_stop","public_transport":"platform","name":"Vechterstrand","ref:IFOPT":"NL:Q:46120430","_quaycode":"NL:Q:46120430","_town":"Genne","_status":"available","_mode":"bus","_direction":55,"_visuallyAccessible":false,"_disabledAccessible":true,"geojson_lng":6.150058929730758,"geojson_lat":52.53389263738333},"geometry":{"type":"Point","coordinates":[6.150058929730758,52.53389263738333]}},{"type":"Feature","properties":{"highway":"bus_stop","public_transport":"platform","name":"WZC Rosengaerde","ref:IFOPT":"NL:Q:46311200","_quaycode":"NL:Q:46311200","_town":"Dalfsen","_status":"available","_mode":"bus","_direction":180,"_visuallyAccessible":false,"_disabledAccessible":false,"geojson_lng":6.258590798173925,"geojson_lat":52.50616398118151},"geometry":{"type":"Point","coordinates":[6.258590798173925,52.50616398118151]}},{"type":"Feature","properties":{"highway":"bus_stop","public_transport":"platform","name":"Veronicaweg","ref:IFOPT":"NL:Q:47132620","_quaycode":"NL:Q:47132620","_town":"Zwolle","_status":"available","_mode":"bus","_direction":273,"_visuallyAccessible":false,"_disabledAccessible":true,"geojson_lng":6.05505912709342,"geojson_lat":52.521460470896},"geometry":{"type":"Point","coordinates":[6.05505912709342,52.521460470896]}},{"type":"Feature","properties":{"highway":"bus_stop","public_transport":"platform","name":"Station","ref:IFOPT":"NL:Q:46004022","_quaycode":"NL:Q:46004022","_town":"Zwolle","_status":"available","_mode":"bus","_direction":130,"_visuallyAccessible":false,"_disabledAccessible":true,"geojson_lng":6.091573938861492,"geojson_lat":52.50414587428385},"geometry":{"type":"Point","coordinates":[6.091573938861492,52.50414587428385]}},{"type":"Feature","properties":{"highway":"bus_stop","public_transport":"platform","name":"Bandijklaan","ref:IFOPT":"NL:Q:25770240","_quaycode":"NL:Q:25770240","_town":"Zwolle","_status":"available","_mode":"bus","_direction":55,"_visuallyAccessible":false,"_disabledAccessible":true,"geojson_lng":6.064348040110434,"geojson_lat":52.524760164039385},"geometry":{"type":"Point","coordinates":[6.064348040110434,52.524760164039385]}},{"type":"Feature","properties":{"highway":"bus_stop","public_transport":"platform","name":"Station","ref:IFOPT":"NL:Q:46004025","_quaycode":"NL:Q:46004025","_town":"Zwolle","_status":"available","_mode":"bus","_direction":310,"_visuallyAccessible":false,"_disabledAccessible":true,"geojson_lng":6.092274807378424,"geojson_lat":52.503764229609686},"geometry":{"type":"Point","coordinates":[6.092274807378424,52.503764229609686]}},{"type":"Feature","properties":{"highway":"bus_stop","public_transport":"platform","name":"Hasselterweg","ref:IFOPT":"NL:Q:47130010","_quaycode":"NL:Q:47130010","_town":"Zwolle","_status":"available","_mode":"bus","_direction":276,"_visuallyAccessible":false,"_disabledAccessible":false,"geojson_lng":6.050328574432323,"geojson_lat":52.52728397107853},"geometry":{"type":"Point","coordinates":[6.050328574432323,52.52728397107853]}},{"type":"Feature","properties":{"highway":"bus_stop","public_transport":"platform","name":"Maaslaan","ref:IFOPT":"NL:Q:46001110","_quaycode":"NL:Q:46001110","_town":"Zwolle","_status":"available","_mode":"bus","_direction":261,"_visuallyAccessible":false,"_disabledAccessible":false,"geojson_lng":6.107348454998419,"geojson_lat":52.53577732798831},"geometry":{"type":"Point","coordinates":[6.107348454998419,52.53577732798831]}},{"type":"Feature","properties":{"highway":"bus_stop","public_transport":"platform","name":"Gernerslag","ref:IFOPT":"NL:Q:46311150","_quaycode":"NL:Q:46311150","_town":"Ankum","_status":"available","_mode":"bus","_direction":250,"_visuallyAccessible":false,"_disabledAccessible":false,"geojson_lng":6.275169448399637,"geojson_lat":52.529274364192055},"geometry":{"type":"Point","coordinates":[6.275169448399637,52.529274364192055]}},{"type":"Feature","properties":{"highway":"bus_stop","public_transport":"platform","name":"Westeinde","ref:IFOPT":"NL:Q:16780180","_quaycode":"NL:Q:16780180","_town":"Nieuwleusen","_status":"available","_mode":"bus","_direction":253,"_visuallyAccessible":false,"_disabledAccessible":false,"geojson_lng":6.285849397604084,"geojson_lat":52.57102272351302},"geometry":{"type":"Point","coordinates":[6.285849397604084,52.57102272351302]}},{"type":"Feature","properties":{"highway":"bus_stop","public_transport":"platform","name":"Meeleweg","ref:IFOPT":"NL:Q:16380150","_quaycode":"NL:Q:16380150","_town":"Lichtmis","_status":"available","_mode":"bus","_direction":213,"_visuallyAccessible":true,"_disabledAccessible":true,"geojson_lng":6.185661450898394,"geojson_lat":52.57104678609632},"geometry":{"type":"Point","coordinates":[6.185661450898394,52.57104678609632]}},{"type":"Feature","properties":{"highway":"bus_stop","public_transport":"platform","name":"Dokter Hengeveldweg","ref:IFOPT":"NL:Q:46000570","_quaycode":"NL:Q:46000570","_town":"Zwolle","_status":"available","_mode":"bus","_direction":78,"_visuallyAccessible":true,"_disabledAccessible":false,"geojson_lng":6.127201727036809,"geojson_lat":52.511163949764494},"geometry":{"type":"Point","coordinates":[6.127201727036809,52.511163949764494]}},{"type":"Feature","properties":{"highway":"bus_stop","public_transport":"platform","name":"Bejaardenhuis","ref:IFOPT":"NL:Q:16180290","_quaycode":"NL:Q:16180290","_town":"Staphorst","_status":"available","_mode":"bus","_direction":124,"_visuallyAccessible":false,"_disabledAccessible":true,"geojson_lng":6.204752460509439,"geojson_lat":52.649135017494494},"geometry":{"type":"Point","coordinates":[6.204752460509439,52.649135017494494]}},{"type":"Feature","properties":{"highway":"bus_stop","public_transport":"platform","name":"Baron van Dedemstraat","ref:IFOPT":"NL:Q:16780080","_quaycode":"NL:Q:16780080","_town":"Nieuwleusen","_status":"available","_mode":"bus","_direction":151,"_visuallyAccessible":true,"_disabledAccessible":true,"geojson_lng":6.281860023975214,"geojson_lat":52.591769353594664},"geometry":{"type":"Point","coordinates":[6.281860023975214,52.591769353594664]}},{"type":"Feature","properties":{"highway":"bus_stop","public_transport":"platform","name":"Goudsmidstraat","ref:IFOPT":"NL:Q:25770075","_quaycode":"NL:Q:25770075","_town":"Zwolle","_status":"available","_mode":"bus","_direction":10,"_visuallyAccessible":false,"_disabledAccessible":true,"geojson_lng":6.06725284978959,"geojson_lat":52.53445008852488},"geometry":{"type":"Point","coordinates":[6.06725284978959,52.53445008852488]}},{"type":"Feature","properties":{"highway":"bus_stop","public_transport":"platform","name":"Deltion Campus","ref:IFOPT":"NL:Q:46004680","_quaycode":"NL:Q:46004680","_town":"Zwolle","_status":"available","_mode":"bus","_direction":149,"_visuallyAccessible":false,"_disabledAccessible":true,"geojson_lng":6.083677557344338,"geojson_lat":52.52082853603937},"geometry":{"type":"Point","coordinates":[6.083677557344338,52.52082853603937]}},{"type":"Feature","properties":{"highway":"bus_stop","public_transport":"platform","name":"Markteweg","ref:IFOPT":"NL:Q:16580050","_quaycode":"NL:Q:16580050","_town":"Zwolle","_status":"available","_mode":"bus","_direction":82,"_visuallyAccessible":false,"_disabledAccessible":false,"geojson_lng":6.181521144487212,"geojson_lat":52.539384327272764},"geometry":{"type":"Point","coordinates":[6.181521144487212,52.539384327272764]}},{"type":"Feature","properties":{"highway":"bus_stop","public_transport":"platform","name":"Troelstralaan","ref:IFOPT":"NL:Q:46000830","_quaycode":"NL:Q:46000830","_town":"Zwolle","_status":"available","_mode":"bus","_direction":132,"_visuallyAccessible":false,"_disabledAccessible":true,"geojson_lng":6.112453177672584,"geojson_lat":52.48676374122513},"geometry":{"type":"Point","coordinates":[6.112453177672584,52.48676374122513]}},{"type":"Feature","properties":{"highway":"bus_stop","public_transport":"platform","name":"Katwolderplein/centrum","ref:IFOPT":"NL:Q:46104021","_quaycode":"NL:Q:46104021","_town":"Zwolle","_status":"available","_mode":"bus","_direction":10,"_visuallyAccessible":false,"_disabledAccessible":false,"geojson_lng":6.086947081931005,"geojson_lat":52.51330466446612},"geometry":{"type":"Point","coordinates":[6.086947081931005,52.51330466446612]}},{"type":"Feature","properties":{"highway":"bus_stop","public_transport":"platform","name":"Paulus Buysstraat","ref:IFOPT":"NL:Q:46001320","_quaycode":"NL:Q:46001320","_town":"Zwolle","_status":"available","_mode":"bus","_direction":180,"_visuallyAccessible":true,"_disabledAccessible":true,"geojson_lng":6.112096849449464,"geojson_lat":52.5206762419234},"geometry":{"type":"Point","coordinates":[6.112096849449464,52.5206762419234]}},{"type":"Feature","properties":{"highway":"bus_stop","public_transport":"platform","name":"Mannagras","ref:IFOPT":"NL:Q:25770020","_quaycode":"NL:Q:25770020","_town":"Zwolle","_status":"available","_mode":"bus","_direction":75,"_visuallyAccessible":true,"_disabledAccessible":true,"geojson_lng":6.05092701490531,"geojson_lat":52.537679184208486},"geometry":{"type":"Point","coordinates":[6.05092701490531,52.537679184208486]}},{"type":"Feature","properties":{"highway":"bus_stop","public_transport":"platform","name":"Assendorperdijk","ref:IFOPT":"NL:Q:46004760","_quaycode":"NL:Q:46004760","_town":"Zwolle","_status":"available","_mode":"bus","_direction":288,"_visuallyAccessible":true,"_disabledAccessible":true,"geojson_lng":6.111008936848095,"geojson_lat":52.50554775242992},"geometry":{"type":"Point","coordinates":[6.111008936848095,52.50554775242992]}},{"type":"Feature","properties":{"highway":"bus_stop","public_transport":"platform","name":"De Ruyterplein","ref:IFOPT":"NL:Q:46004180","_quaycode":"NL:Q:46004180","_town":"Zwolle","_status":"available","_mode":"bus","_direction":122,"_visuallyAccessible":true,"_disabledAccessible":true,"geojson_lng":6.112335828703443,"geojson_lat":52.512801641482746},"geometry":{"type":"Point","coordinates":[6.112335828703443,52.512801641482746]}},{"type":"Feature","properties":{"highway":"bus_stop","public_transport":"platform","name":"Dijkstraat","ref:IFOPT":"NL:Q:46001660","_quaycode":"NL:Q:46001660","_town":"Zwolle","_status":"available","_mode":"bus","_direction":180,"_visuallyAccessible":false,"_disabledAccessible":true,"geojson_lng":6.093380809995384,"geojson_lat":52.514902273792266},"geometry":{"type":"Point","coordinates":[6.093380809995384,52.514902273792266]}},{"type":"Feature","properties":{"highway":"bus_stop","public_transport":"platform","name":"Koggelaan","ref:IFOPT":"NL:Q:46001780","_quaycode":"NL:Q:46001780","_town":"Zwolle","_status":"available","_mode":"bus","_direction":194,"_visuallyAccessible":true,"_disabledAccessible":true,"geojson_lng":6.085727690692718,"geojson_lat":52.50327270697728},"geometry":{"type":"Point","coordinates":[6.085727690692718,52.50327270697728]}},{"type":"Feature","properties":{"highway":"bus_stop","public_transport":"platform","name":"Caspar Fagelstraat","ref:IFOPT":"NL:Q:46001930","_quaycode":"NL:Q:46001930","_town":"Zwolle","_status":"available","_mode":"bus","_direction":57,"_visuallyAccessible":false,"_disabledAccessible":true,"geojson_lng":6.115412132954258,"geojson_lat":52.52247142982223},"geometry":{"type":"Point","coordinates":[6.115412132954258,52.52247142982223]}},{"type":"Feature","properties":{"highway":"bus_stop","public_transport":"platform","name":"Bontekamp","ref:IFOPT":"NL:Q:46310750","_quaycode":"NL:Q:46310750","_town":"Dalfsen","_status":"available","_mode":"bus","_direction":268,"_visuallyAccessible":true,"_disabledAccessible":false,"geojson_lng":6.259382094374684,"geojson_lat":52.52012512949985},"geometry":{"type":"Point","coordinates":[6.259382094374684,52.52012512949985]}},{"type":"Feature","properties":{"highway":"bus_stop","public_transport":"platform","name":"Zuideindigerweg","ref:IFOPT":"NL:Q:16280130","_quaycode":"NL:Q:16280130","_town":"Rouveen","_status":"available","_mode":"bus","_direction":190,"_visuallyAccessible":false,"_disabledAccessible":false,"geojson_lng":6.196075298111483,"geojson_lat":52.601569864189486},"geometry":{"type":"Point","coordinates":[6.196075298111483,52.601569864189486]}},{"type":"Feature","properties":{"highway":"bus_stop","public_transport":"platform","name":"Klimopstraat","ref:IFOPT":"NL:Q:46000230","_quaycode":"NL:Q:46000230","_town":"Zwolle","_status":"available","_mode":"bus","_direction":135,"_visuallyAccessible":true,"_disabledAccessible":true,"geojson_lng":6.106821994425815,"geojson_lat":52.50169057968551},"geometry":{"type":"Point","coordinates":[6.106821994425815,52.50169057968551]}},{"type":"Feature","properties":{"highway":"bus_stop","public_transport":"platform","name":"Station","ref:IFOPT":"NL:Q:46004027","_quaycode":"NL:Q:46004027","_town":"Zwolle","_status":"available","_mode":"bus","_direction":310,"_visuallyAccessible":false,"_disabledAccessible":true,"geojson_lng":6.091483140379672,"geojson_lat":52.50399362419659},"geometry":{"type":"Point","coordinates":[6.091483140379672,52.50399362419659]}},{"type":"Feature","properties":{"highway":"bus_stop","public_transport":"platform","name":"Wkc Diezerpoort","ref:IFOPT":"NL:Q:46005380","_quaycode":"NL:Q:46005380","_town":"Zwolle","_status":"available","_mode":"bus","_direction":143,"_visuallyAccessible":true,"_disabledAccessible":true,"geojson_lng":6.099231212701748,"geojson_lat":52.515927832855844},"geometry":{"type":"Point","coordinates":[6.099231212701748,52.515927832855844]}},{"type":"Feature","properties":{"highway":"bus_stop","public_transport":"platform","name":"Loggerweg","ref:IFOPT":"NL:Q:47132900","_quaycode":"NL:Q:47132900","_town":"Zwolle","_status":"available","_mode":"bus","_direction":116,"_visuallyAccessible":false,"_disabledAccessible":true,"geojson_lng":6.051973108062575,"geojson_lat":52.517109858101},"geometry":{"type":"Point","coordinates":[6.051973108062575,52.517109858101]}},{"type":"Feature","properties":{"highway":"bus_stop","public_transport":"platform","name":"Het Engelse Werk","ref:IFOPT":"NL:Q:46104002","_quaycode":"NL:Q:46104002","_town":"Zwolle","_status":"available","_mode":"bus","_direction":252,"_visuallyAccessible":false,"_disabledAccessible":true,"geojson_lng":6.062267001323657,"geojson_lat":52.498528319149955},"geometry":{"type":"Point","coordinates":[6.062267001323657,52.498528319149955]}},{"type":"Feature","properties":{"highway":"bus_stop","public_transport":"platform","name":"Otterveld","ref:IFOPT":"NL:Q:46003050","_quaycode":"NL:Q:46003050","_town":"Zwolle","_status":"available","_mode":"bus","_direction":333,"_visuallyAccessible":true,"_disabledAccessible":true,"geojson_lng":6.099873300593595,"geojson_lat":52.48999469511311},"geometry":{"type":"Point","coordinates":[6.099873300593595,52.48999469511311]}},{"type":"Feature","properties":{"highway":"bus_stop","public_transport":"platform","name":"Ittersumallee","ref:IFOPT":"NL:Q:46800010","_quaycode":"NL:Q:46800010","_town":"Zwolle","_status":"available","_mode":"bus","_direction":340,"_visuallyAccessible":true,"_disabledAccessible":true,"geojson_lng":6.124950000000001,"geojson_lat":52.494545},"geometry":{"type":"Point","coordinates":[6.124950000000001,52.494545]}},{"type":"Feature","properties":{"highway":"bus_stop","public_transport":"platform","name":"Wkc De Dobbe/Rijnlaan","ref:IFOPT":"NL:Q:46006820","_quaycode":"NL:Q:46006820","_town":"Zwolle","_status":"available","_mode":"bus","_direction":351,"_visuallyAccessible":true,"_disabledAccessible":true,"geojson_lng":6.100566308946007,"geojson_lat":52.53108185578575},"geometry":{"type":"Point","coordinates":[6.100566308946007,52.53108185578575]}},{"type":"Feature","properties":{"highway":"bus_stop","public_transport":"platform","name":"Gemeentehuis","ref:IFOPT":"NL:Q:16180250","_quaycode":"NL:Q:16180250","_town":"Staphorst","_status":"available","_mode":"bus","_direction":120,"_visuallyAccessible":false,"_disabledAccessible":true,"geojson_lng":6.210904087784789,"geojson_lat":52.64463478732354},"geometry":{"type":"Point","coordinates":[6.210904087784789,52.64463478732354]}},{"type":"Feature","properties":{"highway":"bus_stop","public_transport":"platform","name":"Havezatheweg","ref:IFOPT":"NL:Q:46120010","_quaycode":"NL:Q:46120010","_town":"Genne","_status":"available","_mode":"bus","_direction":331,"_visuallyAccessible":false,"_disabledAccessible":false,"geojson_lng":6.127886752389329,"geojson_lat":52.55199027751766},"geometry":{"type":"Point","coordinates":[6.127886752389329,52.55199027751766]}},{"type":"Feature","properties":{"highway":"bus_stop","public_transport":"platform","name":"Campus","ref:IFOPT":"NL:Q:46006450","_quaycode":"NL:Q:46006450","_town":"Zwolle","_status":"available","_mode":"bus","_direction":280,"_visuallyAccessible":false,"_disabledAccessible":true,"geojson_lng":6.07996859858744,"geojson_lat":52.49855204720982},"geometry":{"type":"Point","coordinates":[6.07996859858744,52.49855204720982]}},{"type":"Feature","properties":{"highway":"bus_stop","public_transport":"platform","name":"Klaasboerstraat","ref:IFOPT":"NL:Q:46006190","_quaycode":"NL:Q:46006190","_town":"Zwolle","_status":"available","_mode":"bus","_direction":127,"_visuallyAccessible":false,"_disabledAccessible":true,"geojson_lng":6.100824618204495,"geojson_lat":52.50695761641059},"geometry":{"type":"Point","coordinates":[6.100824618204495,52.50695761641059]}},{"type":"Feature","properties":{"highway":"bus_stop","public_transport":"platform","name":"Hogenkampsweg","ref:IFOPT":"NL:Q:46008410","_quaycode":"NL:Q:46008410","_town":"Zwolle","_status":"available","_mode":"bus","_direction":159,"_visuallyAccessible":true,"_disabledAccessible":true,"geojson_lng":6.105206185149934,"geojson_lat":52.52187755013374},"geometry":{"type":"Point","coordinates":[6.105206185149934,52.52187755013374]}},{"type":"Feature","properties":{"highway":"bus_stop","public_transport":"platform","name":"De Zon","ref:IFOPT":"NL:Q:46110200","_quaycode":"NL:Q:46110200","_town":"Wijthmen","_status":"available","_mode":"bus","_direction":101,"_visuallyAccessible":false,"_disabledAccessible":true,"geojson_lng":6.155880750244467,"geojson_lat":52.48990544712774},"geometry":{"type":"Point","coordinates":[6.155880750244467,52.48990544712774]}},{"type":"Feature","properties":{"highway":"bus_stop","public_transport":"platform","name":"Prinses Beatrixstraat","ref:IFOPT":"NL:Q:16180310","_quaycode":"NL:Q:16180310","_town":"Staphorst","_status":"available","_mode":"bus","_direction":167,"_visuallyAccessible":false,"_disabledAccessible":false,"geojson_lng":6.202622726333657,"geojson_lat":52.65222333892786},"geometry":{"type":"Point","coordinates":[6.202622726333657,52.65222333892786]}},{"type":"Feature","properties":{"highway":"bus_stop","public_transport":"platform","name":"Dennenkamp","ref:IFOPT":"NL:Q:46419005","_quaycode":"NL:Q:46419005","_town":"Dalfsen","_status":"available","_mode":"bus","_direction":180,"_visuallyAccessible":false,"_disabledAccessible":false,"geojson_lng":6.309104211893042,"geojson_lat":52.5325746769708},"geometry":{"type":"Point","coordinates":[6.309104211893042,52.5325746769708]}},{"type":"Feature","properties":{"highway":"bus_stop","public_transport":"platform","name":"Klokkengieterlaan","ref:IFOPT":"NL:Q:25770035","_quaycode":"NL:Q:25770035","_town":"Zwolle","_status":"available","_mode":"bus","_direction":115,"_visuallyAccessible":true,"_disabledAccessible":true,"geojson_lng":6.062657621264918,"geojson_lat":52.53369442395909},"geometry":{"type":"Point","coordinates":[6.062657621264918,52.53369442395909]}},{"type":"Feature","properties":{"highway":"bus_stop","public_transport":"platform","name":"WZC Rosengaerde","ref:IFOPT":"NL:Q:46311190","_quaycode":"NL:Q:46311190","_town":"Dalfsen","_status":"available","_mode":"bus","_direction":0,"_visuallyAccessible":false,"_disabledAccessible":false,"geojson_lng":6.258694597828709,"geojson_lat":52.506199169507575},"geometry":{"type":"Point","coordinates":[6.258694597828709,52.506199169507575]}},{"type":"Feature","properties":{"highway":"bus_stop","public_transport":"platform","name":"Station","ref:IFOPT":"NL:Q:46004021","_quaycode":"NL:Q:46004021","_town":"Zwolle","_status":"available","_mode":"bus","_direction":130,"_visuallyAccessible":false,"_disabledAccessible":true,"geojson_lng":6.091339453530459,"geojson_lat":52.50421916770116},"geometry":{"type":"Point","coordinates":[6.091339453530459,52.50421916770116]}},{"type":"Feature","properties":{"highway":"bus_stop","public_transport":"platform","name":"Diasporalaan","ref:IFOPT":"NL:Q:46000100","_quaycode":"NL:Q:46000100","_town":"Zwolle","_status":"available","_mode":"bus","_direction":298,"_visuallyAccessible":true,"_disabledAccessible":true,"geojson_lng":6.0903965743334645,"geojson_lat":52.49957816642819},"geometry":{"type":"Point","coordinates":[6.0903965743334645,52.49957816642819]}},{"type":"Feature","properties":{"highway":"bus_stop","public_transport":"platform","name":"Centrum","ref:IFOPT":"NL:Q:16780160","_quaycode":"NL:Q:16780160","_town":"Nieuwleusen","_status":"available","_mode":"bus","_direction":254,"_visuallyAccessible":true,"_disabledAccessible":true,"geojson_lng":6.291874828350373,"geojson_lat":52.57280145682653},"geometry":{"type":"Point","coordinates":[6.291874828350373,52.57280145682653]}},{"type":"Feature","properties":{"highway":"bus_stop","public_transport":"platform","name":"De Marslanden","ref:IFOPT":"NL:Q:46110400","_quaycode":"NL:Q:46110400","_town":"Wijthmen","_status":"available","_mode":"bus","_direction":126,"_visuallyAccessible":true,"_disabledAccessible":true,"geojson_lng":6.139669560707019,"geojson_lat":52.49506950324457},"geometry":{"type":"Point","coordinates":[6.139669560707019,52.49506950324457]}},{"type":"Feature","properties":{"highway":"bus_stop","public_transport":"platform","name":"Kloosterman","ref:IFOPT":"NL:Q:46410200","_quaycode":"NL:Q:46410200","_town":"Oudleusen","_status":"available","_mode":"bus","_direction":86,"_visuallyAccessible":false,"_disabledAccessible":true,"geojson_lng":6.29491175043823,"geojson_lat":52.53044615705034},"geometry":{"type":"Point","coordinates":[6.29491175043823,52.53044615705034]}},{"type":"Feature","properties":{"highway":"bus_stop","public_transport":"platform","name":"Klooienberglaan","ref:IFOPT":"NL:Q:46005625","_quaycode":"NL:Q:46005625","_town":"Zwolle","_status":"available","_mode":"bus","_direction":270,"_visuallyAccessible":true,"_disabledAccessible":true,"geojson_lng":6.075542690872411,"geojson_lat":52.52638539398473},"geometry":{"type":"Point","coordinates":[6.075542690872411,52.52638539398473]}},{"type":"Feature","properties":{"highway":"bus_stop","public_transport":"platform","name":"Karveelschipperstraat","ref:IFOPT":"NL:Q:25770050","_quaycode":"NL:Q:25770050","_town":"Zwolle","_status":"available","_mode":"bus","_direction":110,"_visuallyAccessible":false,"_disabledAccessible":true,"geojson_lng":6.065123533934559,"geojson_lat":52.53783259557218},"geometry":{"type":"Point","coordinates":[6.065123533934559,52.53783259557218]}},{"type":"Feature","properties":{"highway":"bus_stop","public_transport":"platform","name":"Steenwetering","ref:IFOPT":"NL:Q:16380120","_quaycode":"NL:Q:16380120","_town":"Lichtmis","_status":"available","_mode":"bus","_direction":33,"_visuallyAccessible":true,"_disabledAccessible":true,"geojson_lng":6.176350475865344,"geojson_lat":52.55686375446437},"geometry":{"type":"Point","coordinates":[6.176350475865344,52.55686375446437]}},{"type":"Feature","properties":{"highway":"bus_stop","public_transport":"platform","name":"Grote Markt","ref:IFOPT":"NL:Q:16780310","_quaycode":"NL:Q:16780310","_town":"Nieuwleusen","_status":"available","_mode":"bus","_direction":332,"_visuallyAccessible":false,"_disabledAccessible":false,"geojson_lng":6.291905451620311,"geojson_lat":52.57429317545804},"geometry":{"type":"Point","coordinates":[6.291905451620311,52.57429317545804]}},{"type":"Feature","properties":{"highway":"bus_stop","public_transport":"platform","name":"Kievitsbloem","ref:IFOPT":"NL:Q:46311500","_quaycode":"NL:Q:46311500","_town":"Dalfsen","_status":"available","_mode":"bus","_direction":330,"_visuallyAccessible":false,"_disabledAccessible":true,"geojson_lng":6.252678197577484,"geojson_lat":52.51411649762831},"geometry":{"type":"Point","coordinates":[6.252678197577484,52.51411649762831]}},{"type":"Feature","properties":{"highway":"bus_stop","public_transport":"platform","name":"Thomas a Kempisstraat","ref:IFOPT":"NL:Q:46001360","_quaycode":"NL:Q:46001360","_town":"Zwolle","_status":"available","_mode":"bus","_direction":317,"_visuallyAccessible":true,"_disabledAccessible":true,"geojson_lng":6.106290870356357,"geojson_lat":52.51700869251435},"geometry":{"type":"Point","coordinates":[6.106290870356357,52.51700869251435]}},{"type":"Feature","properties":{"highway":"bus_stop","public_transport":"platform","name":"Bellinistraat","ref:IFOPT":"NL:Q:46005590","_quaycode":"NL:Q:46005590","_town":"Zwolle","_status":"available","_mode":"bus","_direction":265,"_visuallyAccessible":true,"_disabledAccessible":true,"geojson_lng":6.08109473298481,"geojson_lat":52.52992110704236},"geometry":{"type":"Point","coordinates":[6.08109473298481,52.52992110704236]}},{"type":"Feature","properties":{"highway":"bus_stop","public_transport":"platform","name":"Stadsweg","ref:IFOPT":"NL:Q:16280140","_quaycode":"NL:Q:16280140","_town":"Rouveen","_status":"available","_mode":"bus","_direction":329,"_visuallyAccessible":false,"_disabledAccessible":false,"geojson_lng":6.194608110773883,"geojson_lat":52.60769134453929},"geometry":{"type":"Point","coordinates":[6.194608110773883,52.60769134453929]}},{"type":"Feature","properties":{"highway":"bus_stop","public_transport":"platform","name":"Zwolseweg","ref:IFOPT":"NL:Q:47130030","_quaycode":"NL:Q:47130030","_town":"Zwolle","_status":"available","_mode":"bus","_direction":293,"_visuallyAccessible":false,"_disabledAccessible":true,"geojson_lng":6.0344096277289925,"geojson_lat":52.53002320455014},"geometry":{"type":"Point","coordinates":[6.0344096277289925,52.53002320455014]}},{"type":"Feature","properties":{"highway":"bus_stop","public_transport":"platform","name":"Oude Rijksweg 485","ref:IFOPT":"NL:Q:16280170","_quaycode":"NL:Q:16280170","_town":"Rouveen","_status":"available","_mode":"bus","_direction":127,"_visuallyAccessible":false,"_disabledAccessible":true,"geojson_lng":6.189485142127736,"geojson_lat":52.612543344447495},"geometry":{"type":"Point","coordinates":[6.189485142127736,52.612543344447495]}},{"type":"Feature","properties":{"highway":"bus_stop","public_transport":"platform","name":"Belvederelaan","ref:IFOPT":"NL:Q:46100060","_quaycode":"NL:Q:46100060","_town":"Zwolle","_status":"available","_mode":"bus","_direction":101,"_visuallyAccessible":false,"_disabledAccessible":true,"geojson_lng":6.053774395152842,"geojson_lat":52.530050793458685},"geometry":{"type":"Point","coordinates":[6.053774395152842,52.530050793458685]}},{"type":"Feature","properties":{"highway":"bus_stop","public_transport":"platform","name":"Diasporalaan","ref:IFOPT":"NL:Q:46000070","_quaycode":"NL:Q:46000070","_town":"Zwolle","_status":"available","_mode":"bus","_direction":118,"_visuallyAccessible":true,"_disabledAccessible":true,"geojson_lng":6.090454045183307,"geojson_lat":52.4994879494195},"geometry":{"type":"Point","coordinates":[6.090454045183307,52.4994879494195]}},{"type":"Feature","properties":{"highway":"bus_stop","public_transport":"platform","name":"Middenweg","ref:IFOPT":"NL:Q:16680090","_quaycode":"NL:Q:16680090","_town":"Ruitenveen","_status":"available","_mode":"bus","_direction":75,"_visuallyAccessible":false,"_disabledAccessible":false,"geojson_lng":6.221206001299653,"geojson_lat":52.55362707549692},"geometry":{"type":"Point","coordinates":[6.221206001299653,52.55362707549692]}},{"type":"Feature","properties":{"highway":"bus_stop","public_transport":"platform","name":"Eekwal/Centrum","ref:IFOPT":"NL:Q:46000550","_quaycode":"NL:Q:46000550","_town":"Zwolle","_status":"available","_mode":"bus","_direction":120,"_visuallyAccessible":true,"_disabledAccessible":true,"geojson_lng":6.089643972330267,"geojson_lat":52.51059244485457},"geometry":{"type":"Point","coordinates":[6.089643972330267,52.51059244485457]}},{"type":"Feature","properties":{"highway":"bus_stop","public_transport":"platform","name":"Kerkbrugje","ref:IFOPT":"NL:Q:46001990","_quaycode":"NL:Q:46001990","_town":"Zwolle","_status":"available","_mode":"bus","_direction":49,"_visuallyAccessible":true,"_disabledAccessible":true,"geojson_lng":6.098611625060981,"geojson_lat":52.512219673565895},"geometry":{"type":"Point","coordinates":[6.098611625060981,52.512219673565895]}},{"type":"Feature","properties":{"highway":"bus_stop","public_transport":"platform","name":"Frankhuizerallee","ref:IFOPT":"NL:Q:46100010","_quaycode":"NL:Q:46100010","_town":"Zwolle","_status":"available","_mode":"bus","_direction":299,"_visuallyAccessible":false,"_disabledAccessible":true,"geojson_lng":6.059256121747955,"geojson_lat":52.52808754728983},"geometry":{"type":"Point","coordinates":[6.059256121747955,52.52808754728983]}},{"type":"Feature","properties":{"highway":"bus_stop","public_transport":"platform","name":"Burgemeester Roelenweg","ref:IFOPT":"NL:Q:46006540","_quaycode":"NL:Q:46006540","_town":"Zwolle","_status":"available","_mode":"bus","_direction":288,"_visuallyAccessible":true,"_disabledAccessible":true,"geojson_lng":6.086479149802473,"geojson_lat":52.51724398572268},"geometry":{"type":"Point","coordinates":[6.086479149802473,52.51724398572268]}},{"type":"Feature","properties":{"highway":"bus_stop","public_transport":"platform","name":"Brekken","ref:IFOPT":"NL:Q:46000040","_quaycode":"NL:Q:46000040","_town":"Zwolle","_status":"available","_mode":"bus","_direction":335,"_visuallyAccessible":true,"_disabledAccessible":true,"geojson_lng":6.093307817278789,"geojson_lat":52.53336317954102},"geometry":{"type":"Point","coordinates":[6.093307817278789,52.53336317954102]}},{"type":"Feature","properties":{"highway":"bus_stop","public_transport":"platform","name":"Jan Arendsland","ref:IFOPT":"NL:Q:16180150","_quaycode":"NL:Q:16180150","_town":"Staphorst","_status":"available","_mode":"bus","_direction":241,"_visuallyAccessible":false,"_disabledAccessible":false,"geojson_lng":6.200329738687082,"geojson_lat":52.64250568048063},"geometry":{"type":"Point","coordinates":[6.200329738687082,52.64250568048063]}},{"type":"Feature","properties":{"highway":"bus_stop","public_transport":"platform","name":"Zwembad/Landstede","ref:IFOPT":"NL:Q:46010030","_quaycode":"NL:Q:46010030","_town":"Zwolle","_status":"available","_mode":"bus","_direction":341,"_visuallyAccessible":false,"_disabledAccessible":false,"geojson_lng":6.124760956208774,"geojson_lat":52.52377978547811},"geometry":{"type":"Point","coordinates":[6.124760956208774,52.52377978547811]}},{"type":"Feature","properties":{"highway":"bus_stop","public_transport":"platform","name":"Oranje Nassaulaan","ref:IFOPT":"NL:Q:46104003","_quaycode":"NL:Q:46104003","_town":"Zwolle","_status":"available","_mode":"bus","_direction":71,"_visuallyAccessible":true,"_disabledAccessible":true,"geojson_lng":6.077844348694903,"geojson_lat":52.505853384206894},"geometry":{"type":"Point","coordinates":[6.077844348694903,52.505853384206894]}},{"type":"Feature","properties":{"highway":"bus_stop","public_transport":"platform","name":"Lubeckplein","ref:IFOPT":"NL:Q:46001730","_quaycode":"NL:Q:46001730","_town":"Zwolle","_status":"available","_mode":"bus","_direction":94,"_visuallyAccessible":false,"_disabledAccessible":true,"geojson_lng":6.0894030697014285,"geojson_lat":52.5037812691791},"geometry":{"type":"Point","coordinates":[6.0894030697014285,52.5037812691791]}},{"type":"Feature","properties":{"highway":"bus_stop","public_transport":"platform","name":"Koelmansstraat","ref:IFOPT":"NL:Q:46200030","_quaycode":"NL:Q:46200030","_town":"Lenthe","_status":"available","_mode":"bus","_direction":311,"_visuallyAccessible":false,"_disabledAccessible":true,"geojson_lng":6.188024493008751,"geojson_lat":52.479681736240664},"geometry":{"type":"Point","coordinates":[6.188024493008751,52.479681736240664]}},{"type":"Feature","properties":{"highway":"bus_stop","public_transport":"platform","name":"Paulus Buysstraat","ref:IFOPT":"NL:Q:46001910","_quaycode":"NL:Q:46001910","_town":"Zwolle","_status":"available","_mode":"bus","_direction":342,"_visuallyAccessible":false,"_disabledAccessible":true,"geojson_lng":6.11306110865438,"geojson_lat":52.5210747870773},"geometry":{"type":"Point","coordinates":[6.11306110865438,52.5210747870773]}},{"type":"Feature","properties":{"highway":"bus_stop","public_transport":"platform","name":"Conradsweg","ref:IFOPT":"NL:Q:16280250","_quaycode":"NL:Q:16280250","_town":"Rouveen","_status":"available","_mode":"bus","_direction":196,"_visuallyAccessible":false,"_disabledAccessible":false,"geojson_lng":6.182647567317862,"geojson_lat":52.62716697258055},"geometry":{"type":"Point","coordinates":[6.182647567317862,52.62716697258055]}},{"type":"Feature","properties":{"highway":"bus_stop","public_transport":"platform","name":"Isala ziekenhuis","ref:IFOPT":"NL:Q:46001560","_quaycode":"NL:Q:46001560","_town":"Zwolle","_status":"available","_mode":"bus","_direction":90,"_visuallyAccessible":true,"_disabledAccessible":false,"geojson_lng":6.124806220591867,"geojson_lat":52.514144787204465},"geometry":{"type":"Point","coordinates":[6.124806220591867,52.514144787204465]}},{"type":"Feature","properties":{"highway":"bus_stop","public_transport":"platform","name":"De Stokte","ref:IFOPT":"NL:Q:46419004","_quaycode":"NL:Q:46419004","_town":"Oudleusen","_status":"available","_mode":"bus","_direction":80,"_visuallyAccessible":false,"_disabledAccessible":false,"geojson_lng":6.305190000000004,"geojson_lat":52.531009999999995},"geometry":{"type":"Point","coordinates":[6.305190000000004,52.531009999999995]}},{"type":"Feature","properties":{"highway":"bus_stop","public_transport":"platform","name":"Hanzelanden Oost","ref:IFOPT":"NL:Q:46004721","_quaycode":"NL:Q:46004721","_town":"Zwolle","_status":"available","_mode":"bus","_direction":111,"_visuallyAccessible":true,"_disabledAccessible":true,"geojson_lng":6.0965496388629274,"geojson_lat":52.5021569154341},"geometry":{"type":"Point","coordinates":[6.0965496388629274,52.5021569154341]}},{"type":"Feature","properties":{"highway":"bus_stop","public_transport":"platform","name":"Zwolseweg","ref:IFOPT":"NL:Q:47130040","_quaycode":"NL:Q:47130040","_town":"Zwolle","_status":"available","_mode":"bus","_direction":124,"_visuallyAccessible":false,"_disabledAccessible":true,"geojson_lng":6.033116827486425,"geojson_lat":52.53029987562795},"geometry":{"type":"Point","coordinates":[6.033116827486425,52.53029987562795]}},{"type":"Feature","properties":{"highway":"bus_stop","public_transport":"platform","name":"Tesselschadestraat","ref:IFOPT":"NL:Q:46004270","_quaycode":"NL:Q:46004270","_town":"Zwolle","_status":"available","_mode":"bus","_direction":290,"_visuallyAccessible":true,"_disabledAccessible":false,"geojson_lng":6.118182371991739,"geojson_lat":52.514473398852935},"geometry":{"type":"Point","coordinates":[6.118182371991739,52.514473398852935]}},{"type":"Feature","properties":{"highway":"bus_stop","public_transport":"platform","name":"Molen","ref:IFOPT":"NL:Q:16780190","_quaycode":"NL:Q:16780190","_town":"Nieuwleusen","_status":"available","_mode":"bus","_direction":76,"_visuallyAccessible":false,"_disabledAccessible":false,"geojson_lng":6.268889230964326,"geojson_lat":52.566035921534336},"geometry":{"type":"Point","coordinates":[6.268889230964326,52.566035921534336]}},{"type":"Feature","properties":{"highway":"bus_stop","public_transport":"platform","name":"Cafe Restaurant Madrid","ref:IFOPT":"NL:Q:46050020","_quaycode":"NL:Q:46050020","_town":"Hessum","_status":"available","_mode":"bus","_direction":245,"_visuallyAccessible":false,"_disabledAccessible":false,"geojson_lng":6.3207288484576045,"geojson_lat":52.503830650106735},"geometry":{"type":"Point","coordinates":[6.3207288484576045,52.503830650106735]}},{"type":"Feature","properties":{"highway":"bus_stop","public_transport":"platform","name":"Hazenveld","ref:IFOPT":"NL:Q:46003170","_quaycode":"NL:Q:46003170","_town":"Zwolle","_status":"available","_mode":"bus","_direction":138,"_visuallyAccessible":false,"_disabledAccessible":true,"geojson_lng":6.097623309337867,"geojson_lat":52.49291120633126},"geometry":{"type":"Point","coordinates":[6.097623309337867,52.49291120633126]}},{"type":"Feature","properties":{"highway":"bus_stop","public_transport":"platform","name":"Gernerslag","ref:IFOPT":"NL:Q:46410100","_quaycode":"NL:Q:46410100","_town":"Ankum","_status":"available","_mode":"bus","_direction":86,"_visuallyAccessible":false,"_disabledAccessible":false,"geojson_lng":6.277410410888634,"geojson_lat":52.52932048433703},"geometry":{"type":"Point","coordinates":[6.277410410888634,52.52932048433703]}},{"type":"Feature","properties":{"highway":"bus_stop","public_transport":"platform","name":"Hndellaan","ref:IFOPT":"NL:Q:46000050","_quaycode":"NL:Q:46000050","_town":"Zwolle","_status":"available","_mode":"bus","_direction":87,"_visuallyAccessible":false,"_disabledAccessible":true,"geojson_lng":6.083943255146997,"geojson_lat":52.52459276590226},"geometry":{"type":"Point","coordinates":[6.083943255146997,52.52459276590226]}},{"type":"Feature","properties":{"highway":"bus_stop","public_transport":"platform","name":"Langkamp","ref:IFOPT":"NL:Q:46311170","_quaycode":"NL:Q:46311170","_town":"Dalfsen","_status":"available","_mode":"bus","_direction":0,"_visuallyAccessible":false,"_disabledAccessible":false,"geojson_lng":6.259321714682752,"geojson_lat":52.51557777620662},"geometry":{"type":"Point","coordinates":[6.259321714682752,52.51557777620662]}},{"type":"Feature","properties":{"highway":"bus_stop","public_transport":"platform","name":"Reggersweg","ref:IFOPT":"NL:Q:16180070","_quaycode":"NL:Q:16180070","_town":"Staphorst","_status":"available","_mode":"bus","_direction":249,"_visuallyAccessible":false,"_disabledAccessible":false,"geojson_lng":6.2219031910081215,"geojson_lat":52.65118179012039},"geometry":{"type":"Point","coordinates":[6.2219031910081215,52.65118179012039]}},{"type":"Feature","properties":{"highway":"bus_stop","public_transport":"platform","name":"Kerkbrugje","ref:IFOPT":"NL:Q:46002000","_quaycode":"NL:Q:46002000","_town":"Zwolle","_status":"available","_mode":"bus","_direction":230,"_visuallyAccessible":true,"_disabledAccessible":true,"geojson_lng":6.0986576967268995,"geojson_lat":52.51233623600211},"geometry":{"type":"Point","coordinates":[6.0986576967268995,52.51233623600211]}},{"type":"Feature","properties":{"highway":"bus_stop","public_transport":"platform","name":"Wkc Forelkolk","ref:IFOPT":"NL:Q:46003120","_quaycode":"NL:Q:46003120","_town":"Zwolle","_status":"available","_mode":"bus","_direction":308,"_visuallyAccessible":false,"_disabledAccessible":true,"geojson_lng":6.093552472656512,"geojson_lat":52.49708781294592},"geometry":{"type":"Point","coordinates":[6.093552472656512,52.49708781294592]}},{"type":"Feature","properties":{"highway":"bus_stop","public_transport":"platform","name":"Voorsterpoort","ref:IFOPT":"NL:Q:46104027","_quaycode":"NL:Q:46104027","_town":"Zwolle","_status":"available","_mode":"bus","_direction":45,"_visuallyAccessible":true,"_disabledAccessible":true,"geojson_lng":6.065347155961121,"geojson_lat":52.51114729026445},"geometry":{"type":"Point","coordinates":[6.065347155961121,52.51114729026445]}},{"type":"Feature","properties":{"highway":"bus_stop","public_transport":"platform","name":"Isala ziekenhuis","ref:IFOPT":"NL:Q:46006255","_quaycode":"NL:Q:46006255","_town":"Zwolle","_status":"available","_mode":"bus","_direction":267,"_visuallyAccessible":false,"_disabledAccessible":false,"geojson_lng":6.124041298542465,"geojson_lat":52.51421245503108},"geometry":{"type":"Point","coordinates":[6.124041298542465,52.51421245503108]}},{"type":"Feature","properties":{"highway":"bus_stop","public_transport":"platform","name":"Assendorperdijk","ref:IFOPT":"NL:Q:46001100","_quaycode":"NL:Q:46001100","_town":"Zwolle","_status":"available","_mode":"bus","_direction":108,"_visuallyAccessible":true,"_disabledAccessible":true,"geojson_lng":6.110874033776117,"geojson_lat":52.505404773744026},"geometry":{"type":"Point","coordinates":[6.110874033776117,52.505404773744026]}},{"type":"Feature","properties":{"highway":"bus_stop","public_transport":"platform","name":"Breecamp","ref:IFOPT":"NL:Q:46100330","_quaycode":"NL:Q:46100330","_town":"Zwolle","_status":"available","_mode":"bus","_direction":7,"_visuallyAccessible":true,"_disabledAccessible":true,"geojson_lng":6.032748308247794,"geojson_lat":52.54338767577699},"geometry":{"type":"Point","coordinates":[6.032748308247794,52.54338767577699]}},{"type":"Feature","properties":{"highway":"bus_stop","public_transport":"platform","name":"Noorderpark","ref:IFOPT":"NL:Q:46330010","_quaycode":"NL:Q:46330010","_town":"Nieuwleusen","_status":"available","_mode":"bus","_direction":340,"_visuallyAccessible":false,"_disabledAccessible":false,"geojson_lng":6.28519513863511,"geojson_lat":52.58669313800227},"geometry":{"type":"Point","coordinates":[6.28519513863511,52.58669313800227]}},{"type":"Feature","properties":{"highway":"bus_stop","public_transport":"platform","name":"Middenweg","ref:IFOPT":"NL:Q:16680100","_quaycode":"NL:Q:16680100","_town":"Ruitenveen","_status":"available","_mode":"bus","_direction":256,"_visuallyAccessible":false,"_disabledAccessible":false,"geojson_lng":6.220348522136267,"geojson_lat":52.55350727117024},"geometry":{"type":"Point","coordinates":[6.220348522136267,52.55350727117024]}},{"type":"Feature","properties":{"highway":"bus_stop","public_transport":"platform","name":"Rodetorenplein","ref:IFOPT":"NL:Q:46001630","_quaycode":"NL:Q:46001630","_town":"Zwolle","_status":"available","_mode":"bus","_direction":25,"_visuallyAccessible":true,"_disabledAccessible":false,"geojson_lng":6.089318047184675,"geojson_lat":52.51325470214206},"geometry":{"type":"Point","coordinates":[6.089318047184675,52.51325470214206]}},{"type":"Feature","properties":{"highway":"bus_stop","public_transport":"platform","name":"Hazenveld","ref:IFOPT":"NL:Q:46003180","_quaycode":"NL:Q:46003180","_town":"Zwolle","_status":"available","_mode":"bus","_direction":317,"_visuallyAccessible":false,"_disabledAccessible":true,"geojson_lng":6.097480556652522,"geojson_lat":52.49319067833267},"geometry":{"type":"Point","coordinates":[6.097480556652522,52.49319067833267]}},{"type":"Feature","properties":{"highway":"bus_stop","public_transport":"platform","name":"De Trefkoele","ref:IFOPT":"NL:Q:46310620","_quaycode":"NL:Q:46310620","_town":"Dalfsen","_status":"available","_mode":"bus","_direction":90,"_visuallyAccessible":false,"_disabledAccessible":false,"geojson_lng":6.254213074374281,"geojson_lat":52.51125617221645},"geometry":{"type":"Point","coordinates":[6.254213074374281,52.51125617221645]}},{"type":"Feature","properties":{"highway":"bus_stop","public_transport":"platform","name":"Grote Markt","ref:IFOPT":"NL:Q:16780300","_quaycode":"NL:Q:16780300","_town":"Nieuwleusen","_status":"available","_mode":"bus","_direction":152,"_visuallyAccessible":false,"_disabledAccessible":false,"geojson_lng":6.291743019106291,"geojson_lat":52.57428542545171},"geometry":{"type":"Point","coordinates":[6.291743019106291,52.57428542545171]}},{"type":"Feature","properties":{"highway":"bus_stop","public_transport":"platform","name":"Van Hasseltmarke","ref:IFOPT":"NL:Q:46000150","_quaycode":"NL:Q:46000150","_town":"Zwolle","_status":"available","_mode":"bus","_direction":209,"_visuallyAccessible":true,"_disabledAccessible":true,"geojson_lng":6.105070129033273,"geojson_lat":52.48089479549884},"geometry":{"type":"Point","coordinates":[6.105070129033273,52.48089479549884]}},{"type":"Feature","properties":{"highway":"bus_stop","public_transport":"platform","name":"Koningin Wilhelminastraat","ref:IFOPT":"NL:Q:46104006","_quaycode":"NL:Q:46104006","_town":"Zwolle","_status":"available","_mode":"bus","_direction":250,"_visuallyAccessible":false,"_disabledAccessible":true,"geojson_lng":6.079862947768117,"geojson_lat":52.506839234257576},"geometry":{"type":"Point","coordinates":[6.079862947768117,52.506839234257576]}},{"type":"Feature","properties":{"highway":"bus_stop","public_transport":"platform","name":"Den Hulst","ref:IFOPT":"NL:Q:16780060","_quaycode":"NL:Q:16780060","_town":"Nieuwleusen","_status":"available","_mode":"bus","_direction":273,"_visuallyAccessible":false,"_disabledAccessible":true,"geojson_lng":6.282530241400027,"geojson_lat":52.59206988152819},"geometry":{"type":"Point","coordinates":[6.282530241400027,52.59206988152819]}},{"type":"Feature","properties":{"highway":"bus_stop","public_transport":"platform","name":"Jan Arendsland","ref:IFOPT":"NL:Q:16180140","_quaycode":"NL:Q:16180140","_town":"Staphorst","_status":"available","_mode":"bus","_direction":60,"_visuallyAccessible":false,"_disabledAccessible":false,"geojson_lng":6.200552330509848,"geojson_lat":52.64255808196826},"geometry":{"type":"Point","coordinates":[6.200552330509848,52.64255808196826]}},{"type":"Feature","properties":{"highway":"bus_stop","public_transport":"platform","name":"De Vlijt","ref:IFOPT":"NL:Q:16780020","_quaycode":"NL:Q:16780020","_town":"Nieuwleusen","_status":"available","_mode":"bus","_direction":267,"_visuallyAccessible":false,"_disabledAccessible":true,"geojson_lng":6.314986755284577,"geojson_lat":52.592234186539265},"geometry":{"type":"Point","coordinates":[6.314986755284577,52.592234186539265]}},{"type":"Feature","properties":{"highway":"bus_stop","public_transport":"platform","name":"Dokter Hengeveldweg","ref:IFOPT":"NL:Q:46001542","_quaycode":"NL:Q:46001542","_town":"Zwolle","_status":"available","_mode":"bus","_direction":256,"_visuallyAccessible":true,"_disabledAccessible":false,"geojson_lng":6.126789459147394,"geojson_lat":52.511175508972826},"geometry":{"type":"Point","coordinates":[6.126789459147394,52.511175508972826]}},{"type":"Feature","properties":{"highway":"bus_stop","public_transport":"platform","name":"Twistvlietbrug","ref:IFOPT":"NL:Q:46100030","_quaycode":"NL:Q:46100030","_town":"Zwolle","_status":"available","_mode":"bus","_direction":0,"_visuallyAccessible":false,"_disabledAccessible":false,"geojson_lng":6.0681635005699395,"geojson_lat":52.526607732850415},"geometry":{"type":"Point","coordinates":[6.0681635005699395,52.526607732850415]}},{"type":"Feature","properties":{"highway":"bus_stop","public_transport":"platform","name":"Troelstralaan","ref:IFOPT":"NL:Q:46000860","_quaycode":"NL:Q:46000860","_town":"Zwolle","_status":"available","_mode":"bus","_direction":307,"_visuallyAccessible":false,"_disabledAccessible":true,"geojson_lng":6.113034050598162,"geojson_lat":52.48627485252671},"geometry":{"type":"Point","coordinates":[6.113034050598162,52.48627485252671]}},{"type":"Feature","properties":{"highway":"bus_stop","public_transport":"platform","name":"Wkc Diezerpoort","ref:IFOPT":"NL:Q:46005370","_quaycode":"NL:Q:46005370","_town":"Zwolle","_status":"available","_mode":"bus","_direction":321,"_visuallyAccessible":false,"_disabledAccessible":true,"geojson_lng":6.09955572737311,"geojson_lat":52.51595284708964},"geometry":{"type":"Point","coordinates":[6.09955572737311,52.51595284708964]}},{"type":"Feature","properties":{"highway":"bus_stop","public_transport":"platform","name":"Westeinde","ref:IFOPT":"NL:Q:16580030","_quaycode":"NL:Q:16580030","_town":"Zwolle","_status":"available","_mode":"bus","_direction":61,"_visuallyAccessible":false,"_disabledAccessible":false,"geojson_lng":6.189215670550438,"geojson_lat":52.54182214057936},"geometry":{"type":"Point","coordinates":[6.189215670550438,52.54182214057936]}},{"type":"Feature","properties":{"highway":"bus_stop","public_transport":"platform","name":"Volkerak","ref:IFOPT":"NL:Q:46008330","_quaycode":"NL:Q:46008330","_town":"Zwolle","_status":"available","_mode":"bus","_direction":263,"_visuallyAccessible":true,"_disabledAccessible":true,"geojson_lng":6.106802685833647,"geojson_lat":52.53123293206656},"geometry":{"type":"Point","coordinates":[6.106802685833647,52.53123293206656]}},{"type":"Feature","properties":{"highway":"bus_stop","public_transport":"platform","name":"De Vlijt","ref:IFOPT":"NL:Q:16780010","_quaycode":"NL:Q:16780010","_town":"Nieuwleusen","_status":"available","_mode":"bus","_direction":86,"_visuallyAccessible":false,"_disabledAccessible":true,"geojson_lng":6.31739421908214,"geojson_lat":52.592323206083215},"geometry":{"type":"Point","coordinates":[6.31739421908214,52.592323206083215]}},{"type":"Feature","properties":{"highway":"bus_stop","public_transport":"platform","name":"Karveelschipperstraat","ref:IFOPT":"NL:Q:25770055","_quaycode":"NL:Q:25770055","_town":"Zwolle","_status":"available","_mode":"bus","_direction":285,"_visuallyAccessible":true,"_disabledAccessible":true,"geojson_lng":6.064699711905498,"geojson_lat":52.53806869186181},"geometry":{"type":"Point","coordinates":[6.064699711905498,52.53806869186181]}},{"type":"Feature","properties":{"highway":"bus_stop","public_transport":"platform","name":"Polhaarweg","ref:IFOPT":"NL:Q:46311100","_quaycode":"NL:Q:46311100","_town":"Dalfsen","_status":"available","_mode":"bus","_direction":179,"_visuallyAccessible":false,"_disabledAccessible":true,"geojson_lng":6.2538839333210765,"geojson_lat":52.51700174582233},"geometry":{"type":"Point","coordinates":[6.2538839333210765,52.51700174582233]}},{"type":"Feature","properties":{"highway":"bus_stop","public_transport":"platform","name":"Wkc Stadshagen","ref:IFOPT":"NL:Q:46100090","_quaycode":"NL:Q:46100090","_town":"Zwolle","_status":"available","_mode":"bus","_direction":330,"_visuallyAccessible":true,"_disabledAccessible":true,"geojson_lng":6.054027007421076,"geojson_lat":52.533114119403784},"geometry":{"type":"Point","coordinates":[6.054027007421076,52.533114119403784]}},{"type":"Feature","properties":{"highway":"bus_stop","public_transport":"platform","name":"Lindenlaan","ref:IFOPT":"NL:Q:16180260","_quaycode":"NL:Q:16180260","_town":"Staphorst","_status":"available","_mode":"bus","_direction":304,"_visuallyAccessible":false,"_disabledAccessible":false,"geojson_lng":6.206794856221572,"geojson_lat":52.647718916085225},"geometry":{"type":"Point","coordinates":[6.206794856221572,52.647718916085225]}},{"type":"Feature","properties":{"highway":"bus_stop","public_transport":"platform","name":"Nieuwe Deventerweg/KWS","ref:IFOPT":"NL:Q:46003900","_quaycode":"NL:Q:46003900","_town":"Zwolle","_status":"available","_mode":"bus","_direction":132,"_visuallyAccessible":true,"_disabledAccessible":true,"geojson_lng":6.115339583585469,"geojson_lat":52.484130637442824},"geometry":{"type":"Point","coordinates":[6.115339583585469,52.484130637442824]}},{"type":"Feature","properties":{"highway":"bus_stop","public_transport":"platform","name":"Oosterhulst","ref:IFOPT":"NL:Q:16780040","_quaycode":"NL:Q:16780040","_town":"Nieuwleusen","_status":"available","_mode":"bus","_direction":272,"_visuallyAccessible":false,"_disabledAccessible":true,"geojson_lng":6.298350716085223,"geojson_lat":52.591347384942026},"geometry":{"type":"Point","coordinates":[6.298350716085223,52.591347384942026]}},{"type":"Feature","properties":{"highway":"bus_stop","public_transport":"platform","name":"Oostermenneweg","ref:IFOPT":"NL:Q:16280100","_quaycode":"NL:Q:16280100","_town":"Rouveen","_status":"available","_mode":"bus","_direction":5,"_visuallyAccessible":false,"_disabledAccessible":false,"geojson_lng":6.194569527694168,"geojson_lat":52.595926965812836},"geometry":{"type":"Point","coordinates":[6.194569527694168,52.595926965812836]}},{"type":"Feature","properties":{"highway":"bus_stop","public_transport":"platform","name":"Bergkloosterweg","ref:IFOPT":"NL:Q:46120140","_quaycode":"NL:Q:46120140","_town":"Zwolle","_status":"available","_mode":"bus","_direction":264,"_visuallyAccessible":true,"_disabledAccessible":false,"geojson_lng":6.137755213934622,"geojson_lat":52.527994357448854},"geometry":{"type":"Point","coordinates":[6.137755213934622,52.527994357448854]}},{"type":"Feature","properties":{"highway":"bus_stop","public_transport":"platform","name":"Oosterhulst","ref:IFOPT":"NL:Q:16780030","_quaycode":"NL:Q:16780030","_town":"Nieuwleusen","_status":"available","_mode":"bus","_direction":73,"_visuallyAccessible":false,"_disabledAccessible":true,"geojson_lng":6.300843091421599,"geojson_lat":52.591265322957206},"geometry":{"type":"Point","coordinates":[6.300843091421599,52.591265322957206]}},{"type":"Feature","properties":{"highway":"bus_stop","public_transport":"platform","name":"Geerligsland","ref:IFOPT":"NL:Q:16180120","_quaycode":"NL:Q:16180120","_town":"Staphorst","_status":"available","_mode":"bus","_direction":130,"_visuallyAccessible":false,"_disabledAccessible":false,"geojson_lng":6.1974172203446924,"geojson_lat":52.64079998577064},"geometry":{"type":"Point","coordinates":[6.1974172203446924,52.64079998577064]}},{"type":"Feature","properties":{"highway":"bus_stop","public_transport":"platform","name":"Van Hasseltmarke","ref:IFOPT":"NL:Q:46000160","_quaycode":"NL:Q:46000160","_town":"Zwolle","_status":"available","_mode":"bus","_direction":26,"_visuallyAccessible":true,"_disabledAccessible":true,"geojson_lng":6.104809394954065,"geojson_lat":52.48024926207587},"geometry":{"type":"Point","coordinates":[6.104809394954065,52.48024926207587]}},{"type":"Feature","properties":{"highway":"bus_stop","public_transport":"platform","name":"IJsselbrug","ref:IFOPT":"NL:Q:47155009","_quaycode":"NL:Q:47155009","_town":"Hattem","_status":"available","_mode":"bus","_direction":61,"_visuallyAccessible":false,"_disabledAccessible":true,"geojson_lng":6.052997949842069,"geojson_lat":52.49519240439007},"geometry":{"type":"Point","coordinates":[6.052997949842069,52.49519240439007]}},{"type":"Feature","properties":{"highway":"bus_stop","public_transport":"platform","name":"Bentheimstraat","ref:IFOPT":"NL:Q:46120100","_quaycode":"NL:Q:46120100","_town":"Zwolle","_status":"available","_mode":"bus","_direction":249,"_visuallyAccessible":false,"_disabledAccessible":true,"geojson_lng":6.162249457766537,"geojson_lat":52.534838217142365},"geometry":{"type":"Point","coordinates":[6.162249457766537,52.534838217142365]}},{"type":"Feature","properties":{"highway":"bus_stop","public_transport":"platform","name":"Twistvlietbrug","ref:IFOPT":"NL:Q:46100020","_quaycode":"NL:Q:46100020","_town":"Zwolle","_status":"available","_mode":"bus","_direction":87,"_visuallyAccessible":false,"_disabledAccessible":false,"geojson_lng":6.0684294158389545,"geojson_lat":52.52665114386064},"geometry":{"type":"Point","coordinates":[6.0684294158389545,52.52665114386064]}},{"type":"Feature","properties":{"highway":"bus_stop","public_transport":"platform","name":"Herenweg","ref:IFOPT":"NL:Q:46004210","_quaycode":"NL:Q:46004210","_town":"Zwolle","_status":"available","_mode":"bus","_direction":44,"_visuallyAccessible":true,"_disabledAccessible":true,"geojson_lng":6.118619616993374,"geojson_lat":52.50974321660622},"geometry":{"type":"Point","coordinates":[6.118619616993374,52.50974321660622]}},{"type":"Feature","properties":{"highway":"bus_stop","public_transport":"platform","name":"Pieter Zandt College","ref:IFOPT":"NL:Q:16180340","_quaycode":"NL:Q:16180340","_town":"Staphorst","_status":"available","_mode":"bus","_direction":300,"_visuallyAccessible":false,"_disabledAccessible":false,"geojson_lng":6.212541232356205,"geojson_lat":52.634242937816985},"geometry":{"type":"Point","coordinates":[6.212541232356205,52.634242937816985]}},{"type":"Feature","properties":{"highway":"bus_stop","public_transport":"platform","name":"Russenweg","ref:IFOPT":"NL:Q:46100110","_quaycode":"NL:Q:46100110","_town":"Zwolle","_status":"available","_mode":"bus","_direction":0,"_visuallyAccessible":false,"_disabledAccessible":false,"geojson_lng":6.069722055066422,"geojson_lat":52.51209285248977},"geometry":{"type":"Point","coordinates":[6.069722055066422,52.51209285248977]}},{"type":"Feature","properties":{"highway":"bus_stop","public_transport":"platform","name":"Bachlaan","ref:IFOPT":"NL:Q:46005860","_quaycode":"NL:Q:46005860","_town":"Zwolle","_status":"available","_mode":"bus","_direction":265,"_visuallyAccessible":true,"_disabledAccessible":true,"geojson_lng":6.090384122273721,"geojson_lat":52.527466732114306},"geometry":{"type":"Point","coordinates":[6.090384122273721,52.527466732114306]}},{"type":"Feature","properties":{"highway":"bus_stop","public_transport":"platform","name":"Pleijendal","ref:IFOPT":"NL:Q:46310500","_quaycode":"NL:Q:46310500","_town":"Dalfsen","_status":"available","_mode":"bus","_direction":11,"_visuallyAccessible":false,"_disabledAccessible":true,"geojson_lng":6.254098123892413,"geojson_lat":52.506151967967526},"geometry":{"type":"Point","coordinates":[6.254098123892413,52.506151967967526]}},{"type":"Feature","properties":{"highway":"bus_stop","public_transport":"platform","name":"Dedemsweg","ref:IFOPT":"NL:Q:16680020","_quaycode":"NL:Q:16680020","_town":"Ruitenveen","_status":"available","_mode":"bus","_direction":255,"_visuallyAccessible":false,"_disabledAccessible":true,"geojson_lng":6.259714489387778,"geojson_lat":52.5637669228111},"geometry":{"type":"Point","coordinates":[6.259714489387778,52.5637669228111]}},{"type":"Feature","properties":{"highway":"bus_stop","public_transport":"platform","name":"Westeinde","ref:IFOPT":"NL:Q:16580040","_quaycode":"NL:Q:16580040","_town":"Zwolle","_status":"available","_mode":"bus","_direction":241,"_visuallyAccessible":false,"_disabledAccessible":false,"geojson_lng":6.188503287214099,"geojson_lat":52.541557324677996},"geometry":{"type":"Point","coordinates":[6.188503287214099,52.541557324677996]}},{"type":"Feature","properties":{"highway":"bus_stop","public_transport":"platform","name":"Zuster van de Kolkstraat","ref:IFOPT":"NL:Q:46001020","_quaycode":"NL:Q:46001020","_town":"Zwolle","_status":"available","_mode":"bus","_direction":297,"_visuallyAccessible":true,"_disabledAccessible":true,"geojson_lng":6.104104621944667,"geojson_lat":52.49759969226074},"geometry":{"type":"Point","coordinates":[6.104104621944667,52.49759969226074]}},{"type":"Feature","properties":{"highway":"bus_stop","public_transport":"platform","name":"Achthoevenweg","ref:IFOPT":"NL:Q:16180180","_quaycode":"NL:Q:16180180","_town":"Staphorst","_status":"available","_mode":"bus","_direction":59,"_visuallyAccessible":false,"_disabledAccessible":false,"geojson_lng":6.208500551587279,"geojson_lat":52.638566929046036},"geometry":{"type":"Point","coordinates":[6.208500551587279,52.638566929046036]}},{"type":"Feature","properties":{"highway":"bus_stop","public_transport":"platform","name":"Oranje Nassaulaan","ref:IFOPT":"NL:Q:46104004","_quaycode":"NL:Q:46104004","_town":"Zwolle","_status":"available","_mode":"bus","_direction":249,"_visuallyAccessible":true,"_disabledAccessible":true,"geojson_lng":6.075936219293077,"geojson_lat":52.50533421335376},"geometry":{"type":"Point","coordinates":[6.075936219293077,52.50533421335376]}},{"type":"Feature","properties":{"highway":"bus_stop","public_transport":"platform","name":"Kleefstraat","ref:IFOPT":"NL:Q:16580080","_quaycode":"NL:Q:16580080","_town":"Zwolle","_status":"available","_mode":"bus","_direction":254,"_visuallyAccessible":false,"_disabledAccessible":true,"geojson_lng":6.1693909366063595,"geojson_lat":52.53694837923836},"geometry":{"type":"Point","coordinates":[6.1693909366063595,52.53694837923836]}},{"type":"Feature","properties":{"highway":"bus_stop","public_transport":"platform","name":"Dashorstweg","ref:IFOPT":"NL:Q:46120500","_quaycode":"NL:Q:46120500","_town":"Genne","_status":"available","_mode":"bus","_direction":117,"_visuallyAccessible":false,"_disabledAccessible":false,"geojson_lng":6.1355603538645225,"geojson_lat":52.54455436453641},"geometry":{"type":"Point","coordinates":[6.1355603538645225,52.54455436453641]}},{"type":"Feature","properties":{"highway":"bus_stop","public_transport":"platform","name":"Kasteel Rechteren","ref:IFOPT":"NL:Q:46040020","_quaycode":"NL:Q:46040020","_town":"Dalfsen","_status":"available","_mode":"bus","_direction":255,"_visuallyAccessible":false,"_disabledAccessible":false,"geojson_lng":6.290925022196082,"geojson_lat":52.496970135100206},"geometry":{"type":"Point","coordinates":[6.290925022196082,52.496970135100206]}},{"type":"Feature","properties":{"highway":"bus_stop","public_transport":"platform","name":"Blaloweg/Rieteweg","ref:IFOPT":"NL:Q:46006600","_quaycode":"NL:Q:46006600","_town":"Zwolle","_status":"available","_mode":"bus","_direction":210,"_visuallyAccessible":false,"_disabledAccessible":false,"geojson_lng":6.075655378142078,"geojson_lat":52.51660627295403},"geometry":{"type":"Point","coordinates":[6.075655378142078,52.51660627295403]}},{"type":"Feature","properties":{"highway":"bus_stop","public_transport":"platform","name":"Vlakkenweg","ref:IFOPT":"NL:Q:16180110","_quaycode":"NL:Q:16180110","_town":"Staphorst","_status":"available","_mode":"bus","_direction":252,"_visuallyAccessible":false,"_disabledAccessible":false,"geojson_lng":6.1932405920947895,"geojson_lat":52.63862646675488},"geometry":{"type":"Point","coordinates":[6.1932405920947895,52.63862646675488]}},{"type":"Feature","properties":{"highway":"bus_stop","public_transport":"platform","name":"Zwarteweg","ref:IFOPT":"NL:Q:46001040","_quaycode":"NL:Q:46001040","_town":"Zwolle","_status":"available","_mode":"bus","_direction":331,"_visuallyAccessible":true,"_disabledAccessible":true,"geojson_lng":6.104977636072046,"geojson_lat":52.49332528250085},"geometry":{"type":"Point","coordinates":[6.104977636072046,52.49332528250085]}},{"type":"Feature","properties":{"highway":"bus_stop","public_transport":"platform","name":"Pleijendal","ref:IFOPT":"NL:Q:46310350","_quaycode":"NL:Q:46310350","_town":"Dalfsen","_status":"available","_mode":"bus","_direction":194,"_visuallyAccessible":false,"_disabledAccessible":true,"geojson_lng":6.254067081772103,"geojson_lat":52.50607130503908},"geometry":{"type":"Point","coordinates":[6.254067081772103,52.50607130503908]}},{"type":"Feature","properties":{"highway":"bus_stop","public_transport":"platform","name":"Gemeenteweg","ref:IFOPT":"NL:Q:16000280","_quaycode":"NL:Q:16000280","_town":"Halfweg","_status":"available","_mode":"bus","_direction":68,"_visuallyAccessible":false,"_disabledAccessible":false,"geojson_lng":6.261230273794513,"geojson_lat":52.6662137463559},"geometry":{"type":"Point","coordinates":[6.261230273794513,52.6662137463559]}},{"type":"Feature","properties":{"highway":"bus_stop","public_transport":"platform","name":"Hazelaarlaan","ref:IFOPT":"NL:Q:46124590","_quaycode":"NL:Q:46124590","_town":"Zwolle","_status":"available","_mode":"bus","_direction":315,"_visuallyAccessible":true,"_disabledAccessible":false,"geojson_lng":6.1318307529087015,"geojson_lat":52.52272900609585},"geometry":{"type":"Point","coordinates":[6.1318307529087015,52.52272900609585]}},{"type":"Feature","properties":{"highway":"bus_stop","public_transport":"platform","name":"De Stokte","ref:IFOPT":"NL:Q:46419003","_quaycode":"NL:Q:46419003","_town":"Oudleusen","_status":"available","_mode":"bus","_direction":255,"_visuallyAccessible":false,"_disabledAccessible":false,"geojson_lng":6.305189000000002,"geojson_lat":52.53106299999999},"geometry":{"type":"Point","coordinates":[6.305189000000002,52.53106299999999]}},