{"type":"FeatureCollection","features":[{"type":"Feature","properties":{"highway":"bus_stop","public_transport":"platform","name":"Annen Zuid","ref:IFOPT":"NL:Q:12120940","_quaycode":"NL:Q:12120940","_town":"Annen","_status":"available","_mode":"bus","_direction":359,"_visuallyAccessible":false,"_disabledAccessible":false,"geojson_lng":6.722761816837929,"geojson_lat":53.05176219281097},"geometry":{"type":"Point","coordinates":[6.722761816837929,53.05176219281097]}},{"type":"Feature","properties":{"highway":"bus_stop","public_transport":"platform","name":"Oprit N34","ref:IFOPT":"NL:Q:12126010","_quaycode":"NL:Q:12126010","_town":"Annen","_status":"available","_mode":"bus","_direction":318,"_visuallyAccessible":false,"_disabledAccessible":false,"geojson_lng":6.714518723586281,"geojson_lat":53.04850174501684},"geometry":{"type":"Point","coordinates":[6.714518723586281,53.04850174501684]}},{"type":"Feature","properties":{"highway":"bus_stop","public_transport":"platform","name":"P+R Annen","ref:IFOPT":"NL:Q:12125210","_quaycode":"NL:Q:12125210","_town":"Annen","_status":"available","_mode":"bus","_direction":250,"_visuallyAccessible":false,"_disabledAccessible":false,"geojson_lng":6.712414396512364,"geojson_lat":53.048453174088735},"geometry":{"type":"Point","coordinates":[6.712414396512364,53.048453174088735]}},{"type":"Feature","properties":{"highway":"bus_stop","public_transport":"platform","name":"Bosweg","ref:IFOPT":"NL:Q:12125310","_quaycode":"NL:Q:12125310","_town":"Anloo","_status":"available","_mode":"bus","_direction":250,"_visuallyAccessible":false,"_disabledAccessible":false,"geojson_lng":6.706307882305526,"geojson_lat":53.04626489437137},"geometry":{"type":"Point","coordinates":[6.706307882305526,53.04626489437137]}},{"type":"Feature","properties":{"highway":"bus_stop","public_transport":"platform","name":"Rotonde","ref:IFOPT":"NL:Q:12120930","_quaycode":"NL:Q:12120930","_town":"Annen","_status":"available","_mode":"bus","_direction":72,"_visuallyAccessible":false,"_disabledAccessible":false,"geojson_lng":6.722148103348925,"geojson_lat":53.05168817190846},"geometry":{"type":"Point","coordinates":[6.722148103348925,53.05168817190846]}},{"type":"Feature","properties":{"highway":"bus_stop","public_transport":"platform","name":"Bosweg","ref:IFOPT":"NL:Q:12125320","_quaycode":"NL:Q:12125320","_town":"Anloo","_status":"available","_mode":"bus","_direction":70,"_visuallyAccessible":false,"_disabledAccessible":true,"geojson_lng":6.706486778557971,"geojson_lat":53.04626292185807},"geometry":{"type":"Point","coordinates":[6.706486778557971,53.04626292185807]}},{"type":"Feature","properties":{"highway":"bus_stop","public_transport":"platform","name":"Rotonde","ref:IFOPT":"NL:Q:12120920","_quaycode":"NL:Q:12120920","_town":"Annen","_status":"available","_mode":"bus","_direction":251,"_visuallyAccessible":false,"_disabledAccessible":false,"geojson_lng":6.722238666499134,"geojson_lat":53.05172310989828},"geometry":{"type":"Point","coordinates":[6.722238666499134,53.05172310989828]}},{"type":"Feature","properties":{"highway":"bus_stop","public_transport":"platform","name":"P+R Annen","ref:IFOPT":"NL:Q:12125220","_quaycode":"NL:Q:12125220","_town":"Annen","_status":"available","_mode":"bus","_direction":70,"_visuallyAccessible":false,"_disabledAccessible":false,"geojson_lng":6.712095011856068,"geojson_lat":53.04825000796303},"geometry":{"type":"Point","coordinates":[6.712095011856068,53.04825000796303]}},{"type":"Feature","properties":{"highway":"bus_stop","public_transport":"platform","name":"Oprit N34","ref:IFOPT":"NL:Q:12126020","_quaycode":"NL:Q:12126020","_town":"Annen","_status":"available","_mode":"bus","_direction":126,"_visuallyAccessible":false,"_disabledAccessible":false,"geojson_lng":6.71335868388082,"geojson_lat":53.04811917602819},"geometry":{"type":"Point","coordinates":[6.71335868388082,53.04811917602819]}}]}