{"type":"FeatureCollection","features":[{"type":"Feature","properties":{"SeqNo":"584528","Type":"S","DHID":"de:05374:41883","Parent":"de:05374:41883","Name":"Radevormwald Bergerhof Niedernfeld","MunicipalityCode":"05374036","Municipality":"Radevormwald","DistrictCode":"","District":"","Description":"","Authority":"VRR","DelfiName":"-","THID":"D914FE00A39B","LastOperationDate":"2025-06-14T00:00:00","SEV":"nein","longitude":"7,310642","latitude":"51,20013","geojson_lng":7.310642,"geojson_lat":51.20013},"geometry":{"type":"Point","coordinates":[7.310642,51.20013]}},{"type":"Feature","properties":{"SeqNo":"584529","Type":"A","DHID":"de:05374:41883:2","Parent":"de:05374:41883","Name":"Niedernfeld","MunicipalityCode":"00000000","Municipality":"-","DistrictCode":"-","District":"-","Description":"","Authority":"VRR","DelfiName":"-","THID":"-","LastOperationDate":"","SEV":"nein","longitude":"7,311711","latitude":"51,200316","geojson_lng":7.311711,"geojson_lat":51.200316},"geometry":{"type":"Point","coordinates":[7.311711,51.200316]}},{"type":"Feature","properties":{"SeqNo":"584530","Type":"Q","DHID":"de:05374:41883:2:21","Parent":"de:05374:41883:2","Name":"","MunicipalityCode":"00000000","Municipality":"-","DistrictCode":"-","District":"-","Description":"","Authority":"VRR","DelfiName":"-","THID":"-","LastOperationDate":"","SEV":"nein","longitude":"7,311738","latitude":"51,200197","geojson_lng":7.311738,"geojson_lat":51.200197},"geometry":{"type":"Point","coordinates":[7.311738,51.200197]}},{"type":"Feature","properties":{"SeqNo":"584531","Type":"Q","DHID":"de:05374:41883:2:22","Parent":"de:05374:41883:2","Name":"","MunicipalityCode":"00000000","Municipality":"-","DistrictCode":"-","District":"-","Description":"","Authority":"VRR","DelfiName":"-","THID":"-","LastOperationDate":"","SEV":"nein","longitude":"7,309708","latitude":"51,200023","geojson_lng":7.309708,"geojson_lat":51.200023},"geometry":{"type":"Point","coordinates":[7.309708,51.200023]}},{"type":"Feature","properties":{"SeqNo":"584590","Type":"S","DHID":"de:05374:41942","Parent":"de:05374:41942","Name":"Radevormwald Herbeck Oberdahlhausen","MunicipalityCode":"05374036","Municipality":"Radevormwald","DistrictCode":"","District":"","Description":"","Authority":"VRR","DelfiName":"-","THID":"D914FE00A3D6","LastOperationDate":"2025-06-14T00:00:00","SEV":"nein","longitude":"7,316967","latitude":"51,204965","geojson_lng":7.316967,"geojson_lat":51.204965},"geometry":{"type":"Point","coordinates":[7.316967,51.204965]}},{"type":"Feature","properties":{"SeqNo":"584591","Type":"A","DHID":"de:05374:41942:2","Parent":"de:05374:41942","Name":"Oberdahlhausen","MunicipalityCode":"00000000","Municipality":"-","DistrictCode":"-","District":"-","Description":"","Authority":"VRR","DelfiName":"-","THID":"-","LastOperationDate":"","SEV":"nein","longitude":"7,317003","latitude":"51,204768","geojson_lng":7.317003,"geojson_lat":51.204768},"geometry":{"type":"Point","coordinates":[7.317003,51.204768]}}]}