{"type":"FeatureCollection","features":[{"type":"Feature","properties":{"SeqNo":"430738","Type":"S","DHID":"de:06433:14227","Parent":"de:06433:14227","Name":"Mörfelden-Walldorf-Walldorf Alpenring","MunicipalityCode":"06433008","Municipality":"Mörfelden-Walldorf","DistrictCode":"-","District":"-","Description":"","Authority":"rms","DelfiName":"-","THID":"D91921003793","LastOperationDate":"2025-06-14T00:00:00","SEV":"nein","longitude":"8,564457","latitude":"49,995933","geojson_lng":8.564457,"geojson_lat":49.995933},"geometry":{"type":"Point","coordinates":[8.564457,49.995933]}},{"type":"Feature","properties":{"SeqNo":"430739","Type":"A","DHID":"de:06433:14227:1","Parent":"de:06433:14227","Name":"Walldorf Alpenring | NMörfelden","MunicipalityCode":"00000000","Municipality":"-","DistrictCode":"-","District":"-","Description":"","Authority":"rms","DelfiName":"-","THID":"-","LastOperationDate":"","SEV":"nein","longitude":"8,564414","latitude":"49,996023","geojson_lng":8.564414,"geojson_lat":49.996023},"geometry":{"type":"Point","coordinates":[8.564414,49.996023]}},{"type":"Feature","properties":{"SeqNo":"430740","Type":"A","DHID":"de:06433:14227:2","Parent":"de:06433:14227","Name":"Walldorf Alpenring | NFlughafen","MunicipalityCode":"00000000","Municipality":"-","DistrictCode":"-","District":"-","Description":"","Authority":"rms","DelfiName":"-","THID":"-","LastOperationDate":"","SEV":"nein","longitude":"8,564389","latitude":"49,995699","geojson_lng":8.564389,"geojson_lat":49.995699},"geometry":{"type":"Point","coordinates":[8.564389,49.995699]}},{"type":"Feature","properties":{"SeqNo":"430741","Type":"Q","DHID":"de:06433:14227:1:1","Parent":"de:06433:14227:1","Name":"NMörfelden","MunicipalityCode":"00000000","Municipality":"-","DistrictCode":"-","District":"-","Description":"","Authority":"rms","DelfiName":"-","THID":"-","LastOperationDate":"","SEV":"nein","longitude":"8,564414","latitude":"49,996023","geojson_lng":8.564414,"geojson_lat":49.996023},"geometry":{"type":"Point","coordinates":[8.564414,49.996023]}},{"type":"Feature","properties":{"SeqNo":"430742","Type":"Q","DHID":"de:06433:14227:2:2","Parent":"de:06433:14227:2","Name":"NFlughafen","MunicipalityCode":"00000000","Municipality":"-","DistrictCode":"-","District":"-","Description":"","Authority":"rms","DelfiName":"-","THID":"-","LastOperationDate":"","SEV":"nein","longitude":"8,564389","latitude":"49,995699","geojson_lng":8.564389,"geojson_lat":49.995699},"geometry":{"type":"Point","coordinates":[8.564389,49.995699]}},{"type":"Feature","properties":{"SeqNo":"431740","Type":"S","DHID":"de:06433:2809","Parent":"de:06433:2809","Name":"Mörfelden-Walldorf-Walldorf Vitrolles-Ring","MunicipalityCode":"06433008","Municipality":"Mörfelden-Walldorf","DistrictCode":"-","District":"-","Description":"","Authority":"rms","DelfiName":"-","THID":"D91921000AF9","LastOperationDate":"2025-06-14T00:00:00","SEV":"nein","longitude":"8,566018","latitude":"49,999059","geojson_lng":8.566018,"geojson_lat":49.999059},"geometry":{"type":"Point","coordinates":[8.566018,49.999059]}},{"type":"Feature","properties":{"SeqNo":"431741","Type":"A","DHID":"de:06433:2809:1","Parent":"de:06433:2809","Name":"Walldorf Vitrolles-Ring | NMörfelden","MunicipalityCode":"00000000","Municipality":"-","DistrictCode":"-","District":"-","Description":"","Authority":"rms","DelfiName":"-","THID":"-","LastOperationDate":"","SEV":"nein","longitude":"8,565977","latitude":"49,99905","geojson_lng":8.565977,"geojson_lat":49.99905},"geometry":{"type":"Point","coordinates":[8.565977,49.99905]}},{"type":"Feature","properties":{"SeqNo":"431742","Type":"A","DHID":"de:06433:2809:2","Parent":"de:06433:2809","Name":"Walldorf Vitrolles-Ring | NFlughafen","MunicipalityCode":"00000000","Municipality":"-","DistrictCode":"-","District":"-","Description":"","Authority":"rms","DelfiName":"-","THID":"-","LastOperationDate":"","SEV":"nein","longitude":"8,56602","latitude":"49,998897","geojson_lng":8.56602,"geojson_lat":49.998897},"geometry":{"type":"Point","coordinates":[8.56602,49.998897]}},{"type":"Feature","properties":{"SeqNo":"431743","Type":"Q","DHID":"de:06433:2809:1:1","Parent":"de:06433:2809:1","Name":"NMörfelden","MunicipalityCode":"00000000","Municipality":"-","DistrictCode":"-","District":"-","Description":"","Authority":"rms","DelfiName":"-","THID":"-","LastOperationDate":"","SEV":"nein","longitude":"8,565977","latitude":"49,99905","geojson_lng":8.565977,"geojson_lat":49.99905},"geometry":{"type":"Point","coordinates":[8.565977,49.99905]}},{"type":"Feature","properties":{"SeqNo":"431744","Type":"Q","DHID":"de:06433:2809:2:2","Parent":"de:06433:2809:2","Name":"NFlughafen","MunicipalityCode":"00000000","Municipality":"-","DistrictCode":"-","District":"-","Description":"","Authority":"rms","DelfiName":"-","THID":"-","LastOperationDate":"","SEV":"nein","longitude":"8,56602","latitude":"49,998897","geojson_lng":8.56602,"geojson_lat":49.998897},"geometry":{"type":"Point","coordinates":[8.56602,49.998897]}}]}