{"type":"FeatureCollection","features":[{"type":"Feature","properties":{"SeqNo":"218107","Type":"S","DHID":"de:09573:5077","Parent":"de:09573:5077","Name":"Egersdorf","MunicipalityCode":"09573114","Municipality":"Cadolzburg","DistrictCode":"","District":"","Description":"","Authority":"BEG","DelfiName":"-","THID":"D925650013D5","LastOperationDate":"2025-06-14T00:00:00","SEV":"nein","longitude":"10,887384","latitude":"49,46464","geojson_lng":10.887384,"geojson_lat":49.46464},"geometry":{"type":"Point","coordinates":[10.887384,49.46464]}},{"type":"Feature","properties":{"SeqNo":"218109","Type":"A","DHID":"de:09573:5077:90","Parent":"de:09573:5077","Name":"Eingang Ost","MunicipalityCode":"00000000","Municipality":"-","DistrictCode":"-","District":"-","Description":"","Authority":"BEG","DelfiName":"-","THID":"-","LastOperationDate":"","SEV":"nein","longitude":"10,887617","latitude":"49,464564","geojson_lng":10.887617,"geojson_lat":49.464564},"geometry":{"type":"Point","coordinates":[10.887617,49.464564]}},{"type":"Feature","properties":{"SeqNo":"218114","Type":"S","DHID":"de:09573:5079","Parent":"de:09573:5079","Name":"Egersdorf Waldsiedlung","MunicipalityCode":"09573114","Municipality":"Cadolzburg","DistrictCode":"","District":"","Description":"","Authority":"BEG","DelfiName":"-","THID":"D925650013D7","LastOperationDate":"2025-06-13T00:00:00","SEV":"nein","longitude":"10,889135","latitude":"49,46795","geojson_lng":10.889135,"geojson_lat":49.46795},"geometry":{"type":"Point","coordinates":[10.889135,49.46795]}},{"type":"Feature","properties":{"SeqNo":"218115","Type":"Q","DHID":"de:09573:5079:0:1","Parent":"de:09573:5079","Name":"1","MunicipalityCode":"00000000","Municipality":"-","DistrictCode":"-","District":"-","Description":"","Authority":"BEG","DelfiName":"-","THID":"-","LastOperationDate":"","SEV":"nein","longitude":"10,88901","latitude":"49,468032","geojson_lng":10.88901,"geojson_lat":49.468032},"geometry":{"type":"Point","coordinates":[10.88901,49.468032]}},{"type":"Feature","properties":{"SeqNo":"218116","Type":"Q","DHID":"de:09573:5079:0:2","Parent":"de:09573:5079","Name":"2","MunicipalityCode":"00000000","Municipality":"-","DistrictCode":"-","District":"-","Description":"","Authority":"BEG","DelfiName":"-","THID":"-","LastOperationDate":"","SEV":"nein","longitude":"10,889279","latitude":"49,46788","geojson_lng":10.889279,"geojson_lat":49.46788},"geometry":{"type":"Point","coordinates":[10.889279,49.46788]}},{"type":"Feature","properties":{"SeqNo":"218159","Type":"S","DHID":"de:09573:5098","Parent":"de:09573:5098","Name":"Wachendorf Mehrzweckhalle","MunicipalityCode":"09573114","Municipality":"Cadolzburg","DistrictCode":"","District":"","Description":"","Authority":"BEG","DelfiName":"-","THID":"D925650013EA","LastOperationDate":"2025-06-13T00:00:00","SEV":"nein","longitude":"10,894992","latitude":"49,4614","geojson_lng":10.894992,"geojson_lat":49.4614},"geometry":{"type":"Point","coordinates":[10.894992,49.4614]}},{"type":"Feature","properties":{"SeqNo":"218160","Type":"Q","DHID":"de:09573:5098:0:1","Parent":"de:09573:5098","Name":"1","MunicipalityCode":"00000000","Municipality":"-","DistrictCode":"-","District":"-","Description":"","Authority":"BEG","DelfiName":"-","THID":"-","LastOperationDate":"","SEV":"nein","longitude":"10,894732","latitude":"49,461388","geojson_lng":10.894732,"geojson_lat":49.461388},"geometry":{"type":"Point","coordinates":[10.894732,49.461388]}},{"type":"Feature","properties":{"SeqNo":"218161","Type":"Q","DHID":"de:09573:5098:0:2","Parent":"de:09573:5098","Name":"2","MunicipalityCode":"00000000","Municipality":"-","DistrictCode":"-","District":"-","Description":"","Authority":"BEG","DelfiName":"-","THID":"-","LastOperationDate":"","SEV":"nein","longitude":"10,89475","latitude":"49,461289","geojson_lng":10.89475,"geojson_lat":49.461289},"geometry":{"type":"Point","coordinates":[10.89475,49.461289]}},{"type":"Feature","properties":{"SeqNo":"218217","Type":"S","DHID":"de:09573:5117","Parent":"de:09573:5117","Name":"Egersdorf Grundschule","MunicipalityCode":"09573114","Municipality":"Cadolzburg","DistrictCode":"","District":"","Description":"","Authority":"BEG","DelfiName":"-","THID":"D925650013FD","LastOperationDate":"2025-02-28T00:00:00","SEV":"nein","longitude":"10,888327","latitude":"49,465253","geojson_lng":10.888327,"geojson_lat":49.465253},"geometry":{"type":"Point","coordinates":[10.888327,49.465253]}},{"type":"Feature","properties":{"SeqNo":"218218","Type":"Q","DHID":"de:09573:5117:0:1","Parent":"de:09573:5117","Name":"1","MunicipalityCode":"00000000","Municipality":"-","DistrictCode":"-","District":"-","Description":"","Authority":"BEG","DelfiName":"-","THID":"-","LastOperationDate":"","SEV":"nein","longitude":"10,888381","latitude":"49,465311","geojson_lng":10.888381,"geojson_lat":49.465311},"geometry":{"type":"Point","coordinates":[10.888381,49.465311]}},{"type":"Feature","properties":{"SeqNo":"218219","Type":"Q","DHID":"de:09573:5117:0:2","Parent":"de:09573:5117","Name":"2","MunicipalityCode":"00000000","Municipality":"-","DistrictCode":"-","District":"-","Description":"","Authority":"BEG","DelfiName":"-","THID":"-","LastOperationDate":"","SEV":"nein","longitude":"10,888381","latitude":"49,465311","geojson_lng":10.888381,"geojson_lat":49.465311},"geometry":{"type":"Point","coordinates":[10.888381,49.465311]}}]}