{"type":"FeatureCollection","features":[{"type":"Feature","properties":{"SeqNo":"512885","Type":"S","DHID":"de:05111:18594","Parent":"de:05111:18594","Name":"D-René-Schickele-Straße","MunicipalityCode":"05111000","Municipality":"Düsseldorf","DistrictCode":"","District":"","Description":"","Authority":"VRR","DelfiName":"-","THID":"D913F70048A2","LastOperationDate":"2025-06-14T00:00:00","SEV":"nein","longitude":"6,900346","latitude":"51,138824","geojson_lng":6.900346,"geojson_lat":51.138824},"geometry":{"type":"Point","coordinates":[6.900346,51.138824]}},{"type":"Feature","properties":{"SeqNo":"512886","Type":"A","DHID":"de:05111:18594:1","Parent":"de:05111:18594","Name":"Ri. C.-Severing-Str.","MunicipalityCode":"00000000","Municipality":"-","DistrictCode":"-","District":"-","Description":"","Authority":"VRR","DelfiName":"-","THID":"-","LastOperationDate":"","SEV":"nein","longitude":"6,900696","latitude":"51,138413","geojson_lng":6.900696,"geojson_lat":51.138413},"geometry":{"type":"Point","coordinates":[6.900696,51.138413]}},{"type":"Feature","properties":{"SeqNo":"512887","Type":"A","DHID":"de:05111:18594:2","Parent":"de:05111:18594","Name":"Ri. J.-Kneip-Str.","MunicipalityCode":"00000000","Municipality":"-","DistrictCode":"-","District":"-","Description":"","Authority":"VRR","DelfiName":"-","THID":"-","LastOperationDate":"","SEV":"nein","longitude":"6,899996","latitude":"51,139298","geojson_lng":6.899996,"geojson_lat":51.139298},"geometry":{"type":"Point","coordinates":[6.899996,51.139298]}},{"type":"Feature","properties":{"SeqNo":"512888","Type":"Q","DHID":"de:05111:18594:1:1","Parent":"de:05111:18594:1","Name":"779 Ri. BEN","MunicipalityCode":"00000000","Municipality":"-","DistrictCode":"-","District":"-","Description":"","Authority":"VRR","DelfiName":"-","THID":"-","LastOperationDate":"","SEV":"nein","longitude":"6,90066","latitude":"51,138402","geojson_lng":6.90066,"geojson_lat":51.138402},"geometry":{"type":"Point","coordinates":[6.90066,51.138402]}},{"type":"Feature","properties":{"SeqNo":"512889","Type":"Q","DHID":"de:05111:18594:2:2","Parent":"de:05111:18594:2","Name":"778 Ri. Garath West","MunicipalityCode":"00000000","Municipality":"-","DistrictCode":"-","District":"-","Description":"","Authority":"VRR","DelfiName":"-","THID":"-","LastOperationDate":"","SEV":"nein","longitude":"6,900076","latitude":"51,139304","geojson_lng":6.900076,"geojson_lat":51.139304},"geometry":{"type":"Point","coordinates":[6.900076,51.139304]}},{"type":"Feature","properties":{"SeqNo":"512890","Type":"S","DHID":"de:05111:18595","Parent":"de:05111:18595","Name":"D-Carl-Severing-Straße","MunicipalityCode":"05111000","Municipality":"Düsseldorf","DistrictCode":"-","District":"-","Description":"","Authority":"VRR","DelfiName":"-","THID":"D913F70048A3","LastOperationDate":"2025-06-14T00:00:00","SEV":"nein","longitude":"6,904514","latitude":"51,14131","geojson_lng":6.904514,"geojson_lat":51.14131},"geometry":{"type":"Point","coordinates":[6.904514,51.14131]}},{"type":"Feature","properties":{"SeqNo":"512891","Type":"A","DHID":"de:05111:18595:1","Parent":"de:05111:18595","Name":"für Steig 1","MunicipalityCode":"00000000","Municipality":"-","DistrictCode":"-","District":"-","Description":"","Authority":"VRR","DelfiName":"-","THID":"-","LastOperationDate":"","SEV":"nein","longitude":"6,905251","latitude":"51,141445","geojson_lng":6.905251,"geojson_lat":51.141445},"geometry":{"type":"Point","coordinates":[6.905251,51.141445]}},{"type":"Feature","properties":{"SeqNo":"512892","Type":"A","DHID":"de:05111:18595:2","Parent":"de:05111:18595","Name":"für Steig 2","MunicipalityCode":"00000000","Municipality":"-","DistrictCode":"-","District":"-","Description":"","Authority":"VRR","DelfiName":"-","THID":"-","LastOperationDate":"","SEV":"nein","longitude":"6,904236","latitude":"51,141304","geojson_lng":6.904236,"geojson_lat":51.141304},"geometry":{"type":"Point","coordinates":[6.904236,51.141304]}},{"type":"Feature","properties":{"SeqNo":"512893","Type":"Q","DHID":"de:05111:18595:1:1","Parent":"de:05111:18595:1","Name":"779 Ri. BEN","MunicipalityCode":"00000000","Municipality":"-","DistrictCode":"-","District":"-","Description":"779 Ri. BEN","Authority":"VRR","DelfiName":"-","THID":"-","LastOperationDate":"","SEV":"nein","longitude":"6,905242","latitude":"51,141479","geojson_lng":6.905242,"geojson_lat":51.141479},"geometry":{"type":"Point","coordinates":[6.905242,51.141479]}},{"type":"Feature","properties":{"SeqNo":"512894","Type":"Q","DHID":"de:05111:18595:2:2","Parent":"de:05111:18595:2","Name":"778 Ri. Garath West","MunicipalityCode":"00000000","Municipality":"-","DistrictCode":"-","District":"-","Description":"778 Ri. Garath West","Authority":"VRR","DelfiName":"-","THID":"-","LastOperationDate":"","SEV":"nein","longitude":"6,904263","latitude":"51,141259","geojson_lng":6.904263,"geojson_lat":51.141259},"geometry":{"type":"Point","coordinates":[6.904263,51.141259]}},{"type":"Feature","properties":{"SeqNo":"512895","Type":"S","DHID":"de:05111:18596","Parent":"de:05111:18596","Name":"D-Adam-Stegerwald-Straße","MunicipalityCode":"05111000","Municipality":"Düsseldorf","DistrictCode":"-","District":"-","Description":"","Authority":"VRR","DelfiName":"-","THID":"D913F70048A4","LastOperationDate":"2025-06-14T00:00:00","SEV":"nein","longitude":"6,907164","latitude":"51,14282","geojson_lng":6.907164,"geojson_lat":51.14282},"geometry":{"type":"Point","coordinates":[6.907164,51.14282]}},{"type":"Feature","properties":{"SeqNo":"512896","Type":"A","DHID":"de:05111:18596:1","Parent":"de:05111:18596","Name":"für Steig 1","MunicipalityCode":"00000000","Municipality":"-","DistrictCode":"-","District":"-","Description":"","Authority":"VRR","DelfiName":"-","THID":"-","LastOperationDate":"","SEV":"nein","longitude":"6,907245","latitude":"51,14304","geojson_lng":6.907245,"geojson_lat":51.14304},"geometry":{"type":"Point","coordinates":[6.907245,51.14304]}},{"type":"Feature","properties":{"SeqNo":"512897","Type":"A","DHID":"de:05111:18596:2","Parent":"de:05111:18596","Name":"für Steig 2","MunicipalityCode":"00000000","Municipality":"-","DistrictCode":"-","District":"-","Description":"","Authority":"VRR","DelfiName":"-","THID":"-","LastOperationDate":"","SEV":"nein","longitude":"6,907065","latitude":"51,142572","geojson_lng":6.907065,"geojson_lat":51.142572},"geometry":{"type":"Point","coordinates":[6.907065,51.142572]}},{"type":"Feature","properties":{"SeqNo":"512898","Type":"Q","DHID":"de:05111:18596:1:1","Parent":"de:05111:18596:1","Name":"779 Ri. BEN","MunicipalityCode":"00000000","Municipality":"-","DistrictCode":"-","District":"-","Description":"779 Ri. BEN","Authority":"VRR","DelfiName":"-","THID":"-","LastOperationDate":"","SEV":"nein","longitude":"6,907209","latitude":"51,14304","geojson_lng":6.907209,"geojson_lat":51.14304},"geometry":{"type":"Point","coordinates":[6.907209,51.14304]}},{"type":"Feature","properties":{"SeqNo":"512899","Type":"Q","DHID":"de:05111:18596:2:2","Parent":"de:05111:18596:2","Name":"778 Ri. Garath West","MunicipalityCode":"00000000","Municipality":"-","DistrictCode":"-","District":"-","Description":"778 Ri. Garath West","Authority":"VRR","DelfiName":"-","THID":"-","LastOperationDate":"","SEV":"nein","longitude":"6,90711","latitude":"51,142567","geojson_lng":6.90711,"geojson_lat":51.142567},"geometry":{"type":"Point","coordinates":[6.90711,51.142567]}},{"type":"Feature","properties":{"SeqNo":"512905","Type":"S","DHID":"de:05111:18598","Parent":"de:05111:18598","Name":"D-Garath S, Ostseite","MunicipalityCode":"05111000","Municipality":"Düsseldorf","DistrictCode":"","District":"","Description":"","Authority":"VRR","DelfiName":"-","THID":"D913F70048A6","LastOperationDate":"2025-06-14T00:00:00","SEV":"nein","longitude":"6,899277","latitude":"51,144872","geojson_lng":6.899277,"geojson_lat":51.144872},"geometry":{"type":"Point","coordinates":[6.899277,51.144872]}},{"type":"Feature","properties":{"SeqNo":"512906","Type":"A","DHID":"de:05111:18598:1","Parent":"de:05111:18598","Name":"779 Ri. BEN","MunicipalityCode":"00000000","Municipality":"-","DistrictCode":"-","District":"-","Description":"","Authority":"VRR","DelfiName":"-","THID":"-","LastOperationDate":"","SEV":"nein","longitude":"6,899735","latitude":"51,144539","geojson_lng":6.899735,"geojson_lat":51.144539},"geometry":{"type":"Point","coordinates":[6.899735,51.144539]}},{"type":"Feature","properties":{"SeqNo":"512908","Type":"A","DHID":"de:05111:18598:89","Parent":"de:05111:18598","Name":"Schienenersatzv.","MunicipalityCode":"00000000","Municipality":"-","DistrictCode":"-","District":"-","Description":"","Authority":"VRR","DelfiName":"-","THID":"-","LastOperationDate":"","SEV":"nein","longitude":"6,899789","latitude":"51,14441","geojson_lng":6.899789,"geojson_lat":51.14441},"geometry":{"type":"Point","coordinates":[6.899789,51.14441]}},{"type":"Feature","properties":{"SeqNo":"512909","Type":"Q","DHID":"de:05111:18598:1:1","Parent":"de:05111:18598:1","Name":"779 Ri. BEN/817 Ri. HHO","MunicipalityCode":"00000000","Municipality":"-","DistrictCode":"-","District":"-","Description":"","Authority":"VRR","DelfiName":"-","THID":"-","LastOperationDate":"","SEV":"nein","longitude":"6,899672","latitude":"51,144517","geojson_lng":6.899672,"geojson_lat":51.144517},"geometry":{"type":"Point","coordinates":[6.899672,51.144517]}},{"type":"Feature","properties":{"SeqNo":"512911","Type":"Q","DHID":"de:05111:18598:89:SEV","Parent":"de:05111:18598:89","Name":"SEV","MunicipalityCode":"00000000","Municipality":"-","DistrictCode":"-","District":"-","Description":"","Authority":"VRR","DelfiName":"-","THID":"-","LastOperationDate":"","SEV":"nein","longitude":"6,899771","latitude":"51,144421","geojson_lng":6.899771,"geojson_lat":51.144421},"geometry":{"type":"Point","coordinates":[6.899771,51.144421]}},{"type":"Feature","properties":{"SeqNo":"514317","Type":"S","DHID":"de:05111:19509","Parent":"de:05111:19509","Name":"D-Garather Kirchweg","MunicipalityCode":"05111000","Municipality":"Düsseldorf","DistrictCode":"-","District":"-","Description":"","Authority":"VRR","DelfiName":"-","THID":"D913F7004C35","LastOperationDate":"2025-06-14T00:00:00","SEV":"nein","longitude":"6,904909","latitude":"51,138616","geojson_lng":6.904909,"geojson_lat":51.138616},"geometry":{"type":"Point","coordinates":[6.904909,51.138616]}},{"type":"Feature","properties":{"SeqNo":"514318","Type":"A","DHID":"de:05111:19509:1","Parent":"de:05111:19509","Name":"für Steig 1","MunicipalityCode":"00000000","Municipality":"-","DistrictCode":"-","District":"-","Description":"","Authority":"VRR","DelfiName":"-","THID":"-","LastOperationDate":"","SEV":"nein","longitude":"6,904891","latitude":"51,138441","geojson_lng":6.904891,"geojson_lat":51.138441},"geometry":{"type":"Point","coordinates":[6.904891,51.138441]}},{"type":"Feature","properties":{"SeqNo":"514319","Type":"A","DHID":"de:05111:19509:2","Parent":"de:05111:19509","Name":"für Steig 2","MunicipalityCode":"00000000","Municipality":"-","DistrictCode":"-","District":"-","Description":"","Authority":"VRR","DelfiName":"-","THID":"-","LastOperationDate":"","SEV":"nein","longitude":"6,904873","latitude":"51,138819","geojson_lng":6.904873,"geojson_lat":51.138819},"geometry":{"type":"Point","coordinates":[6.904873,51.138819]}},{"type":"Feature","properties":{"SeqNo":"514320","Type":"Q","DHID":"de:05111:19509:1:1","Parent":"de:05111:19509:1","Name":"Ri. Dresdner Str.","MunicipalityCode":"00000000","Municipality":"-","DistrictCode":"-","District":"-","Description":"Ri. Dresdner Str.","Authority":"VRR","DelfiName":"-","THID":"-","LastOperationDate":"","SEV":"nein","longitude":"6,904981","latitude":"51,138469","geojson_lng":6.904981,"geojson_lat":51.138469},"geometry":{"type":"Point","coordinates":[6.904981,51.138469]}},{"type":"Feature","properties":{"SeqNo":"514321","Type":"Q","DHID":"de:05111:19509:2:2","Parent":"de:05111:19509:2","Name":"Ri. Reinhold-Schneider-Str.","MunicipalityCode":"00000000","Municipality":"-","DistrictCode":"-","District":"-","Description":"Ri. Reinhold-Schneider-Str.","Authority":"VRR","DelfiName":"-","THID":"-","LastOperationDate":"","SEV":"nein","longitude":"6,904802","latitude":"51,138808","geojson_lng":6.904802,"geojson_lat":51.138808},"geometry":{"type":"Point","coordinates":[6.904802,51.138808]}},{"type":"Feature","properties":{"SeqNo":"514322","Type":"S","DHID":"de:05111:19510","Parent":"de:05111:19510","Name":"D-Reinhold-Schneider-Straße","MunicipalityCode":"05111000","Municipality":"Düsseldorf","DistrictCode":"","District":"","Description":"","Authority":"VRR","DelfiName":"-","THID":"D913F7004C36","LastOperationDate":"2025-06-14T00:00:00","SEV":"nein","longitude":"6,899618","latitude":"51,140166","geojson_lng":6.899618,"geojson_lat":51.140166},"geometry":{"type":"Point","coordinates":[6.899618,51.140166]}},{"type":"Feature","properties":{"SeqNo":"514323","Type":"A","DHID":"de:05111:19510:1","Parent":"de:05111:19510","Name":"für Steig 1","MunicipalityCode":"00000000","Municipality":"-","DistrictCode":"-","District":"-","Description":"","Authority":"VRR","DelfiName":"-","THID":"-","LastOperationDate":"","SEV":"nein","longitude":"6,899573","latitude":"51,140081","geojson_lng":6.899573,"geojson_lat":51.140081},"geometry":{"type":"Point","coordinates":[6.899573,51.140081]}},{"type":"Feature","properties":{"SeqNo":"514324","Type":"A","DHID":"de:05111:19510:2","Parent":"de:05111:19510","Name":"für Steig 2","MunicipalityCode":"00000000","Municipality":"-","DistrictCode":"-","District":"-","Description":"","Authority":"VRR","DelfiName":"-","THID":"-","LastOperationDate":"","SEV":"nein","longitude":"6,899636","latitude":"51,140329","geojson_lng":6.899636,"geojson_lat":51.140329},"geometry":{"type":"Point","coordinates":[6.899636,51.140329]}},{"type":"Feature","properties":{"SeqNo":"514325","Type":"Q","DHID":"de:05111:19510:0:1","Parent":"de:05111:19510:1","Name":"Hin","MunicipalityCode":"00000000","Municipality":"-","DistrictCode":"-","District":"-","Description":"","Authority":"VRR","DelfiName":"-","THID":"-","LastOperationDate":"","SEV":"nein","longitude":"6,899609","latitude":"51,14011","geojson_lng":6.899609,"geojson_lat":51.14011},"geometry":{"type":"Point","coordinates":[6.899609,51.14011]}},{"type":"Feature","properties":{"SeqNo":"514326","Type":"Q","DHID":"de:05111:19510:0:2","Parent":"de:05111:19510:2","Name":"Rück","MunicipalityCode":"00000000","Municipality":"-","DistrictCode":"-","District":"-","Description":"","Authority":"VRR","DelfiName":"-","THID":"-","LastOperationDate":"","SEV":"nein","longitude":"6,899555","latitude":"51,140284","geojson_lng":6.899555,"geojson_lat":51.140284},"geometry":{"type":"Point","coordinates":[6.899555,51.140284]}}]}