{"type":"FeatureCollection","features":[{"type":"Feature","properties":{"SeqNo":"758774","Type":"S","DHID":"de:07313:8051","Parent":"de:07313:8051","Name":"Godramstein, Bahnhof","MunicipalityCode":"07313000","Municipality":"Landau in der Pfalz","DistrictCode":"-","District":"-","Description":"","Authority":"VRN","DelfiName":"-","THID":"D91C91001F73","LastOperationDate":"2025-02-28T00:00:00","SEV":"nein","longitude":"8,075792","latitude":"49,206911","geojson_lng":8.075792,"geojson_lat":49.206911},"geometry":{"type":"Point","coordinates":[8.075792,49.206911]}},{"type":"Feature","properties":{"SeqNo":"758775","Type":"A","DHID":"de:07313:8051:1","Parent":"de:07313:8051","Name":"DB","MunicipalityCode":"00000000","Municipality":"-","DistrictCode":"-","District":"-","Description":"DB","Authority":"VRN","DelfiName":"-","THID":"-","LastOperationDate":"","SEV":"nein","longitude":"8,076034","latitude":"49,206875","geojson_lng":8.076034,"geojson_lat":49.206875},"geometry":{"type":"Point","coordinates":[8.076034,49.206875]}},{"type":"Feature","properties":{"SeqNo":"758776","Type":"A","DHID":"de:07313:8051:2","Parent":"de:07313:8051","Name":"Bus","MunicipalityCode":"00000000","Municipality":"-","DistrictCode":"-","District":"-","Description":"","Authority":"VRN","DelfiName":"-","THID":"-","LastOperationDate":"","SEV":"nein","longitude":"8,075423","latitude":"49,207151","geojson_lng":8.075423,"geojson_lat":49.207151},"geometry":{"type":"Point","coordinates":[8.075423,49.207151]}},{"type":"Feature","properties":{"SeqNo":"758777","Type":"Q","DHID":"de:07313:8051:1:1","Parent":"de:07313:8051:1","Name":"Gleis1","MunicipalityCode":"00000000","Municipality":"-","DistrictCode":"-","District":"-","Description":"Gleis1","Authority":"VRN","DelfiName":"-","THID":"-","LastOperationDate":"","SEV":"nein","longitude":"8,075917","latitude":"49,206905","geojson_lng":8.075917,"geojson_lat":49.206905},"geometry":{"type":"Point","coordinates":[8.075917,49.206905]}},{"type":"Feature","properties":{"SeqNo":"758778","Type":"Q","DHID":"de:07313:8051:1:2","Parent":"de:07313:8051:1","Name":"Gleis2","MunicipalityCode":"00000000","Municipality":"-","DistrictCode":"-","District":"-","Description":"Gleis2","Authority":"VRN","DelfiName":"-","THID":"-","LastOperationDate":"","SEV":"nein","longitude":"8,075935","latitude":"49,20684","geojson_lng":8.075935,"geojson_lat":49.20684},"geometry":{"type":"Point","coordinates":[8.075935,49.20684]}},{"type":"Feature","properties":{"SeqNo":"758779","Type":"Q","DHID":"de:07313:8051:2:1","Parent":"de:07313:8051:2","Name":"SEV","MunicipalityCode":"00000000","Municipality":"-","DistrictCode":"-","District":"-","Description":"","Authority":"VRN","DelfiName":"-","THID":"-","LastOperationDate":"","SEV":"nein","longitude":"8,07545","latitude":"49,207134","geojson_lng":8.07545,"geojson_lat":49.207134},"geometry":{"type":"Point","coordinates":[8.07545,49.207134]}}]}