{"type":"FeatureCollection","features":[{"type":"Feature","properties":{"SeqNo":"633462","Type":"S","DHID":"de:05754:10073","Parent":"de:05754:10073","Name":"Gt-Avenwedde, Spexarder Straße","MunicipalityCode":"05754008","Municipality":"Gütersloh","DistrictCode":"","District":"","Description":"","Authority":"VRR","DelfiName":"-","THID":"D9167A002759","LastOperationDate":"2025-06-14T00:00:00","SEV":"nein","longitude":"8,444685","latitude":"51,898535","geojson_lng":8.444685,"geojson_lat":51.898535},"geometry":{"type":"Point","coordinates":[8.444685,51.898535]}},{"type":"Feature","properties":{"SeqNo":"633463","Type":"Q","DHID":"de:05754:10073:0:1","Parent":"de:05754:10073","Name":"Richtung Vogel","MunicipalityCode":"00000000","Municipality":"-","DistrictCode":"-","District":"-","Description":"","Authority":"VRR","DelfiName":"-","THID":"-","LastOperationDate":"","SEV":"nein","longitude":"8,444712","latitude":"51,89854","geojson_lng":8.444712,"geojson_lat":51.89854},"geometry":{"type":"Point","coordinates":[8.444712,51.89854]}},{"type":"Feature","properties":{"SeqNo":"633464","Type":"Q","DHID":"de:05754:10073:0:2","Parent":"de:05754:10073","Name":"Richtung Waldklause","MunicipalityCode":"00000000","Municipality":"-","DistrictCode":"-","District":"-","Description":"","Authority":"VRR","DelfiName":"-","THID":"-","LastOperationDate":"","SEV":"nein","longitude":"8,444703","latitude":"51,898568","geojson_lng":8.444703,"geojson_lat":51.898568},"geometry":{"type":"Point","coordinates":[8.444703,51.898568]}},{"type":"Feature","properties":{"SeqNo":"635390","Type":"S","DHID":"de:05754:5915","Parent":"de:05754:5915","Name":"Gt-Spexard, Waldklause","MunicipalityCode":"05754008","Municipality":"Gütersloh","DistrictCode":"-","District":"-","Description":"","Authority":"VRR","DelfiName":"-","THID":"D9167A00171B","LastOperationDate":"2025-06-14T00:00:00","SEV":"nein","longitude":"8,448574","latitude":"51,896883","geojson_lng":8.448574,"geojson_lat":51.896883},"geometry":{"type":"Point","coordinates":[8.448574,51.896883]}},{"type":"Feature","properties":{"SeqNo":"635391","Type":"Q","DHID":"de:05754:5915:0:1","Parent":"de:05754:5915","Name":"1","MunicipalityCode":"00000000","Municipality":"-","DistrictCode":"-","District":"-","Description":"Richtung Spexarder Straße","Authority":"VRR","DelfiName":"-","THID":"-","LastOperationDate":"","SEV":"nein","longitude":"8,448494","latitude":"51,896828","geojson_lng":8.448494,"geojson_lat":51.896828},"geometry":{"type":"Point","coordinates":[8.448494,51.896828]}},{"type":"Feature","properties":{"SeqNo":"635392","Type":"Q","DHID":"de:05754:5915:0:2","Parent":"de:05754:5915","Name":"2","MunicipalityCode":"00000000","Municipality":"-","DistrictCode":"-","District":"-","Description":"Richtung Trakehner Straße","Authority":"VRR","DelfiName":"-","THID":"-","LastOperationDate":"","SEV":"nein","longitude":"8,448547","latitude":"51,896883","geojson_lng":8.448547,"geojson_lat":51.896883},"geometry":{"type":"Point","coordinates":[8.448547,51.896883]}},{"type":"Feature","properties":{"SeqNo":"635438","Type":"S","DHID":"de:05754:5933","Parent":"de:05754:5933","Name":"Gt-Avenwedde, Vogel","MunicipalityCode":"05754008","Municipality":"Gütersloh","DistrictCode":"-","District":"-","Description":"","Authority":"VRR","DelfiName":"-","THID":"D9167A00172D","LastOperationDate":"2025-06-14T00:00:00","SEV":"nein","longitude":"8,439277","latitude":"51,901728","geojson_lng":8.439277,"geojson_lat":51.901728},"geometry":{"type":"Point","coordinates":[8.439277,51.901728]}},{"type":"Feature","properties":{"SeqNo":"635439","Type":"Q","DHID":"de:05754:5933:0:1","Parent":"de:05754:5933","Name":"1","MunicipalityCode":"00000000","Municipality":"-","DistrictCode":"-","District":"-","Description":"Richtung Eimerheide","Authority":"VRR","DelfiName":"-","THID":"-","LastOperationDate":"","SEV":"nein","longitude":"8,439277","latitude":"51,901744","geojson_lng":8.439277,"geojson_lat":51.901744},"geometry":{"type":"Point","coordinates":[8.439277,51.901744]}},{"type":"Feature","properties":{"SeqNo":"635440","Type":"Q","DHID":"de:05754:5933:0:2","Parent":"de:05754:5933","Name":"2","MunicipalityCode":"00000000","Municipality":"-","DistrictCode":"-","District":"-","Description":"Richtung Spexarder Straße","Authority":"VRR","DelfiName":"-","THID":"-","LastOperationDate":"","SEV":"nein","longitude":"8,439115","latitude":"51,901728","geojson_lng":8.439115,"geojson_lat":51.901728},"geometry":{"type":"Point","coordinates":[8.439115,51.901728]}},{"type":"Feature","properties":{"SeqNo":"636313","Type":"S","DHID":"de:05754:6392","Parent":"de:05754:6392","Name":"Gt-Waldsiedlung, Apfelweg","MunicipalityCode":"05754008","Municipality":"Gütersloh","DistrictCode":"-","District":"-","Description":"","Authority":"VRR","DelfiName":"-","THID":"D9167A0018F8","LastOperationDate":"2025-06-13T00:00:00","SEV":"nein","longitude":"8,446589","latitude":"51,898762","geojson_lng":8.446589,"geojson_lat":51.898762},"geometry":{"type":"Point","coordinates":[8.446589,51.898762]}},{"type":"Feature","properties":{"SeqNo":"636314","Type":"Q","DHID":"de:05754:6392:0:1","Parent":"de:05754:6392","Name":"1","MunicipalityCode":"00000000","Municipality":"-","DistrictCode":"-","District":"-","Description":"","Authority":"VRR","DelfiName":"-","THID":"-","LastOperationDate":"","SEV":"nein","longitude":"8,446679","latitude":"51,898762","geojson_lng":8.446679,"geojson_lat":51.898762},"geometry":{"type":"Point","coordinates":[8.446679,51.898762]}},{"type":"Feature","properties":{"SeqNo":"637431","Type":"S","DHID":"de:05754:8776","Parent":"de:05754:8776","Name":"Gt-Spexard, Apfelweg","MunicipalityCode":"05754008","Municipality":"Gütersloh","DistrictCode":"-","District":"-","Description":"","Authority":"VRR","DelfiName":"-","THID":"D9167A002248","LastOperationDate":"1999-12-31T00:00:00","SEV":"nein","longitude":"8,446625","latitude":"51,898762","geojson_lng":8.446625,"geojson_lat":51.898762},"geometry":{"type":"Point","coordinates":[8.446625,51.898762]}},{"type":"Feature","properties":{"SeqNo":"637432","Type":"Q","DHID":"de:05754:8776:0:1","Parent":"de:05754:8776","Name":"1","MunicipalityCode":"00000000","Municipality":"-","DistrictCode":"-","District":"-","Description":"Richtung Spexarder Straße","Authority":"VRR","DelfiName":"-","THID":"-","LastOperationDate":"","SEV":"nein","longitude":"8,446625","latitude":"51,898762","geojson_lng":8.446625,"geojson_lat":51.898762},"geometry":{"type":"Point","coordinates":[8.446625,51.898762]}},{"type":"Feature","properties":{"SeqNo":"637433","Type":"Q","DHID":"de:05754:8776:0:2","Parent":"de:05754:8776","Name":"2","MunicipalityCode":"00000000","Municipality":"-","DistrictCode":"-","District":"-","Description":"Richtung Vogel","Authority":"VRR","DelfiName":"-","THID":"-","LastOperationDate":"","SEV":"nein","longitude":"8,446553","latitude":"51,898745","geojson_lng":8.446553,"geojson_lat":51.898745},"geometry":{"type":"Point","coordinates":[8.446553,51.898745]}}]}