{"type":"FeatureCollection","features":[{"type":"Feature","properties":{"SeqNo":"762068","Type":"S","DHID":"de:07318:3604","Parent":"de:07318:3604","Name":"Speyer, Mörschgasse","MunicipalityCode":"07318000","Municipality":"Speyer","DistrictCode":"07318","District":"","Description":"","Authority":"VRN","DelfiName":"-","THID":"D91C96000E14","LastOperationDate":"1999-12-31T00:00:00","SEV":"nein","longitude":"8,437507","latitude":"49,321838","geojson_lng":8.437507,"geojson_lat":49.321838},"geometry":{"type":"Point","coordinates":[8.437507,49.321838]}},{"type":"Feature","properties":{"SeqNo":"762112","Type":"S","DHID":"de:07318:3622","Parent":"de:07318:3622","Name":"Speyer, Eselsdamm","MunicipalityCode":"07318000","Municipality":"Speyer","DistrictCode":"-","District":"-","Description":"","Authority":"VRN","DelfiName":"-","THID":"D91C96000E26","LastOperationDate":"2025-06-14T00:00:00","SEV":"nein","longitude":"8,439501","latitude":"49,321861","geojson_lng":8.439501,"geojson_lat":49.321861},"geometry":{"type":"Point","coordinates":[8.439501,49.321861]}},{"type":"Feature","properties":{"SeqNo":"762113","Type":"Q","DHID":"de:07318:3622:0:1","Parent":"de:07318:3622","Name":"R Bahnhof","MunicipalityCode":"00000000","Municipality":"-","DistrictCode":"-","District":"-","Description":"","Authority":"VRN","DelfiName":"-","THID":"-","LastOperationDate":"","SEV":"nein","longitude":"8,439465","latitude":"49,321885","geojson_lng":8.439465,"geojson_lat":49.321885},"geometry":{"type":"Point","coordinates":[8.439465,49.321885]}},{"type":"Feature","properties":{"SeqNo":"762176","Type":"S","DHID":"de:07318:3648","Parent":"de:07318:3648","Name":"Speyer, IGS Kolb","MunicipalityCode":"07318000","Municipality":"Speyer","DistrictCode":"","District":"","Description":"","Authority":"VRN","DelfiName":"-","THID":"D91C96000E40","LastOperationDate":"2025-06-13T00:00:00","SEV":"nein","longitude":"8,441047","latitude":"49,324724","geojson_lng":8.441047,"geojson_lat":49.324724},"geometry":{"type":"Point","coordinates":[8.441047,49.324724]}},{"type":"Feature","properties":{"SeqNo":"762177","Type":"Q","DHID":"de:07318:3648:0:1","Parent":"de:07318:3648","Name":"Ri Speyer Hbf/ZOB","MunicipalityCode":"00000000","Municipality":"-","DistrictCode":"-","District":"-","Description":"","Authority":"VRN","DelfiName":"-","THID":"-","LastOperationDate":"","SEV":"nein","longitude":"8,441002","latitude":"49,324736","geojson_lng":8.441002,"geojson_lat":49.324736},"geometry":{"type":"Point","coordinates":[8.441002,49.324736]}},{"type":"Feature","properties":{"SeqNo":"762178","Type":"Q","DHID":"de:07318:3648:0:2","Parent":"de:07318:3648","Name":"Ri Karl-Leiling-Allee","MunicipalityCode":"00000000","Municipality":"-","DistrictCode":"-","District":"-","Description":"","Authority":"VRN","DelfiName":"-","THID":"-","LastOperationDate":"","SEV":"nein","longitude":"8,4411","latitude":"49,324724","geojson_lng":8.4411,"geojson_lat":49.324724},"geometry":{"type":"Point","coordinates":[8.4411,49.324724]}},{"type":"Feature","properties":{"SeqNo":"762188","Type":"S","DHID":"de:07318:3651","Parent":"de:07318:3651","Name":"Speyer, Ziegelofenweg","MunicipalityCode":"07318000","Municipality":"Speyer","DistrictCode":"","District":"","Description":"","Authority":"VRN","DelfiName":"-","THID":"D91C96000E43","LastOperationDate":"2025-06-14T00:00:00","SEV":"nein","longitude":"8,446769","latitude":"49,324906","geojson_lng":8.446769,"geojson_lat":49.324906},"geometry":{"type":"Point","coordinates":[8.446769,49.324906]}},{"type":"Feature","properties":{"SeqNo":"762189","Type":"Q","DHID":"de:07318:3651:0:1","Parent":"de:07318:3651","Name":"Ri Schiffergasse/Hbf.ZOB","MunicipalityCode":"00000000","Municipality":"-","DistrictCode":"-","District":"-","Description":"","Authority":"VRN","DelfiName":"-","THID":"-","LastOperationDate":"","SEV":"nein","longitude":"8,446769","latitude":"49,324917","geojson_lng":8.446769,"geojson_lat":49.324917},"geometry":{"type":"Point","coordinates":[8.446769,49.324917]}},{"type":"Feature","properties":{"SeqNo":"762212","Type":"S","DHID":"de:07318:3661","Parent":"de:07318:3661","Name":"Speyer, Hafenstraße","MunicipalityCode":"07318000","Municipality":"Speyer","DistrictCode":"","District":"","Description":"","Authority":"VRN","DelfiName":"-","THID":"D91C96000E4D","LastOperationDate":"2025-06-14T00:00:00","SEV":"nein","longitude":"8,44685","latitude":"49,322411","geojson_lng":8.44685,"geojson_lat":49.322411},"geometry":{"type":"Point","coordinates":[8.44685,49.322411]}},{"type":"Feature","properties":{"SeqNo":"762213","Type":"Q","DHID":"de:07318:3661:0:1","Parent":"de:07318:3661","Name":"1","MunicipalityCode":"00000000","Municipality":"-","DistrictCode":"-","District":"-","Description":"","Authority":"VRN","DelfiName":"-","THID":"-","LastOperationDate":"","SEV":"nein","longitude":"8,44685","latitude":"49,322417","geojson_lng":8.44685,"geojson_lat":49.322417},"geometry":{"type":"Point","coordinates":[8.44685,49.322417]}},{"type":"Feature","properties":{"SeqNo":"762219","Type":"S","DHID":"de:07318:3665","Parent":"de:07318:3665","Name":"Speyer, Schiffergasse","MunicipalityCode":"07318000","Municipality":"Speyer","DistrictCode":"","District":"","Description":"","Authority":"VRN","DelfiName":"-","THID":"D91C96000E51","LastOperationDate":"2023-12-09T00:00:00","SEV":"nein","longitude":"8,441568","latitude":"49,321656","geojson_lng":8.441568,"geojson_lat":49.321656},"geometry":{"type":"Point","coordinates":[8.441568,49.321656]}},{"type":"Feature","properties":{"SeqNo":"762220","Type":"Q","DHID":"de:07318:3665:0:1","Parent":"de:07318:3665","Name":"1","MunicipalityCode":"00000000","Municipality":"-","DistrictCode":"-","District":"-","Description":"","Authority":"VRN","DelfiName":"-","THID":"-","LastOperationDate":"","SEV":"nein","longitude":"8,44155","latitude":"49,321656","geojson_lng":8.44155,"geojson_lat":49.321656},"geometry":{"type":"Point","coordinates":[8.44155,49.321656]}}]}