{"type":"FeatureCollection","features":[{"type":"Feature","properties":{"SeqNo":"96929","Type":"S","DHID":"de:09775:4091","Parent":"de:09775:4091","Name":"Senden Lindenstraße","MunicipalityCode":"09775152","Municipality":"Senden","DistrictCode":"","District":"","Description":"","Authority":"NVBW","DelfiName":"-","THID":"D9262F000FFB","LastOperationDate":"2025-02-28T00:00:00","SEV":"nein","longitude":"10,060062","latitude":"48,324764","geojson_lng":10.060062,"geojson_lat":48.324764},"geometry":{"type":"Point","coordinates":[10.060062,48.324764]}},{"type":"Feature","properties":{"SeqNo":"96930","Type":"Q","DHID":"de:09775:4091:0:1","Parent":"de:09775:4091","Name":"Wullenstetten","MunicipalityCode":"00000000","Municipality":"-","DistrictCode":"-","District":"-","Description":"","Authority":"NVBW","DelfiName":"-","THID":"-","LastOperationDate":"","SEV":"nein","longitude":"10,06008","latitude":"48,324746","geojson_lng":10.06008,"geojson_lat":48.324746},"geometry":{"type":"Point","coordinates":[10.06008,48.324746]}},{"type":"Feature","properties":{"SeqNo":"96931","Type":"Q","DHID":"de:09775:4091:0:2","Parent":"de:09775:4091","Name":"Ulm","MunicipalityCode":"00000000","Municipality":"-","DistrictCode":"-","District":"-","Description":"","Authority":"NVBW","DelfiName":"-","THID":"-","LastOperationDate":"","SEV":"nein","longitude":"10,060035","latitude":"48,324793","geojson_lng":10.060035,"geojson_lat":48.324793},"geometry":{"type":"Point","coordinates":[10.060035,48.324793]}},{"type":"Feature","properties":{"SeqNo":"96976","Type":"S","DHID":"de:09775:4104","Parent":"de:09775:4104","Name":"Senden Höll","MunicipalityCode":"09775152","Municipality":"Senden","DistrictCode":"","District":"","Description":"","Authority":"NVBW","DelfiName":"-","THID":"D9262F001008","LastOperationDate":"2025-02-28T00:00:00","SEV":"nein","longitude":"10,055265","latitude":"48,326735","geojson_lng":10.055265,"geojson_lat":48.326735},"geometry":{"type":"Point","coordinates":[10.055265,48.326735]}},{"type":"Feature","properties":{"SeqNo":"96977","Type":"Q","DHID":"de:09775:4104:0:1","Parent":"de:09775:4104","Name":"Aufheim / Wullenstetten","MunicipalityCode":"00000000","Municipality":"-","DistrictCode":"-","District":"-","Description":"","Authority":"NVBW","DelfiName":"-","THID":"-","LastOperationDate":"","SEV":"nein","longitude":"10,055571","latitude":"48,326765","geojson_lng":10.055571,"geojson_lat":48.326765},"geometry":{"type":"Point","coordinates":[10.055571,48.326765]}},{"type":"Feature","properties":{"SeqNo":"96978","Type":"Q","DHID":"de:09775:4104:0:2","Parent":"de:09775:4104","Name":"Ay / Ulm","MunicipalityCode":"00000000","Municipality":"-","DistrictCode":"-","District":"-","Description":"","Authority":"NVBW","DelfiName":"-","THID":"-","LastOperationDate":"","SEV":"nein","longitude":"10,054951","latitude":"48,326711","geojson_lng":10.054951,"geojson_lat":48.326711},"geometry":{"type":"Point","coordinates":[10.054951,48.326711]}},{"type":"Feature","properties":{"SeqNo":"96983","Type":"Q","DHID":"de:09775:4106:0:1","Parent":"de:09775:4106","Name":"Wullenstetten","MunicipalityCode":"00000000","Municipality":"-","DistrictCode":"-","District":"-","Description":"","Authority":"NVBW","DelfiName":"-","THID":"-","LastOperationDate":"","SEV":"nein","longitude":"10,063584","latitude":"48,322434","geojson_lng":10.063584,"geojson_lat":48.322434},"geometry":{"type":"Point","coordinates":[10.063584,48.322434]}}]}