{"type":"FeatureCollection","features":[{"type":"Feature","properties":{"SeqNo":"853192","Type":"S","DHID":"de:14626:9441","Parent":"de:14626:9441","Name":"Großschönau Ziegelei","MunicipalityCode":"14626140","Municipality":"Großschönau","DistrictCode":"","District":"","Description":"","Authority":"VVO","DelfiName":"-","THID":"D939220024E1","LastOperationDate":"2025-06-14T00:00:00","SEV":"nein","longitude":"14,6769","latitude":"50,8934","geojson_lng":14.6769,"geojson_lat":50.8934},"geometry":{"type":"Point","coordinates":[14.6769,50.8934]}},{"type":"Feature","properties":{"SeqNo":"853193","Type":"Q","DHID":"de:14626:9441:0:1","Parent":"de:14626:9441","Name":"1 - Ri. Waltersdorf","MunicipalityCode":"00000000","Municipality":"-","DistrictCode":"-","District":"-","Description":"","Authority":"VVO","DelfiName":"-","THID":"-","LastOperationDate":"","SEV":"nein","longitude":"14,676855","latitude":"50,893451","geojson_lng":14.676855,"geojson_lat":50.893451},"geometry":{"type":"Point","coordinates":[14.676855,50.893451]}},{"type":"Feature","properties":{"SeqNo":"853194","Type":"Q","DHID":"de:14626:9441:0:2","Parent":"de:14626:9441","Name":"2 - Ri. Zittau","MunicipalityCode":"00000000","Municipality":"-","DistrictCode":"-","District":"-","Description":"","Authority":"VVO","DelfiName":"-","THID":"-","LastOperationDate":"","SEV":"nein","longitude":"14,676954","latitude":"50,893337","geojson_lng":14.676954,"geojson_lat":50.893337},"geometry":{"type":"Point","coordinates":[14.676954,50.893337]}},{"type":"Feature","properties":{"SeqNo":"853224","Type":"Q","DHID":"de:14626:9450:1:2","Parent":"de:14626:9450:2","Name":"2 - Ri. Waltersdorf/Jonsdorf","MunicipalityCode":"00000000","Municipality":"-","DistrictCode":"-","District":"-","Description":"Ri. Rybniste","Authority":"VVO","DelfiName":"-","THID":"-","LastOperationDate":"","SEV":"nein","longitude":"14,666614","latitude":"50,893082","geojson_lng":14.666614,"geojson_lat":50.893082},"geometry":{"type":"Point","coordinates":[14.666614,50.893082]}},{"type":"Feature","properties":{"SeqNo":"853225","Type":"Q","DHID":"de:14626:9450:2:1","Parent":"de:14626:9450:2","Name":"1 - Ri. Zittau","MunicipalityCode":"00000000","Municipality":"-","DistrictCode":"-","District":"-","Description":"Ri. Zittau","Authority":"VVO","DelfiName":"-","THID":"-","LastOperationDate":"","SEV":"nein","longitude":"14,666695","latitude":"50,893111","geojson_lng":14.666695,"geojson_lat":50.893111},"geometry":{"type":"Point","coordinates":[14.666695,50.893111]}},{"type":"Feature","properties":{"SeqNo":"853242","Type":"S","DHID":"de:14626:9456","Parent":"de:14626:9456","Name":"Großschönau Hänschgässel","MunicipalityCode":"14626140","Municipality":"Großschönau","DistrictCode":"","District":"","Description":"","Authority":"VVO","DelfiName":"-","THID":"D939220024F0","LastOperationDate":"1999-12-31T00:00:00","SEV":"nein","longitude":"14,672175","latitude":"50,894686","geojson_lng":14.672175,"geojson_lat":50.894686},"geometry":{"type":"Point","coordinates":[14.672175,50.894686]}},{"type":"Feature","properties":{"SeqNo":"853243","Type":"Q","DHID":"de:14626:9456:0:1","Parent":"de:14626:9456","Name":"1 - Ri. Waltersdorf","MunicipalityCode":"00000000","Municipality":"-","DistrictCode":"-","District":"-","Description":"","Authority":"VVO","DelfiName":"-","THID":"-","LastOperationDate":"","SEV":"nein","longitude":"14,672202","latitude":"50,894731","geojson_lng":14.672202,"geojson_lat":50.894731},"geometry":{"type":"Point","coordinates":[14.672202,50.894731]}},{"type":"Feature","properties":{"SeqNo":"853244","Type":"Q","DHID":"de:14626:9456:0:2","Parent":"de:14626:9456","Name":"2 - Ri. Zittau","MunicipalityCode":"00000000","Municipality":"-","DistrictCode":"-","District":"-","Description":"","Authority":"VVO","DelfiName":"-","THID":"-","LastOperationDate":"","SEV":"nein","longitude":"14,672139","latitude":"50,894646","geojson_lng":14.672139,"geojson_lat":50.894646},"geometry":{"type":"Point","coordinates":[14.672139,50.894646]}}]}