{"type":"FeatureCollection","features":[{"type":"Feature","properties":{"SeqNo":"675343","Type":"S","DHID":"de:05954:8183","Parent":"de:05954:8183","Name":"Ennepetal Kühlchen","MunicipalityCode":"05954008","Municipality":"Ennepetal","DistrictCode":"","District":"","Description":"","Authority":"VRR","DelfiName":"-","THID":"D91742001FF7","LastOperationDate":"2025-06-13T00:00:00","SEV":"nein","longitude":"7,323641","latitude":"51,267492","geojson_lng":7.323641,"geojson_lat":51.267492},"geometry":{"type":"Point","coordinates":[7.323641,51.267492]}},{"type":"Feature","properties":{"SeqNo":"675344","Type":"A","DHID":"de:05954:8183:1","Parent":"de:05954:8183","Name":"","MunicipalityCode":"00000000","Municipality":"-","DistrictCode":"-","District":"-","Description":"","Authority":"VRR","DelfiName":"-","THID":"-","LastOperationDate":"","SEV":"nein","longitude":"7,323749","latitude":"51,26757","geojson_lng":7.323749,"geojson_lat":51.26757},"geometry":{"type":"Point","coordinates":[7.323749,51.26757]}},{"type":"Feature","properties":{"SeqNo":"675345","Type":"Q","DHID":"de:05954:8183:0:1","Parent":"de:05954:8183:1","Name":"Ri Spreeler Weg","MunicipalityCode":"00000000","Municipality":"-","DistrictCode":"-","District":"-","Description":"","Authority":"VRR","DelfiName":"-","THID":"-","LastOperationDate":"","SEV":"nein","longitude":"7,32374","latitude":"51,267537","geojson_lng":7.32374,"geojson_lat":51.267537},"geometry":{"type":"Point","coordinates":[7.32374,51.267537]}},{"type":"Feature","properties":{"SeqNo":"675346","Type":"Q","DHID":"de:05954:8183:0:2","Parent":"de:05954:8183:1","Name":"Ri Sträterhäuschen","MunicipalityCode":"00000000","Municipality":"-","DistrictCode":"-","District":"-","Description":"","Authority":"VRR","DelfiName":"-","THID":"-","LastOperationDate":"","SEV":"nein","longitude":"7,323722","latitude":"51,267559","geojson_lng":7.323722,"geojson_lat":51.267559},"geometry":{"type":"Point","coordinates":[7.323722,51.267559]}},{"type":"Feature","properties":{"SeqNo":"675347","Type":"S","DHID":"de:05954:8184","Parent":"de:05954:8184","Name":"Ennepetal Spreeler Weg","MunicipalityCode":"05954008","Municipality":"Ennepetal","DistrictCode":"","District":"","Description":"","Authority":"VRR","DelfiName":"-","THID":"D91742001FF8","LastOperationDate":"2025-06-13T00:00:00","SEV":"nein","longitude":"7,324782","latitude":"51,264732","geojson_lng":7.324782,"geojson_lat":51.264732},"geometry":{"type":"Point","coordinates":[7.324782,51.264732]}},{"type":"Feature","properties":{"SeqNo":"675348","Type":"A","DHID":"de:05954:8184:1","Parent":"de:05954:8184","Name":"Für Steig 1+2","MunicipalityCode":"00000000","Municipality":"-","DistrictCode":"-","District":"-","Description":"","Authority":"VRR","DelfiName":"-","THID":"-","LastOperationDate":"","SEV":"nein","longitude":"7,324935","latitude":"51,264631","geojson_lng":7.324935,"geojson_lat":51.264631},"geometry":{"type":"Point","coordinates":[7.324935,51.264631]}},{"type":"Feature","properties":{"SeqNo":"675349","Type":"A","DHID":"de:05954:8184:2","Parent":"de:05954:8184","Name":"Für Steig 3+4","MunicipalityCode":"00000000","Municipality":"-","DistrictCode":"-","District":"-","Description":"","Authority":"VRR","DelfiName":"-","THID":"-","LastOperationDate":"","SEV":"nein","longitude":"7,324656","latitude":"51,264771","geojson_lng":7.324656,"geojson_lat":51.264771},"geometry":{"type":"Point","coordinates":[7.324656,51.264771]}},{"type":"Feature","properties":{"SeqNo":"675350","Type":"Q","DHID":"de:05954:8184:1:1","Parent":"de:05954:8184:1","Name":"B483 Ri Schlagbaum","MunicipalityCode":"00000000","Municipality":"-","DistrictCode":"-","District":"-","Description":"","Authority":"VRR","DelfiName":"-","THID":"-","LastOperationDate":"","SEV":"nein","longitude":"7,324926","latitude":"51,264659","geojson_lng":7.324926,"geojson_lat":51.264659},"geometry":{"type":"Point","coordinates":[7.324926,51.264659]}},{"type":"Feature","properties":{"SeqNo":"675351","Type":"Q","DHID":"de:05954:8184:1:2","Parent":"de:05954:8184:1","Name":"B483 Ri Schwelm","MunicipalityCode":"00000000","Municipality":"-","DistrictCode":"-","District":"-","Description":"","Authority":"VRR","DelfiName":"-","THID":"-","LastOperationDate":"","SEV":"nein","longitude":"7,324989","latitude":"51,264625","geojson_lng":7.324989,"geojson_lat":51.264625},"geometry":{"type":"Point","coordinates":[7.324989,51.264625]}},{"type":"Feature","properties":{"SeqNo":"675352","Type":"Q","DHID":"de:05954:8184:1:3","Parent":"de:05954:8184:2","Name":"Ri Friedfeld","MunicipalityCode":"00000000","Municipality":"-","DistrictCode":"-","District":"-","Description":"","Authority":"VRR","DelfiName":"-","THID":"-","LastOperationDate":"","SEV":"nein","longitude":"7,324602","latitude":"51,264788","geojson_lng":7.324602,"geojson_lat":51.264788},"geometry":{"type":"Point","coordinates":[7.324602,51.264788]}},{"type":"Feature","properties":{"SeqNo":"675353","Type":"Q","DHID":"de:05954:8184:1:4","Parent":"de:05954:8184:2","Name":"Ri Kühlchen","MunicipalityCode":"00000000","Municipality":"-","DistrictCode":"-","District":"-","Description":"","Authority":"VRR","DelfiName":"-","THID":"-","LastOperationDate":"","SEV":"nein","longitude":"7,324638","latitude":"51,264805","geojson_lng":7.324638,"geojson_lat":51.264805},"geometry":{"type":"Point","coordinates":[7.324638,51.264805]}},{"type":"Feature","properties":{"SeqNo":"675632","Type":"S","DHID":"de:05954:8250","Parent":"de:05954:8250","Name":"Ennepetal Königsfeld","MunicipalityCode":"05954008","Municipality":"Ennepetal","DistrictCode":"","District":"","Description":"","Authority":"VRR","DelfiName":"-","THID":"D9174200203A","LastOperationDate":"2025-06-13T00:00:00","SEV":"nein","longitude":"7,327414","latitude":"51,264108","geojson_lng":7.327414,"geojson_lat":51.264108},"geometry":{"type":"Point","coordinates":[7.327414,51.264108]}},{"type":"Feature","properties":{"SeqNo":"675633","Type":"A","DHID":"de:05954:8250:1","Parent":"de:05954:8250","Name":"","MunicipalityCode":"00000000","Municipality":"-","DistrictCode":"-","District":"-","Description":"","Authority":"VRR","DelfiName":"-","THID":"-","LastOperationDate":"","SEV":"nein","longitude":"7,327351","latitude":"51,264136","geojson_lng":7.327351,"geojson_lat":51.264136},"geometry":{"type":"Point","coordinates":[7.327351,51.264136]}},{"type":"Feature","properties":{"SeqNo":"675634","Type":"Q","DHID":"de:05954:8250:0:1","Parent":"de:05954:8250:1","Name":"Ri Holthauser Talstr.","MunicipalityCode":"00000000","Municipality":"-","DistrictCode":"-","District":"-","Description":"","Authority":"VRR","DelfiName":"-","THID":"-","LastOperationDate":"","SEV":"nein","longitude":"7,327351","latitude":"51,264153","geojson_lng":7.327351,"geojson_lat":51.264153},"geometry":{"type":"Point","coordinates":[7.327351,51.264153]}},{"type":"Feature","properties":{"SeqNo":"675635","Type":"Q","DHID":"de:05954:8250:0:2","Parent":"de:05954:8250:1","Name":"Ri Spreeler Weg","MunicipalityCode":"00000000","Municipality":"-","DistrictCode":"-","District":"-","Description":"","Authority":"VRR","DelfiName":"-","THID":"-","LastOperationDate":"","SEV":"nein","longitude":"7,327333","latitude":"51,26413","geojson_lng":7.327333,"geojson_lat":51.26413},"geometry":{"type":"Point","coordinates":[7.327333,51.26413]}}]}