{"type":"FeatureCollection","features":[{"type":"Feature","properties":{"SeqNo":"174379","Type":"S","DHID":"de:09371:18615","Parent":"de:09371:18615","Name":"Ehenfeld Bushaltestelle","MunicipalityCode":"09371127","Municipality":"Hirschau","DistrictCode":"","District":"","Description":"","Authority":"BEG","DelfiName":"-","THID":"D9249B0048B7","LastOperationDate":"1999-12-31T00:00:00","SEV":"nein","longitude":"11,943227","latitude":"49,578267","geojson_lng":11.943227,"geojson_lat":49.578267},"geometry":{"type":"Point","coordinates":[11.943227,49.578267]}},{"type":"Feature","properties":{"SeqNo":"174380","Type":"Q","DHID":"de:09371:18615:0:1","Parent":"de:09371:18615","Name":"1","MunicipalityCode":"00000000","Municipality":"-","DistrictCode":"-","District":"-","Description":"","Authority":"BEG","DelfiName":"-","THID":"-","LastOperationDate":"","SEV":"nein","longitude":"11,94312","latitude":"49,578267","geojson_lng":11.94312,"geojson_lat":49.578267},"geometry":{"type":"Point","coordinates":[11.94312,49.578267]}},{"type":"Feature","properties":{"SeqNo":"174381","Type":"Q","DHID":"de:09371:18615:0:2","Parent":"de:09371:18615","Name":"2","MunicipalityCode":"00000000","Municipality":"-","DistrictCode":"-","District":"-","Description":"","Authority":"BEG","DelfiName":"-","THID":"-","LastOperationDate":"","SEV":"nein","longitude":"11,943227","latitude":"49,578267","geojson_lng":11.943227,"geojson_lat":49.578267},"geometry":{"type":"Point","coordinates":[11.943227,49.578267]}},{"type":"Feature","properties":{"SeqNo":"174382","Type":"S","DHID":"de:09371:18616","Parent":"de:09371:18616","Name":"Ehenfeld Ortsmitte","MunicipalityCode":"09371127","Municipality":"Hirschau","DistrictCode":"-","District":"-","Description":"","Authority":"BEG","DelfiName":"-","THID":"D9249B0048B8","LastOperationDate":"1999-12-31T00:00:00","SEV":"nein","longitude":"11,943021","latitude":"49,578186","geojson_lng":11.943021,"geojson_lat":49.578186},"geometry":{"type":"Point","coordinates":[11.943021,49.578186]}},{"type":"Feature","properties":{"SeqNo":"174383","Type":"Q","DHID":"de:09371:18616:0:1","Parent":"de:09371:18616","Name":"1","MunicipalityCode":"00000000","Municipality":"-","DistrictCode":"-","District":"-","Description":"1","Authority":"BEG","DelfiName":"-","THID":"-","LastOperationDate":"","SEV":"nein","longitude":"11,943102","latitude":"49,578256","geojson_lng":11.943102,"geojson_lat":49.578256},"geometry":{"type":"Point","coordinates":[11.943102,49.578256]}},{"type":"Feature","properties":{"SeqNo":"174384","Type":"Q","DHID":"de:09371:18616:0:2","Parent":"de:09371:18616","Name":"2","MunicipalityCode":"00000000","Municipality":"-","DistrictCode":"-","District":"-","Description":"2","Authority":"BEG","DelfiName":"-","THID":"-","LastOperationDate":"","SEV":"nein","longitude":"11,943021","latitude":"49,578186","geojson_lng":11.943021,"geojson_lat":49.578186},"geometry":{"type":"Point","coordinates":[11.943021,49.578186]}},{"type":"Feature","properties":{"SeqNo":"174385","Type":"S","DHID":"de:09371:18617","Parent":"de:09371:18617","Name":"Ehenfeld Schule","MunicipalityCode":"09371127","Municipality":"Hirschau","DistrictCode":"-","District":"-","Description":"","Authority":"BEG","DelfiName":"-","THID":"D9249B0048B9","LastOperationDate":"1999-12-31T00:00:00","SEV":"nein","longitude":"11,948114","latitude":"49,578745","geojson_lng":11.948114,"geojson_lat":49.578745},"geometry":{"type":"Point","coordinates":[11.948114,49.578745]}},{"type":"Feature","properties":{"SeqNo":"174386","Type":"Q","DHID":"de:09371:18617:0:1","Parent":"de:09371:18617","Name":"1","MunicipalityCode":"00000000","Municipality":"-","DistrictCode":"-","District":"-","Description":"1","Authority":"BEG","DelfiName":"-","THID":"-","LastOperationDate":"","SEV":"nein","longitude":"11,947989","latitude":"49,578716","geojson_lng":11.947989,"geojson_lat":49.578716},"geometry":{"type":"Point","coordinates":[11.947989,49.578716]}},{"type":"Feature","properties":{"SeqNo":"174387","Type":"Q","DHID":"de:09371:18617:0:2","Parent":"de:09371:18617","Name":"2","MunicipalityCode":"00000000","Municipality":"-","DistrictCode":"-","District":"-","Description":"2","Authority":"BEG","DelfiName":"-","THID":"-","LastOperationDate":"","SEV":"nein","longitude":"11,948114","latitude":"49,578757","geojson_lng":11.948114,"geojson_lat":49.578757},"geometry":{"type":"Point","coordinates":[11.948114,49.578757]}},{"type":"Feature","properties":{"SeqNo":"174388","Type":"S","DHID":"de:09371:18618","Parent":"de:09371:18618","Name":"Ehenfeld Kindergarten","MunicipalityCode":"09371127","Municipality":"Hirschau","DistrictCode":"-","District":"-","Description":"","Authority":"BEG","DelfiName":"-","THID":"D9249B0048BA","LastOperationDate":"1999-12-31T00:00:00","SEV":"nein","longitude":"11,945464","latitude":"49,579823","geojson_lng":11.945464,"geojson_lat":49.579823},"geometry":{"type":"Point","coordinates":[11.945464,49.579823]}},{"type":"Feature","properties":{"SeqNo":"174389","Type":"Q","DHID":"de:09371:18618:0:1","Parent":"de:09371:18618","Name":"1","MunicipalityCode":"00000000","Municipality":"-","DistrictCode":"-","District":"-","Description":"1","Authority":"BEG","DelfiName":"-","THID":"-","LastOperationDate":"","SEV":"nein","longitude":"11,945437","latitude":"49,579933","geojson_lng":11.945437,"geojson_lat":49.579933},"geometry":{"type":"Point","coordinates":[11.945437,49.579933]}},{"type":"Feature","properties":{"SeqNo":"174390","Type":"Q","DHID":"de:09371:18618:0:2","Parent":"de:09371:18618","Name":"2","MunicipalityCode":"00000000","Municipality":"-","DistrictCode":"-","District":"-","Description":"2","Authority":"BEG","DelfiName":"-","THID":"-","LastOperationDate":"","SEV":"nein","longitude":"11,945464","latitude":"49,579834","geojson_lng":11.945464,"geojson_lat":49.579834},"geometry":{"type":"Point","coordinates":[11.945464,49.579834]}},{"type":"Feature","properties":{"SeqNo":"174391","Type":"S","DHID":"de:09371:18619","Parent":"de:09371:18619","Name":"Ehenfeld Hauptstr.","MunicipalityCode":"09371127","Municipality":"Hirschau","DistrictCode":"","District":"","Description":"","Authority":"BEG","DelfiName":"-","THID":"D9249B0048BB","LastOperationDate":"2025-06-14T00:00:00","SEV":"nein","longitude":"11,9463","latitude":"49,579141","geojson_lng":11.9463,"geojson_lat":49.579141},"geometry":{"type":"Point","coordinates":[11.9463,49.579141]}},{"type":"Feature","properties":{"SeqNo":"174392","Type":"Q","DHID":"de:09371:18619:0:1","Parent":"de:09371:18619","Name":"1","MunicipalityCode":"00000000","Municipality":"-","DistrictCode":"-","District":"-","Description":"","Authority":"BEG","DelfiName":"-","THID":"-","LastOperationDate":"","SEV":"nein","longitude":"11,946408","latitude":"49,579246","geojson_lng":11.946408,"geojson_lat":49.579246},"geometry":{"type":"Point","coordinates":[11.946408,49.579246]}},{"type":"Feature","properties":{"SeqNo":"174393","Type":"Q","DHID":"de:09371:18619:0:2","Parent":"de:09371:18619","Name":"2","MunicipalityCode":"00000000","Municipality":"-","DistrictCode":"-","District":"-","Description":"","Authority":"BEG","DelfiName":"-","THID":"-","LastOperationDate":"","SEV":"nein","longitude":"11,946192","latitude":"49,579077","geojson_lng":11.946192,"geojson_lat":49.579077},"geometry":{"type":"Point","coordinates":[11.946192,49.579077]}}]}