{"type":"FeatureCollection","features":[{"type":"Feature","properties":{"SeqNo":"770683","Type":"S","DHID":"de:07337:5505","Parent":"de:07337:5505","Name":"Böbingen, Kirche","MunicipalityCode":"07337011","Municipality":"Böbingen","DistrictCode":"","District":"","Description":"","Authority":"VRN","DelfiName":"-","THID":"D91CA9001581","LastOperationDate":"2025-06-13T00:00:00","SEV":"nein","longitude":"8,233464","latitude":"49,283254","geojson_lng":8.233464,"geojson_lat":49.283254},"geometry":{"type":"Point","coordinates":[8.233464,49.283254]}},{"type":"Feature","properties":{"SeqNo":"770684","Type":"Q","DHID":"de:07337:5505:0:RiO","Parent":"de:07337:5505","Name":"RiO Ort/Raiffeisen","MunicipalityCode":"00000000","Municipality":"-","DistrictCode":"-","District":"-","Description":"","Authority":"VRN","DelfiName":"-","THID":"-","LastOperationDate":"","SEV":"nein","longitude":"8,233563","latitude":"49,283219","geojson_lng":8.233563,"geojson_lat":49.283219},"geometry":{"type":"Point","coordinates":[8.233563,49.283219]}},{"type":"Feature","properties":{"SeqNo":"770685","Type":"Q","DHID":"de:07337:5505:0:RiW","Parent":"de:07337:5505","Name":"RiW Lustadt/Freimersheim/Altdorf","MunicipalityCode":"00000000","Municipality":"-","DistrictCode":"-","District":"-","Description":"","Authority":"VRN","DelfiName":"-","THID":"-","LastOperationDate":"","SEV":"nein","longitude":"8,233356","latitude":"49,283295","geojson_lng":8.233356,"geojson_lat":49.283295},"geometry":{"type":"Point","coordinates":[8.233356,49.283295]}},{"type":"Feature","properties":{"SeqNo":"771075","Type":"S","DHID":"de:07337:9101","Parent":"de:07337:9101","Name":"Böbingen, Ort","MunicipalityCode":"07337011","Municipality":"Böbingen","DistrictCode":"","District":"","Description":"","Authority":"VRN","DelfiName":"-","THID":"D91CA900238D","LastOperationDate":"2025-06-14T00:00:00","SEV":"nein","longitude":"8,237632","latitude":"49,284215","geojson_lng":8.237632,"geojson_lat":49.284215},"geometry":{"type":"Point","coordinates":[8.237632,49.284215]}},{"type":"Feature","properties":{"SeqNo":"771076","Type":"Q","DHID":"de:07337:9101:0:RiO","Parent":"de:07337:9101","Name":"RiO Gommersheim","MunicipalityCode":"00000000","Municipality":"-","DistrictCode":"-","District":"-","Description":"","Authority":"VRN","DelfiName":"-","THID":"-","LastOperationDate":"","SEV":"nein","longitude":"8,237803","latitude":"49,284191","geojson_lng":8.237803,"geojson_lat":49.284191},"geometry":{"type":"Point","coordinates":[8.237803,49.284191]}},{"type":"Feature","properties":{"SeqNo":"771077","Type":"Q","DHID":"de:07337:9101:0:RiW","Parent":"de:07337:9101","Name":"RiW Raiffeisen/Kirche","MunicipalityCode":"00000000","Municipality":"-","DistrictCode":"-","District":"-","Description":"","Authority":"VRN","DelfiName":"-","THID":"-","LastOperationDate":"","SEV":"nein","longitude":"8,237623","latitude":"49,284262","geojson_lng":8.237623,"geojson_lat":49.284262},"geometry":{"type":"Point","coordinates":[8.237623,49.284262]}},{"type":"Feature","properties":{"SeqNo":"771078","Type":"S","DHID":"de:07337:9102","Parent":"de:07337:9102","Name":"Böbingen, Raiffeisen","MunicipalityCode":"07337011","Municipality":"Böbingen","DistrictCode":"","District":"","Description":"","Authority":"VRN","DelfiName":"-","THID":"D91CA900238E","LastOperationDate":"2025-06-14T00:00:00","SEV":"nein","longitude":"8,236931","latitude":"49,284941","geojson_lng":8.236931,"geojson_lat":49.284941},"geometry":{"type":"Point","coordinates":[8.236931,49.284941]}},{"type":"Feature","properties":{"SeqNo":"771079","Type":"Q","DHID":"de:07337:9102:0:GeoEW","Parent":"de:07337:9102","Name":"RiN Altdorf","MunicipalityCode":"00000000","Municipality":"-","DistrictCode":"-","District":"-","Description":"","Authority":"VRN","DelfiName":"-","THID":"-","LastOperationDate":"","SEV":"nein","longitude":"8,236994","latitude":"49,285","geojson_lng":8.236994,"geojson_lat":49.285},"geometry":{"type":"Point","coordinates":[8.236994,49.285]}},{"type":"Feature","properties":{"SeqNo":"771080","Type":"Q","DHID":"de:07337:9102:0:GeoN","Parent":"de:07337:9102","Name":"RiS Kirche/Ort","MunicipalityCode":"00000000","Municipality":"-","DistrictCode":"-","District":"-","Description":"","Authority":"VRN","DelfiName":"-","THID":"-","LastOperationDate":"","SEV":"nein","longitude":"8,236859","latitude":"49,284947","geojson_lng":8.236859,"geojson_lat":49.284947},"geometry":{"type":"Point","coordinates":[8.236859,49.284947]}},{"type":"Feature","properties":{"SeqNo":"771081","Type":"S","DHID":"de:07337:9103","Parent":"de:07337:9103","Name":"Böbingen, Abzw. Altdorf","MunicipalityCode":"07337011","Municipality":"Böbingen","DistrictCode":"07337","District":"","Description":"","Authority":"VRN","DelfiName":"-","THID":"D91CA900238F","LastOperationDate":"1999-12-31T00:00:00","SEV":"nein","longitude":"8,232009","latitude":"49,282949","geojson_lng":8.232009,"geojson_lat":49.282949},"geometry":{"type":"Point","coordinates":[8.232009,49.282949]}}]}