{"type":"FeatureCollection","features":[{"type":"Feature","properties":{"SeqNo":"503075","Type":"S","DHID":"de:13075:6408","Parent":"de:13075:6408","Name":"Ferdinandshof Pasewalker Str.","MunicipalityCode":"13075033","Municipality":"Ferdinandshof","DistrictCode":"","District":"","Description":"","Authority":"VMV","DelfiName":"-","THID":"D93313001908","LastOperationDate":"2024-12-31T00:00:00","SEV":"nein","longitude":"13,894476","latitude":"53,663548","geojson_lng":13.894476,"geojson_lat":53.663548},"geometry":{"type":"Point","coordinates":[13.894476,53.663548]}},{"type":"Feature","properties":{"SeqNo":"503076","Type":"A","DHID":"de:13075:6408:1","Parent":"de:13075:6408","Name":"Bus","MunicipalityCode":"00000000","Municipality":"-","DistrictCode":"-","District":"-","Description":"","Authority":"VMV","DelfiName":"-","THID":"-","LastOperationDate":"","SEV":"nein","longitude":"13,894566","latitude":"53,663494","geojson_lng":13.894566,"geojson_lat":53.663494},"geometry":{"type":"Point","coordinates":[13.894566,53.663494]}},{"type":"Feature","properties":{"SeqNo":"503077","Type":"Q","DHID":"de:13075:6408:1:1","Parent":"de:13075:6408:1","Name":"64081","MunicipalityCode":"00000000","Municipality":"-","DistrictCode":"-","District":"-","Description":"","Authority":"VMV","DelfiName":"-","THID":"-","LastOperationDate":"","SEV":"nein","longitude":"13,894503","latitude":"53,663659","geojson_lng":13.894503,"geojson_lat":53.663659},"geometry":{"type":"Point","coordinates":[13.894503,53.663659]}},{"type":"Feature","properties":{"SeqNo":"503078","Type":"Q","DHID":"de:13075:6408:1:2","Parent":"de:13075:6408:1","Name":"64082","MunicipalityCode":"00000000","Municipality":"-","DistrictCode":"-","District":"-","Description":"","Authority":"VMV","DelfiName":"-","THID":"-","LastOperationDate":"","SEV":"nein","longitude":"13,894422","latitude":"53,663585","geojson_lng":13.894422,"geojson_lat":53.663585},"geometry":{"type":"Point","coordinates":[13.894422,53.663585]}},{"type":"Feature","properties":{"SeqNo":"503105","Type":"S","DHID":"de:13075:6415","Parent":"de:13075:6415","Name":"Ferdinandshof Schule","MunicipalityCode":"13075033","Municipality":"Ferdinandshof","DistrictCode":"","District":"","Description":"","Authority":"VMV","DelfiName":"-","THID":"D9331300190F","LastOperationDate":"2024-12-20T00:00:00","SEV":"nein","longitude":"13,8902","latitude":"53,661743","geojson_lng":13.8902,"geojson_lat":53.661743},"geometry":{"type":"Point","coordinates":[13.8902,53.661743]}},{"type":"Feature","properties":{"SeqNo":"503106","Type":"A","DHID":"de:13075:6415:1","Parent":"de:13075:6415","Name":"Bus","MunicipalityCode":"00000000","Municipality":"-","DistrictCode":"-","District":"-","Description":"","Authority":"VMV","DelfiName":"-","THID":"-","LastOperationDate":"","SEV":"nein","longitude":"13,89029","latitude":"53,66169","geojson_lng":13.89029,"geojson_lat":53.66169},"geometry":{"type":"Point","coordinates":[13.89029,53.66169]}},{"type":"Feature","properties":{"SeqNo":"503107","Type":"Q","DHID":"de:13075:6415:1:1","Parent":"de:13075:6415:1","Name":"64151","MunicipalityCode":"00000000","Municipality":"-","DistrictCode":"-","District":"-","Description":"","Authority":"VMV","DelfiName":"-","THID":"-","LastOperationDate":"","SEV":"nein","longitude":"13,89002","latitude":"53,661754","geojson_lng":13.89002,"geojson_lat":53.661754},"geometry":{"type":"Point","coordinates":[13.89002,53.661754]}},{"type":"Feature","properties":{"SeqNo":"503850","Type":"S","DHID":"de:13075:6735","Parent":"de:13075:6735","Name":"Ferdinandshof FIL","MunicipalityCode":"13075033","Municipality":"Ferdinandshof","DistrictCode":"","District":"","Description":"","Authority":"VMV","DelfiName":"-","THID":"D93313001A4F","LastOperationDate":"1999-12-31T00:00:00","SEV":"nein","longitude":"13,89241","latitude":"53,662366","geojson_lng":13.89241,"geojson_lat":53.662366},"geometry":{"type":"Point","coordinates":[13.89241,53.662366]}},{"type":"Feature","properties":{"SeqNo":"503851","Type":"A","DHID":"de:13075:6735:1","Parent":"de:13075:6735","Name":"Bus","MunicipalityCode":"00000000","Municipality":"-","DistrictCode":"-","District":"-","Description":"","Authority":"VMV","DelfiName":"-","THID":"-","LastOperationDate":"","SEV":"nein","longitude":"13,8925","latitude":"53,662313","geojson_lng":13.8925,"geojson_lat":53.662313},"geometry":{"type":"Point","coordinates":[13.8925,53.662313]}}]}