{"type":"FeatureCollection","features":[{"type":"Feature","properties":{"highway":"bus_stop","public_transport":"platform","name":"Balderikstraat","ref:IFOPT":"NL:Q:47642180","_quaycode":"NL:Q:47642180","_town":"Deventer","_status":"available","_mode":"bus","_direction":92,"_visuallyAccessible":false,"_disabledAccessible":true,"geojson_lng":6.162998070387023,"geojson_lat":52.27039236826916},"geometry":{"type":"Point","coordinates":[6.162998070387023,52.27039236826916]}},{"type":"Feature","properties":{"highway":"bus_stop","public_transport":"platform","name":"Koningin Wilhelminalaan","ref:IFOPT":"NL:Q:47644240","_quaycode":"NL:Q:47644240","_town":"Deventer","_status":"available","_mode":"bus","_direction":51,"_visuallyAccessible":false,"_disabledAccessible":true,"geojson_lng":6.167625244191003,"geojson_lat":52.271916835889215},"geometry":{"type":"Point","coordinates":[6.167625244191003,52.271916835889215]}},{"type":"Feature","properties":{"highway":"bus_stop","public_transport":"platform","name":"Beeckestein","ref:IFOPT":"NL:Q:47642210","_quaycode":"NL:Q:47642210","_town":"Deventer","_status":"available","_mode":"bus","_direction":275,"_visuallyAccessible":true,"_disabledAccessible":true,"geojson_lng":6.1543341829000955,"geojson_lat":52.27094328645773},"geometry":{"type":"Point","coordinates":[6.1543341829000955,52.27094328645773]}},{"type":"Feature","properties":{"highway":"bus_stop","public_transport":"platform","name":"Balderikstraat","ref:IFOPT":"NL:Q:47642170","_quaycode":"NL:Q:47642170","_town":"Deventer","_status":"available","_mode":"bus","_direction":272,"_visuallyAccessible":false,"_disabledAccessible":true,"geojson_lng":6.163103752111115,"geojson_lat":52.27057143631149},"geometry":{"type":"Point","coordinates":[6.163103752111115,52.27057143631149]}},{"type":"Feature","properties":{"highway":"bus_stop","public_transport":"platform","name":"Keizer Karellaan","ref:IFOPT":"NL:Q:47644170","_quaycode":"NL:Q:47644170","_town":"Deventer","_status":"available","_mode":"bus","_direction":0,"_visuallyAccessible":false,"_disabledAccessible":false,"geojson_lng":6.169577464556882,"geojson_lat":52.272119639062055},"geometry":{"type":"Point","coordinates":[6.169577464556882,52.272119639062055]}},{"type":"Feature","properties":{"highway":"bus_stop","public_transport":"platform","name":"Wkc Keizerslanden","ref:IFOPT":"NL:Q:47642150","_quaycode":"NL:Q:47642150","_town":"Deventer","_status":"available","_mode":"bus","_direction":315,"_visuallyAccessible":false,"_disabledAccessible":true,"geojson_lng":6.165935827852159,"geojson_lat":52.26915065881224},"geometry":{"type":"Point","coordinates":[6.165935827852159,52.26915065881224]}},{"type":"Feature","properties":{"highway":"bus_stop","public_transport":"platform","name":"Mecklenburgstraat","ref:IFOPT":"NL:Q:47644150","_quaycode":"NL:Q:47644150","_town":"Deventer","_status":"available","_mode":"bus","_direction":287,"_visuallyAccessible":false,"_disabledAccessible":false,"geojson_lng":6.172103166898579,"geojson_lat":52.2716085411301},"geometry":{"type":"Point","coordinates":[6.172103166898579,52.2716085411301]}},{"type":"Feature","properties":{"highway":"bus_stop","public_transport":"platform","name":"Keizer Karellaan","ref:IFOPT":"NL:Q:47644180","_quaycode":"NL:Q:47644180","_town":"Deventer","_status":"available","_mode":"bus","_direction":104,"_visuallyAccessible":false,"_disabledAccessible":true,"geojson_lng":6.169781297426494,"geojson_lat":52.27204638427755},"geometry":{"type":"Point","coordinates":[6.169781297426494,52.27204638427755]}},{"type":"Feature","properties":{"highway":"bus_stop","public_transport":"platform","name":"Ludgerstraat","ref:IFOPT":"NL:Q:47642190","_quaycode":"NL:Q:47642190","_town":"Deventer","_status":"available","_mode":"bus","_direction":272,"_visuallyAccessible":false,"_disabledAccessible":true,"geojson_lng":6.158154592407571,"geojson_lat":52.270738656693524},"geometry":{"type":"Point","coordinates":[6.158154592407571,52.270738656693524]}},{"type":"Feature","properties":{"highway":"bus_stop","public_transport":"platform","name":"Beeckestein","ref:IFOPT":"NL:Q:47642220","_quaycode":"NL:Q:47642220","_town":"Deventer","_status":"available","_mode":"bus","_direction":93,"_visuallyAccessible":true,"_disabledAccessible":true,"geojson_lng":6.156775365589717,"geojson_lat":52.27062181529594},"geometry":{"type":"Point","coordinates":[6.156775365589717,52.27062181529594]}},{"type":"Feature","properties":{"highway":"bus_stop","public_transport":"platform","name":"Prinses Margrietstraat","ref:IFOPT":"NL:Q:47645030","_quaycode":"NL:Q:47645030","_town":"Deventer","_status":"available","_mode":"bus","_direction":137,"_visuallyAccessible":false,"_disabledAccessible":false,"geojson_lng":6.17448743810042,"geojson_lat":52.26890523174261},"geometry":{"type":"Point","coordinates":[6.17448743810042,52.26890523174261]}},{"type":"Feature","properties":{"highway":"bus_stop","public_transport":"platform","name":"Splithofstraat","ref:IFOPT":"NL:Q:47645002","_quaycode":"NL:Q:47645002","_town":"Deventer","_status":"available","_mode":"bus","_direction":30,"_visuallyAccessible":false,"_disabledAccessible":true,"geojson_lng":6.158254957841382,"geojson_lat":52.268077524332085},"geometry":{"type":"Point","coordinates":[6.158254957841382,52.268077524332085]}},{"type":"Feature","properties":{"highway":"bus_stop","public_transport":"platform","name":"Splithofstraat","ref:IFOPT":"NL:Q:47645001","_quaycode":"NL:Q:47645001","_town":"Deventer","_status":"available","_mode":"bus","_direction":210,"_visuallyAccessible":false,"_disabledAccessible":true,"geojson_lng":6.158196519342081,"geojson_lat":52.268086893818925},"geometry":{"type":"Point","coordinates":[6.158196519342081,52.268086893818925]}},{"type":"Feature","properties":{"highway":"bus_stop","public_transport":"platform","name":"Mecklenburgstraat","ref:IFOPT":"NL:Q:47644160","_quaycode":"NL:Q:47644160","_town":"Deventer","_status":"available","_mode":"bus","_direction":107,"_visuallyAccessible":false,"_disabledAccessible":true,"geojson_lng":6.171781190567655,"geojson_lat":52.27162865590786},"geometry":{"type":"Point","coordinates":[6.171781190567655,52.27162865590786]}},{"type":"Feature","properties":{"highway":"bus_stop","public_transport":"platform","name":"Wkc Keizerslanden","ref:IFOPT":"NL:Q:47642160","_quaycode":"NL:Q:47642160","_town":"Deventer","_status":"available","_mode":"bus","_direction":134,"_visuallyAccessible":false,"_disabledAccessible":true,"geojson_lng":6.16601899918645,"geojson_lat":52.26888046735191},"geometry":{"type":"Point","coordinates":[6.16601899918645,52.26888046735191]}},{"type":"Feature","properties":{"highway":"bus_stop","public_transport":"platform","name":"Ludgerstraat","ref:IFOPT":"NL:Q:47642200","_quaycode":"NL:Q:47642200","_town":"Deventer","_status":"available","_mode":"bus","_direction":92,"_visuallyAccessible":false,"_disabledAccessible":true,"geojson_lng":6.159674544474638,"geojson_lat":52.27052200236859},"geometry":{"type":"Point","coordinates":[6.159674544474638,52.27052200236859]}},{"type":"Feature","properties":{"highway":"bus_stop","public_transport":"platform","name":"Koningin Wilhelminalaan","ref:IFOPT":"NL:Q:47644230","_quaycode":"NL:Q:47644230","_town":"Deventer","_status":"available","_mode":"bus","_direction":231,"_visuallyAccessible":true,"_disabledAccessible":true,"geojson_lng":6.167136755593612,"geojson_lat":52.27163244223615},"geometry":{"type":"Point","coordinates":[6.167136755593612,52.27163244223615]}},{"type":"Feature","properties":{"highway":"bus_stop","public_transport":"platform","name":"Prinses Margrietstraat","ref:IFOPT":"NL:Q:47645020","_quaycode":"NL:Q:47645020","_town":"Deventer","_status":"available","_mode":"bus","_direction":319,"_visuallyAccessible":true,"_disabledAccessible":true,"geojson_lng":6.174518804283989,"geojson_lat":52.26902186821769},"geometry":{"type":"Point","coordinates":[6.174518804283989,52.26902186821769]}}]}