{"type":"FeatureCollection","features":[{"type":"Feature","properties":{"highway":"bus_stop","public_transport":"platform","name":"Anemoonstraat","ref:IFOPT":"NL:Q:40600220","_quaycode":"NL:Q:40600220","_town":"Rhenen","_status":"available","_mode":"bus","_direction":93,"_visuallyAccessible":true,"_disabledAccessible":true,"geojson_lng":5.570048790461675,"geojson_lat":51.96566937408645},"geometry":{"type":"Point","coordinates":[5.570048790461675,51.96566937408645]}},{"type":"Feature","properties":{"highway":"bus_stop","public_transport":"platform","name":"Paardenveld","ref:IFOPT":"NL:Q:40600020","_quaycode":"NL:Q:40600020","_town":"Rhenen","_status":"available","_mode":"bus","_direction":326,"_visuallyAccessible":false,"_disabledAccessible":true,"geojson_lng":5.559696366310238,"geojson_lat":51.96013031118854},"geometry":{"type":"Point","coordinates":[5.559696366310238,51.96013031118854]}},{"type":"Feature","properties":{"highway":"bus_stop","public_transport":"platform","name":"Station/Tuinlaan","ref:IFOPT":"NL:Q:40600110","_quaycode":"NL:Q:40600110","_town":"Rhenen","_status":"available","_mode":"bus","_direction":100,"_visuallyAccessible":true,"_disabledAccessible":false,"geojson_lng":5.579949834242075,"geojson_lat":51.95701587025105},"geometry":{"type":"Point","coordinates":[5.579949834242075,51.95701587025105]}},{"type":"Feature","properties":{"highway":"bus_stop","public_transport":"platform","name":"Anemoonstraat","ref:IFOPT":"NL:Q:40600230","_quaycode":"NL:Q:40600230","_town":"Rhenen","_status":"available","_mode":"bus","_direction":210,"_visuallyAccessible":true,"_disabledAccessible":false,"geojson_lng":5.569144891743167,"geojson_lat":51.96523934292371},"geometry":{"type":"Point","coordinates":[5.569144891743167,51.96523934292371]}},{"type":"Feature","properties":{"highway":"bus_stop","public_transport":"platform","name":"Ribeslaan","ref:IFOPT":"NL:Q:40600170","_quaycode":"NL:Q:40600170","_town":"Rhenen","_status":"available","_mode":"bus","_direction":194,"_visuallyAccessible":true,"_disabledAccessible":true,"geojson_lng":5.578890623531131,"geojson_lat":51.96447782679968},"geometry":{"type":"Point","coordinates":[5.578890623531131,51.96447782679968]}},{"type":"Feature","properties":{"highway":"bus_stop","public_transport":"platform","name":"Achterbergse Poort","ref:IFOPT":"NL:Q:40700080","_quaycode":"NL:Q:40700080","_town":"Rhenen","_status":"available","_mode":"bus","_direction":351,"_visuallyAccessible":true,"_disabledAccessible":true,"geojson_lng":5.5787139448831615,"geojson_lat":51.97080581648833},"geometry":{"type":"Point","coordinates":[5.5787139448831615,51.97080581648833]}},{"type":"Feature","properties":{"highway":"bus_stop","public_transport":"platform","name":"Tollekamp","ref:IFOPT":"NL:Q:40600270","_quaycode":"NL:Q:40600270","_town":"Rhenen","_status":"available","_mode":"bus","_direction":170,"_visuallyAccessible":false,"_disabledAccessible":false,"geojson_lng":5.568859310101538,"geojson_lat":51.95939744365765},"geometry":{"type":"Point","coordinates":[5.568859310101538,51.95939744365765]}},{"type":"Feature","properties":{"highway":"bus_stop","public_transport":"platform","name":"Valleiweg","ref:IFOPT":"NL:Q:40600180","_quaycode":"NL:Q:40600180","_town":"Rhenen","_status":"available","_mode":"bus","_direction":121,"_visuallyAccessible":true,"_disabledAccessible":true,"geojson_lng":5.574611082709411,"geojson_lat":51.9640712722026},"geometry":{"type":"Point","coordinates":[5.574611082709411,51.9640712722026]}},{"type":"Feature","properties":{"highway":"bus_stop","public_transport":"platform","name":"Station","ref:IFOPT":"NL:Q:40601140","_quaycode":"NL:Q:40601140","_town":"Rhenen","_status":"available","_mode":"bus","_direction":20,"_visuallyAccessible":false,"_disabledAccessible":false,"geojson_lng":5.578390826687313,"geojson_lat":51.956461147429835},"geometry":{"type":"Point","coordinates":[5.578390826687313,51.956461147429835]}},{"type":"Feature","properties":{"highway":"bus_stop","public_transport":"platform","name":"Valleiweg","ref:IFOPT":"NL:Q:40600190","_quaycode":"NL:Q:40600190","_town":"Rhenen","_status":"available","_mode":"bus","_direction":311,"_visuallyAccessible":true,"_disabledAccessible":true,"geojson_lng":5.5759183734026925,"geojson_lat":51.96353887512687},"geometry":{"type":"Point","coordinates":[5.5759183734026925,51.96353887512687]}},{"type":"Feature","properties":{"highway":"bus_stop","public_transport":"platform","name":"Anjerlaan","ref:IFOPT":"NL:Q:40600210","_quaycode":"NL:Q:40600210","_town":"Rhenen","_status":"available","_mode":"bus","_direction":283,"_visuallyAccessible":true,"_disabledAccessible":true,"geojson_lng":5.573554256137283,"geojson_lat":51.96535826776205},"geometry":{"type":"Point","coordinates":[5.573554256137283,51.96535826776205]}},{"type":"Feature","properties":{"highway":"bus_stop","public_transport":"platform","name":"Platanenlaan","ref:IFOPT":"NL:Q:40600250","_quaycode":"NL:Q:40600250","_town":"Rhenen","_status":"available","_mode":"bus","_direction":169,"_visuallyAccessible":true,"_disabledAccessible":true,"geojson_lng":5.568146198873528,"geojson_lat":51.96294889032228},"geometry":{"type":"Point","coordinates":[5.568146198873528,51.96294889032228]}},{"type":"Feature","properties":{"highway":"bus_stop","public_transport":"platform","name":"Paardenveld","ref:IFOPT":"NL:Q:40600030","_quaycode":"NL:Q:40600030","_town":"Rhenen","_status":"available","_mode":"bus","_direction":140,"_visuallyAccessible":true,"_disabledAccessible":false,"geojson_lng":5.560536628694483,"geojson_lat":51.95920328799571},"geometry":{"type":"Point","coordinates":[5.560536628694483,51.95920328799571]}},{"type":"Feature","properties":{"highway":"bus_stop","public_transport":"platform","name":"Platanenlaan","ref:IFOPT":"NL:Q:40600240","_quaycode":"NL:Q:40600240","_town":"Rhenen","_status":"available","_mode":"bus","_direction":350,"_visuallyAccessible":true,"_disabledAccessible":true,"geojson_lng":5.568306683328054,"geojson_lat":51.96305650166436},"geometry":{"type":"Point","coordinates":[5.568306683328054,51.96305650166436]}},{"type":"Feature","properties":{"highway":"bus_stop","public_transport":"platform","name":"Station/Tuinlaan","ref:IFOPT":"NL:Q:40600100","_quaycode":"NL:Q:40600100","_town":"Rhenen","_status":"available","_mode":"bus","_direction":282,"_visuallyAccessible":true,"_disabledAccessible":true,"geojson_lng":5.580357680380153,"geojson_lat":51.95713204741673},"geometry":{"type":"Point","coordinates":[5.580357680380153,51.95713204741673]}},{"type":"Feature","properties":{"highway":"bus_stop","public_transport":"platform","name":"Tollekamp","ref:IFOPT":"NL:Q:40600260","_quaycode":"NL:Q:40600260","_town":"Rhenen","_status":"available","_mode":"bus","_direction":351,"_visuallyAccessible":false,"_disabledAccessible":false,"geojson_lng":5.568991815550314,"geojson_lat":51.95978373219863},"geometry":{"type":"Point","coordinates":[5.568991815550314,51.95978373219863]}},{"type":"Feature","properties":{"highway":"bus_stop","public_transport":"platform","name":"Herenstraat","ref:IFOPT":"NL:Q:40600070","_quaycode":"NL:Q:40600070","_town":"Rhenen","_status":"available","_mode":"bus","_direction":82,"_visuallyAccessible":true,"_disabledAccessible":true,"geojson_lng":5.57237101208379,"geojson_lat":51.95718984707324},"geometry":{"type":"Point","coordinates":[5.57237101208379,51.95718984707324]}},{"type":"Feature","properties":{"highway":"bus_stop","public_transport":"platform","name":"Stad","ref:IFOPT":"NL:Q:40600050","_quaycode":"NL:Q:40600050","_town":"Rhenen","_status":"available","_mode":"bus","_direction":80,"_visuallyAccessible":false,"_disabledAccessible":false,"geojson_lng":5.56499765683334,"geojson_lat":51.95783041217446},"geometry":{"type":"Point","coordinates":[5.56499765683334,51.95783041217446]}},{"type":"Feature","properties":{"highway":"bus_stop","public_transport":"platform","name":"Herenstraat","ref:IFOPT":"NL:Q:40600060","_quaycode":"NL:Q:40600060","_town":"Rhenen","_status":"available","_mode":"bus","_direction":266,"_visuallyAccessible":true,"_disabledAccessible":true,"geojson_lng":5.5714404555427315,"geojson_lat":51.95731714512232},"geometry":{"type":"Point","coordinates":[5.5714404555427315,51.95731714512232]}},{"type":"Feature","properties":{"highway":"bus_stop","public_transport":"platform","name":"Stad","ref:IFOPT":"NL:Q:40600040","_quaycode":"NL:Q:40600040","_town":"Rhenen","_status":"available","_mode":"bus","_direction":269,"_visuallyAccessible":false,"_disabledAccessible":false,"geojson_lng":5.564852744182527,"geojson_lat":51.95797444293423},"geometry":{"type":"Point","coordinates":[5.564852744182527,51.95797444293423]}},{"type":"Feature","properties":{"highway":"bus_stop","public_transport":"platform","name":"Anjerlaan","ref:IFOPT":"NL:Q:40600200","_quaycode":"NL:Q:40600200","_town":"Rhenen","_status":"available","_mode":"bus","_direction":98,"_visuallyAccessible":false,"_disabledAccessible":true,"geojson_lng":5.573510230646697,"geojson_lat":51.96526845543066},"geometry":{"type":"Point","coordinates":[5.573510230646697,51.96526845543066]}},{"type":"Feature","properties":{"highway":"bus_stop","public_transport":"platform","name":"Ribeslaan","ref:IFOPT":"NL:Q:40600160","_quaycode":"NL:Q:40600160","_town":"Rhenen","_status":"available","_mode":"bus","_direction":16,"_visuallyAccessible":false,"_disabledAccessible":true,"geojson_lng":5.579168042771212,"geojson_lat":51.96470207933225},"geometry":{"type":"Point","coordinates":[5.579168042771212,51.96470207933225]}}]}