{"type":"FeatureCollection","features":[{"type":"Feature","properties":{"SeqNo":"728360","Type":"S","DHID":"de:03241:8995","Parent":"de:03241:8995","Name":"Burgdorf Duderstädter Weg","MunicipalityCode":"03241003","Municipality":"Burgdorf","DistrictCode":"","District":"","Description":"","Authority":"HannIT","DelfiName":"-","THID":"D90CA9002323","LastOperationDate":"2025-06-13T00:00:00","SEV":"nein","longitude":"10,026384","latitude":"52,442358","geojson_lng":10.026384,"geojson_lat":52.442358},"geometry":{"type":"Point","coordinates":[10.026384,52.442358]}},{"type":"Feature","properties":{"SeqNo":"728361","Type":"A","DHID":"de:03241:8995:1","Parent":"de:03241:8995","Name":"Bus","MunicipalityCode":"00000000","Municipality":"-","DistrictCode":"-","District":"-","Description":"","Authority":"HannIT","DelfiName":"-","THID":"-","LastOperationDate":"","SEV":"nein","longitude":"10,026411","latitude":"52,442369","geojson_lng":10.026411,"geojson_lat":52.442369},"geometry":{"type":"Point","coordinates":[10.026411,52.442369]}},{"type":"Feature","properties":{"SeqNo":"728362","Type":"Q","DHID":"de:03241:8995:1:8995","Parent":"de:03241:8995:1","Name":"Burgdorf/Betriebshof","MunicipalityCode":"00000000","Municipality":"-","DistrictCode":"-","District":"-","Description":"","Authority":"HannIT","DelfiName":"-","THID":"-","LastOperationDate":"","SEV":"nein","longitude":"10,026375","latitude":"52,442451","geojson_lng":10.026375,"geojson_lat":52.442451},"geometry":{"type":"Point","coordinates":[10.026375,52.442451]}},{"type":"Feature","properties":{"SeqNo":"728363","Type":"Q","DHID":"de:03241:8995:1:8996","Parent":"de:03241:8995:1","Name":"Burgdorf/Peiner Weg","MunicipalityCode":"00000000","Municipality":"-","DistrictCode":"-","District":"-","Description":"","Authority":"HannIT","DelfiName":"-","THID":"-","LastOperationDate":"","SEV":"nein","longitude":"10,026438","latitude":"52,442275","geojson_lng":10.026438,"geojson_lat":52.442275},"geometry":{"type":"Point","coordinates":[10.026438,52.442275]}},{"type":"Feature","properties":{"SeqNo":"728364","Type":"S","DHID":"de:03241:8997","Parent":"de:03241:8997","Name":"Burgdorf Schwüblingser Weg","MunicipalityCode":"03241003","Municipality":"Burgdorf","DistrictCode":"","District":"","Description":"","Authority":"HannIT","DelfiName":"-","THID":"D90CA9002325","LastOperationDate":"2025-06-13T00:00:00","SEV":"nein","longitude":"10,026295","latitude":"52,439871","geojson_lng":10.026295,"geojson_lat":52.439871},"geometry":{"type":"Point","coordinates":[10.026295,52.439871]}},{"type":"Feature","properties":{"SeqNo":"728365","Type":"A","DHID":"de:03241:8997:1","Parent":"de:03241:8997","Name":"Bus","MunicipalityCode":"00000000","Municipality":"-","DistrictCode":"-","District":"-","Description":"","Authority":"HannIT","DelfiName":"-","THID":"-","LastOperationDate":"","SEV":"nein","longitude":"10,026312","latitude":"52,43985","geojson_lng":10.026312,"geojson_lat":52.43985},"geometry":{"type":"Point","coordinates":[10.026312,52.43985]}},{"type":"Feature","properties":{"SeqNo":"728366","Type":"Q","DHID":"de:03241:8997:1:8997","Parent":"de:03241:8997:1","Name":"Burgdorf/Betriebshof","MunicipalityCode":"00000000","Municipality":"-","DistrictCode":"-","District":"-","Description":"","Authority":"HannIT","DelfiName":"-","THID":"-","LastOperationDate":"","SEV":"nein","longitude":"10,026303","latitude":"52,439943","geojson_lng":10.026303,"geojson_lat":52.439943},"geometry":{"type":"Point","coordinates":[10.026303,52.439943]}},{"type":"Feature","properties":{"SeqNo":"728367","Type":"Q","DHID":"de:03241:8997:1:8998","Parent":"de:03241:8997:1","Name":"Burgdorf/Kl.Brückendamm","MunicipalityCode":"00000000","Municipality":"-","DistrictCode":"-","District":"-","Description":"","Authority":"HannIT","DelfiName":"-","THID":"-","LastOperationDate":"","SEV":"nein","longitude":"10,026295","latitude":"52,439789","geojson_lng":10.026295,"geojson_lat":52.439789},"geometry":{"type":"Point","coordinates":[10.026295,52.439789]}},{"type":"Feature","properties":{"SeqNo":"728416","Type":"S","DHID":"de:03241:9026","Parent":"de:03241:9026","Name":"Burgdorf Uhlandstraße","MunicipalityCode":"03241003","Municipality":"Burgdorf","DistrictCode":"","District":"","Description":"","Authority":"HannIT","DelfiName":"-","THID":"D90CA9002342","LastOperationDate":"2025-06-14T00:00:00","SEV":"nein","longitude":"10,022989","latitude":"52,437435","geojson_lng":10.022989,"geojson_lat":52.437435},"geometry":{"type":"Point","coordinates":[10.022989,52.437435]}},{"type":"Feature","properties":{"SeqNo":"728417","Type":"A","DHID":"de:03241:9026:1","Parent":"de:03241:9026","Name":"Bus","MunicipalityCode":"00000000","Municipality":"-","DistrictCode":"-","District":"-","Description":"","Authority":"HannIT","DelfiName":"-","THID":"-","LastOperationDate":"","SEV":"nein","longitude":"10,023025","latitude":"52,437435","geojson_lng":10.023025,"geojson_lat":52.437435},"geometry":{"type":"Point","coordinates":[10.023025,52.437435]}},{"type":"Feature","properties":{"SeqNo":"728418","Type":"Q","DHID":"de:03241:9026:1:9026","Parent":"de:03241:9026:1","Name":"Burgdorf/Kl.Brückendamm","MunicipalityCode":"00000000","Municipality":"-","DistrictCode":"-","District":"-","Description":"","Authority":"HannIT","DelfiName":"-","THID":"-","LastOperationDate":"","SEV":"nein","longitude":"10,023007","latitude":"52,437456","geojson_lng":10.023007,"geojson_lat":52.437456},"geometry":{"type":"Point","coordinates":[10.023007,52.437456]}},{"type":"Feature","properties":{"SeqNo":"728419","Type":"S","DHID":"de:03241:9028","Parent":"de:03241:9028","Name":"Burgdorf Reuterstraße","MunicipalityCode":"03241003","Municipality":"Burgdorf","DistrictCode":"","District":"","Description":"","Authority":"HannIT","DelfiName":"-","THID":"D90CA9002344","LastOperationDate":"2025-06-14T00:00:00","SEV":"nein","longitude":"10,020599","latitude":"52,440145","geojson_lng":10.020599,"geojson_lat":52.440145},"geometry":{"type":"Point","coordinates":[10.020599,52.440145]}},{"type":"Feature","properties":{"SeqNo":"728420","Type":"A","DHID":"de:03241:9028:1","Parent":"de:03241:9028","Name":"Bus","MunicipalityCode":"00000000","Municipality":"-","DistrictCode":"-","District":"-","Description":"","Authority":"HannIT","DelfiName":"-","THID":"-","LastOperationDate":"","SEV":"nein","longitude":"10,020581","latitude":"52,440151","geojson_lng":10.020581,"geojson_lat":52.440151},"geometry":{"type":"Point","coordinates":[10.020581,52.440151]}},{"type":"Feature","properties":{"SeqNo":"728421","Type":"Q","DHID":"de:03241:9028:1:9028","Parent":"de:03241:9028:1","Name":"Burgdorf/Kl.Brückendamm","MunicipalityCode":"00000000","Municipality":"-","DistrictCode":"-","District":"-","Description":"","Authority":"HannIT","DelfiName":"-","THID":"-","LastOperationDate":"","SEV":"nein","longitude":"10,020527","latitude":"52,440173","geojson_lng":10.020527,"geojson_lat":52.440173},"geometry":{"type":"Point","coordinates":[10.020527,52.440173]}},{"type":"Feature","properties":{"SeqNo":"728422","Type":"Q","DHID":"de:03241:9028:1:9029","Parent":"de:03241:9028:1","Name":"Burgdorf/Betriebshof","MunicipalityCode":"00000000","Municipality":"-","DistrictCode":"-","District":"-","Description":"","Authority":"HannIT","DelfiName":"-","THID":"-","LastOperationDate":"","SEV":"nein","longitude":"10,020644","latitude":"52,440107","geojson_lng":10.020644,"geojson_lat":52.440107},"geometry":{"type":"Point","coordinates":[10.020644,52.440107]}}]}