{"type":"FeatureCollection","features":[{"type":"Feature","properties":{"SeqNo":"27253","Type":"S","DHID":"de:08127:20015","Parent":"de:08127:20015","Name":"Hessental Bahnhof","MunicipalityCode":"08127076","Municipality":"Schwäbisch Hall","DistrictCode":"","District":"","Description":"","Authority":"NVBW","DelfiName":"-","THID":"D91FBF004E2F","LastOperationDate":"2025-06-14T00:00:00","SEV":"nein","longitude":"9,766762","latitude":"49,096763","geojson_lng":9.766762,"geojson_lat":49.096763},"geometry":{"type":"Point","coordinates":[9.766762,49.096763]}},{"type":"Feature","properties":{"SeqNo":"27254","Type":"A","DHID":"de:08127:20015:1","Parent":"de:08127:20015","Name":"Gleis 1","MunicipalityCode":"00000000","Municipality":"-","DistrictCode":"-","District":"-","Description":"","Authority":"NVBW","DelfiName":"-","THID":"-","LastOperationDate":"","SEV":"nein","longitude":"9,766933","latitude":"49,096733","geojson_lng":9.766933,"geojson_lat":49.096733},"geometry":{"type":"Point","coordinates":[9.766933,49.096733]}},{"type":"Feature","properties":{"SeqNo":"27255","Type":"A","DHID":"de:08127:20015:2","Parent":"de:08127:20015","Name":"Bus","MunicipalityCode":"00000000","Municipality":"-","DistrictCode":"-","District":"-","Description":"","Authority":"NVBW","DelfiName":"-","THID":"-","LastOperationDate":"","SEV":"nein","longitude":"9,766681","latitude":"49,096886","geojson_lng":9.766681,"geojson_lat":49.096886},"geometry":{"type":"Point","coordinates":[9.766681,49.096886]}},{"type":"Feature","properties":{"SeqNo":"27258","Type":"A","DHID":"de:08127:20015:71","Parent":"de:08127:20015","Name":"Überführung Einkorn","MunicipalityCode":"00000000","Municipality":"-","DistrictCode":"-","District":"-","Description":"","Authority":"NVBW","DelfiName":"-","THID":"-","LastOperationDate":"","SEV":"nein","longitude":"9,766852","latitude":"49,096704","geojson_lng":9.766852,"geojson_lat":49.096704},"geometry":{"type":"Point","coordinates":[9.766852,49.096704]}},{"type":"Feature","properties":{"SeqNo":"27261","Type":"A","DHID":"de:08127:20015:82","Parent":"de:08127:20015","Name":"P+R 2 Einkornallee","MunicipalityCode":"00000000","Municipality":"-","DistrictCode":"-","District":"-","Description":"","Authority":"NVBW","DelfiName":"-","THID":"-","LastOperationDate":"","SEV":"nein","longitude":"9,766331","latitude":"49,095804","geojson_lng":9.766331,"geojson_lat":49.095804},"geometry":{"type":"Point","coordinates":[9.766331,49.095804]}},{"type":"Feature","properties":{"SeqNo":"27262","Type":"A","DHID":"de:08127:20015:83","Parent":"de:08127:20015","Name":"P+R 3 Karl-Kurz","MunicipalityCode":"00000000","Municipality":"-","DistrictCode":"-","District":"-","Description":"","Authority":"NVBW","DelfiName":"-","THID":"-","LastOperationDate":"","SEV":"nein","longitude":"9,762567","latitude":"49,095498","geojson_lng":9.762567,"geojson_lat":49.095498},"geometry":{"type":"Point","coordinates":[9.762567,49.095498]}},{"type":"Feature","properties":{"SeqNo":"27263","Type":"A","DHID":"de:08127:20015:89","Parent":"de:08127:20015","Name":"B+R 1 Gleis 1","MunicipalityCode":"00000000","Municipality":"-","DistrictCode":"-","District":"-","Description":"","Authority":"NVBW","DelfiName":"-","THID":"-","LastOperationDate":"","SEV":"nein","longitude":"9,766358","latitude":"49,096586","geojson_lng":9.766358,"geojson_lat":49.096586},"geometry":{"type":"Point","coordinates":[9.766358,49.096586]}},{"type":"Feature","properties":{"SeqNo":"27264","Type":"A","DHID":"de:08127:20015:90","Parent":"de:08127:20015","Name":"Eingang","MunicipalityCode":"00000000","Municipality":"-","DistrictCode":"-","District":"-","Description":"","Authority":"NVBW","DelfiName":"-","THID":"-","LastOperationDate":"","SEV":"nein","longitude":"9,766996","latitude":"49,096969","geojson_lng":9.766996,"geojson_lat":49.096969},"geometry":{"type":"Point","coordinates":[9.766996,49.096969]}},{"type":"Feature","properties":{"SeqNo":"27265","Type":"Q","DHID":"de:08127:20015:1:1","Parent":"de:08127:20015:1","Name":"Gleis 1","MunicipalityCode":"00000000","Municipality":"-","DistrictCode":"-","District":"-","Description":"","Authority":"NVBW","DelfiName":"-","THID":"-","LastOperationDate":"","SEV":"nein","longitude":"9,766969","latitude":"49,096728","geojson_lng":9.766969,"geojson_lat":49.096728},"geometry":{"type":"Point","coordinates":[9.766969,49.096728]}},{"type":"Feature","properties":{"SeqNo":"27266","Type":"Q","DHID":"de:08127:20015:2:1","Parent":"de:08127:20015:2","Name":"Ri. Nordosten (Hessental Ortsmitte)","MunicipalityCode":"00000000","Municipality":"-","DistrictCode":"-","District":"-","Description":"","Authority":"NVBW","DelfiName":"-","THID":"-","LastOperationDate":"","SEV":"nein","longitude":"9,766744","latitude":"49,096816","geojson_lng":9.766744,"geojson_lat":49.096816},"geometry":{"type":"Point","coordinates":[9.766744,49.096816]}},{"type":"Feature","properties":{"SeqNo":"27267","Type":"Q","DHID":"de:08127:20015:2:2","Parent":"de:08127:20015:2","Name":"Ri. Südwesten (Rauhenbretzingen)","MunicipalityCode":"00000000","Municipality":"-","DistrictCode":"-","District":"-","Description":"","Authority":"NVBW","DelfiName":"-","THID":"-","LastOperationDate":"","SEV":"nein","longitude":"9,766645","latitude":"49,096951","geojson_lng":9.766645,"geojson_lat":49.096951},"geometry":{"type":"Point","coordinates":[9.766645,49.096951]}},{"type":"Feature","properties":{"SeqNo":"31135","Type":"S","DHID":"de:08127:31015","Parent":"de:08127:31015","Name":"Hessental Fassfabrik","MunicipalityCode":"08127076","Municipality":"Schwäbisch Hall","DistrictCode":"","District":"","Description":"","Authority":"NVBW","DelfiName":"-","THID":"D91FBF007927","LastOperationDate":"2025-06-14T00:00:00","SEV":"nein","longitude":"9,764076","latitude":"49,096086","geojson_lng":9.764076,"geojson_lat":49.096086},"geometry":{"type":"Point","coordinates":[9.764076,49.096086]}},{"type":"Feature","properties":{"SeqNo":"31136","Type":"Q","DHID":"de:08127:31015:0:1","Parent":"de:08127:31015","Name":"Ri. Nordwesten - Dummy","MunicipalityCode":"00000000","Municipality":"-","DistrictCode":"-","District":"-","Description":"","Authority":"NVBW","DelfiName":"-","THID":"-","LastOperationDate":"","SEV":"nein","longitude":"9,764058","latitude":"49,096063","geojson_lng":9.764058,"geojson_lat":49.096063},"geometry":{"type":"Point","coordinates":[9.764058,49.096063]}},{"type":"Feature","properties":{"SeqNo":"31137","Type":"Q","DHID":"de:08127:31015:0:2","Parent":"de:08127:31015","Name":"Ri. Südosten (L 1055) - Wende","MunicipalityCode":"00000000","Municipality":"-","DistrictCode":"-","District":"-","Description":"","Authority":"NVBW","DelfiName":"-","THID":"-","LastOperationDate":"","SEV":"nein","longitude":"9,763807","latitude":"49,096169","geojson_lng":9.763807,"geojson_lat":49.096169},"geometry":{"type":"Point","coordinates":[9.763807,49.096169]}}]}