{"type":"FeatureCollection","features":[{"type":"Feature","properties":{"SeqNo":"127795","Type":"S","DHID":"de:09181:16237","Parent":"de:09181:16237","Name":"Schöffelding, Autobahn","MunicipalityCode":"09181146","Municipality":"Windach","DistrictCode":"","District":"","Description":"","Authority":"BEG","DelfiName":"-","THID":"D923DD003F6D","LastOperationDate":"2025-06-14T00:00:00","SEV":"nein","longitude":"11,003814","latitude":"48,067735","geojson_lng":11.003814,"geojson_lat":48.067735},"geometry":{"type":"Point","coordinates":[11.003814,48.067735]}},{"type":"Feature","properties":{"SeqNo":"127796","Type":"A","DHID":"de:09181:16237:2","Parent":"de:09181:16237","Name":"Bus Ri Ost (o.Mast)","MunicipalityCode":"00000000","Municipality":"-","DistrictCode":"-","District":"-","Description":"","Authority":"BEG","DelfiName":"-","THID":"-","LastOperationDate":"","SEV":"nein","longitude":"11,003904","latitude":"48,067711","geojson_lng":11.003904,"geojson_lat":48.067711},"geometry":{"type":"Point","coordinates":[11.003904,48.067711]}},{"type":"Feature","properties":{"SeqNo":"127797","Type":"Q","DHID":"de:09181:4614:0:4","Parent":"de:09181:16237:2","Name":"Ri O / Windach / Eresing (o.Mast)","MunicipalityCode":"00000000","Municipality":"-","DistrictCode":"-","District":"-","Description":"","Authority":"BEG","DelfiName":"-","THID":"-","LastOperationDate":"","SEV":"nein","longitude":"11,003895","latitude":"48,067717","geojson_lng":11.003895,"geojson_lat":48.067717},"geometry":{"type":"Point","coordinates":[11.003895,48.067717]}},{"type":"Feature","properties":{"SeqNo":"128584","Type":"S","DHID":"de:09181:4614","Parent":"de:09181:4614","Name":"Schöffelding, Gewerbegebiet","MunicipalityCode":"09181146","Municipality":"Windach","DistrictCode":"","District":"","Description":"","Authority":"BEG","DelfiName":"-","THID":"D923DD001206","LastOperationDate":"2025-02-28T00:00:00","SEV":"nein","longitude":"11,00465","latitude":"48,0689","geojson_lng":11.00465,"geojson_lat":48.0689},"geometry":{"type":"Point","coordinates":[11.00465,48.0689]}},{"type":"Feature","properties":{"SeqNo":"128585","Type":"A","DHID":"de:09181:4614:2","Parent":"de:09181:4614","Name":"Bus Ri Nord","MunicipalityCode":"00000000","Municipality":"-","DistrictCode":"-","District":"-","Description":"","Authority":"BEG","DelfiName":"-","THID":"-","LastOperationDate":"","SEV":"nein","longitude":"11,004928","latitude":"48,069116","geojson_lng":11.004928,"geojson_lat":48.069116},"geometry":{"type":"Point","coordinates":[11.004928,48.069116]}},{"type":"Feature","properties":{"SeqNo":"128586","Type":"Q","DHID":"de:09181:4614:0:1","Parent":"de:09181:4614","Name":"","MunicipalityCode":"00000000","Municipality":"-","DistrictCode":"-","District":"-","Description":"","Authority":"BEG","DelfiName":"-","THID":"-","LastOperationDate":"","SEV":"nein","longitude":"11,004371","latitude":"48,068618","geojson_lng":11.004371,"geojson_lat":48.068618},"geometry":{"type":"Point","coordinates":[11.004371,48.068618]}},{"type":"Feature","properties":{"SeqNo":"128587","Type":"Q","DHID":"de:09181:4614:0:2","Parent":"de:09181:4614","Name":"","MunicipalityCode":"00000000","Municipality":"-","DistrictCode":"-","District":"-","Description":"","Authority":"BEG","DelfiName":"-","THID":"-","LastOperationDate":"","SEV":"nein","longitude":"11,004892","latitude":"48,069092","geojson_lng":11.004892,"geojson_lat":48.069092},"geometry":{"type":"Point","coordinates":[11.004892,48.069092]}},{"type":"Feature","properties":{"SeqNo":"128588","Type":"Q","DHID":"de:09181:4614:0:3","Parent":"de:09181:4614","Name":"","MunicipalityCode":"00000000","Municipality":"-","DistrictCode":"-","District":"-","Description":"","Authority":"BEG","DelfiName":"-","THID":"-","LastOperationDate":"","SEV":"nein","longitude":"11,003805","latitude":"48,067753","geojson_lng":11.003805,"geojson_lat":48.067753},"geometry":{"type":"Point","coordinates":[11.003805,48.067753]}}]}