{"type":"FeatureCollection","features":[{"type":"Feature","properties":{"SeqNo":"17787","Type":"S","DHID":"de:08119:3761","Parent":"de:08119:3761","Name":"Beutelsbach Burgunderstraße","MunicipalityCode":"08119091","Municipality":"Weinstadt","DistrictCode":"","District":"","Description":"","Authority":"NVBW","DelfiName":"-","THID":"D91FB7000EB1","LastOperationDate":"2025-02-28T00:00:00","SEV":"nein","longitude":"9,395893","latitude":"48,802512","geojson_lng":9.395893,"geojson_lat":48.802512},"geometry":{"type":"Point","coordinates":[9.395893,48.802512]}},{"type":"Feature","properties":{"SeqNo":"17788","Type":"Q","DHID":"de:08119:3761:0:3","Parent":"de:08119:3761","Name":"Ankunft 222","MunicipalityCode":"00000000","Municipality":"-","DistrictCode":"-","District":"-","Description":"","Authority":"NVBW","DelfiName":"-","THID":"-","LastOperationDate":"","SEV":"nein","longitude":"9,396072","latitude":"48,802565","geojson_lng":9.396072,"geojson_lat":48.802565},"geometry":{"type":"Point","coordinates":[9.396072,48.802565]}},{"type":"Feature","properties":{"SeqNo":"17789","Type":"Q","DHID":"de:08119:3761:0:4","Parent":"de:08119:3761","Name":"Rtg Urbanstr.","MunicipalityCode":"00000000","Municipality":"-","DistrictCode":"-","District":"-","Description":"","Authority":"NVBW","DelfiName":"-","THID":"-","LastOperationDate":"","SEV":"nein","longitude":"9,395929","latitude":"48,802666","geojson_lng":9.395929,"geojson_lat":48.802666},"geometry":{"type":"Point","coordinates":[9.395929,48.802666]}},{"type":"Feature","properties":{"SeqNo":"17790","Type":"S","DHID":"de:08119:3762","Parent":"de:08119:3762","Name":"Beutelsbach Urbanstraße","MunicipalityCode":"08119091","Municipality":"Weinstadt","DistrictCode":"","District":"","Description":"","Authority":"NVBW","DelfiName":"-","THID":"D91FB7000EB2","LastOperationDate":"2025-02-28T00:00:00","SEV":"nein","longitude":"9,393261","latitude":"48,80479","geojson_lng":9.393261,"geojson_lat":48.80479},"geometry":{"type":"Point","coordinates":[9.393261,48.80479]}},{"type":"Feature","properties":{"SeqNo":"17791","Type":"Q","DHID":"de:08119:3762:0:4","Parent":"de:08119:3762","Name":"Rtg Nordhaldenstr.","MunicipalityCode":"00000000","Municipality":"-","DistrictCode":"-","District":"-","Description":"","Authority":"NVBW","DelfiName":"-","THID":"-","LastOperationDate":"","SEV":"nein","longitude":"9,393207","latitude":"48,804825","geojson_lng":9.393207,"geojson_lat":48.804825},"geometry":{"type":"Point","coordinates":[9.393207,48.804825]}},{"type":"Feature","properties":{"SeqNo":"17813","Type":"S","DHID":"de:08119:3770","Parent":"de:08119:3770","Name":"Beutelsbach Weinsteige","MunicipalityCode":"08119091","Municipality":"Weinstadt","DistrictCode":"","District":"","Description":"","Authority":"NVBW","DelfiName":"-","THID":"D91FB7000EBA","LastOperationDate":"2025-02-28T00:00:00","SEV":"nein","longitude":"9,393539","latitude":"48,805535","geojson_lng":9.393539,"geojson_lat":48.805535},"geometry":{"type":"Point","coordinates":[9.393539,48.805535]}},{"type":"Feature","properties":{"SeqNo":"17814","Type":"Q","DHID":"de:08119:3770:0:3","Parent":"de:08119:3770","Name":"Rtg Burgunderstr.","MunicipalityCode":"00000000","Municipality":"-","DistrictCode":"-","District":"-","Description":"","Authority":"NVBW","DelfiName":"-","THID":"-","LastOperationDate":"","SEV":"nein","longitude":"9,393548","latitude":"48,8055","geojson_lng":9.393548,"geojson_lat":48.8055},"geometry":{"type":"Point","coordinates":[9.393548,48.8055]}}]}