{"type":"FeatureCollection","features":[{"type":"Feature","properties":{"SeqNo":"843266","Type":"S","DHID":"de:14612:702","Parent":"de:14612:702","Name":"Dresden Clara-Zetkin-Straße","MunicipalityCode":"14612000","Municipality":"Dresden","DistrictCode":"","District":"","Description":"","Authority":"VVO","DelfiName":"Dresden, Clara-Zetkin-Straße","THID":"D939140002BE","LastOperationDate":"2025-02-28T00:00:00","SEV":"nein","longitude":"13,698095","latitude":"51,037999","geojson_lng":13.698095,"geojson_lat":51.037999},"geometry":{"type":"Point","coordinates":[13.698095,51.037999]}},{"type":"Feature","properties":{"SeqNo":"843267","Type":"A","DHID":"de:14612:702:1","Parent":"de:14612:702","Name":"Haltestelle","MunicipalityCode":"00000000","Municipality":"-","DistrictCode":"-","District":"-","Description":"","Authority":"VVO","DelfiName":"-","THID":"-","LastOperationDate":"","SEV":"nein","longitude":"13,698131","latitude":"51,037999","geojson_lng":13.698131,"geojson_lat":51.037999},"geometry":{"type":"Point","coordinates":[13.698131,51.037999]}},{"type":"Feature","properties":{"SeqNo":"843268","Type":"Q","DHID":"de:14612:702:1:1","Parent":"de:14612:702:1","Name":"stadtwärts","MunicipalityCode":"00000000","Municipality":"-","DistrictCode":"-","District":"-","Description":"","Authority":"VVO","DelfiName":"-","THID":"-","LastOperationDate":"","SEV":"nein","longitude":"13,697619","latitude":"51,037953","geojson_lng":13.697619,"geojson_lat":51.037953},"geometry":{"type":"Point","coordinates":[13.697619,51.037953]}},{"type":"Feature","properties":{"SeqNo":"843269","Type":"Q","DHID":"de:14612:702:1:2","Parent":"de:14612:702:1","Name":"landwärts","MunicipalityCode":"00000000","Municipality":"-","DistrictCode":"-","District":"-","Description":"","Authority":"VVO","DelfiName":"-","THID":"-","LastOperationDate":"","SEV":"nein","longitude":"13,698724","latitude":"51,038049","geojson_lng":13.698724,"geojson_lat":51.038049},"geometry":{"type":"Point","coordinates":[13.698724,51.038049]}},{"type":"Feature","properties":{"SeqNo":"843270","Type":"S","DHID":"de:14612:703","Parent":"de:14612:703","Name":"Dresden Frankenbergstraße","MunicipalityCode":"14612000","Municipality":"Dresden","DistrictCode":"","District":"","Description":"","Authority":"VVO","DelfiName":"Dresden, Frankenbergstraße","THID":"D939140002BF","LastOperationDate":"2025-02-28T00:00:00","SEV":"nein","longitude":"13,697224","latitude":"51,036304","geojson_lng":13.697224,"geojson_lat":51.036304},"geometry":{"type":"Point","coordinates":[13.697224,51.036304]}},{"type":"Feature","properties":{"SeqNo":"843271","Type":"A","DHID":"de:14612:703:1","Parent":"de:14612:703","Name":"Haltestelle","MunicipalityCode":"00000000","Municipality":"-","DistrictCode":"-","District":"-","Description":"","Authority":"VVO","DelfiName":"-","THID":"-","LastOperationDate":"","SEV":"nein","longitude":"13,697224","latitude":"51,036293","geojson_lng":13.697224,"geojson_lat":51.036293},"geometry":{"type":"Point","coordinates":[13.697224,51.036293]}},{"type":"Feature","properties":{"SeqNo":"843272","Type":"Q","DHID":"de:14612:703:1:1","Parent":"de:14612:703:1","Name":"Ri. Löbtau","MunicipalityCode":"00000000","Municipality":"-","DistrictCode":"-","District":"-","Description":"","Authority":"VVO","DelfiName":"-","THID":"-","LastOperationDate":"","SEV":"nein","longitude":"13,697287","latitude":"51,036129","geojson_lng":13.697287,"geojson_lat":51.036129},"geometry":{"type":"Point","coordinates":[13.697287,51.036129]}},{"type":"Feature","properties":{"SeqNo":"843273","Type":"Q","DHID":"de:14612:703:1:2","Parent":"de:14612:703:1","Name":"Ri. Dölzschen","MunicipalityCode":"00000000","Municipality":"-","DistrictCode":"-","District":"-","Description":"","Authority":"VVO","DelfiName":"-","THID":"-","LastOperationDate":"","SEV":"nein","longitude":"13,697224","latitude":"51,036507","geojson_lng":13.697224,"geojson_lat":51.036507},"geometry":{"type":"Point","coordinates":[13.697224,51.036507]}},{"type":"Feature","properties":{"SeqNo":"843274","Type":"Q","DHID":"de:14612:703:1:92","Parent":"de:14612:703:1","Name":"92","MunicipalityCode":"00000000","Municipality":"-","DistrictCode":"-","District":"-","Description":"","Authority":"VVO","DelfiName":"-","THID":"-","LastOperationDate":"","SEV":"nein","longitude":"13,697547","latitude":"51,036327","geojson_lng":13.697547,"geojson_lat":51.036327},"geometry":{"type":"Point","coordinates":[13.697547,51.036327]}}]}