{"type":"FeatureCollection","features":[{"type":"Feature","properties":{"SeqNo":"1952","Type":"A","DHID":"de:08111:27:80","Parent":"de:08111:27","Name":"Gleisübergang","MunicipalityCode":"00000000","Municipality":"-","DistrictCode":"-","District":"-","Description":"","Authority":"NVBW","DelfiName":"-","THID":"-","LastOperationDate":"","SEV":"nein","longitude":"9,200958","latitude":"48,79247","geojson_lng":9.200958,"geojson_lat":48.79247},"geometry":{"type":"Point","coordinates":[9.200958,48.79247]}},{"type":"Feature","properties":{"SeqNo":"1953","Type":"A","DHID":"de:08111:27:90","Parent":"de:08111:27","Name":"Zg Nord-West","MunicipalityCode":"00000000","Municipality":"-","DistrictCode":"-","District":"-","Description":"","Authority":"NVBW","DelfiName":"-","THID":"-","LastOperationDate":"","SEV":"nein","longitude":"9,200878","latitude":"48,792506","geojson_lng":9.200878,"geojson_lat":48.792506},"geometry":{"type":"Point","coordinates":[9.200878,48.792506]}},{"type":"Feature","properties":{"SeqNo":"1954","Type":"A","DHID":"de:08111:27:91","Parent":"de:08111:27","Name":"Zg Nord-Ost","MunicipalityCode":"00000000","Municipality":"-","DistrictCode":"-","District":"-","Description":"","Authority":"NVBW","DelfiName":"-","THID":"-","LastOperationDate":"","SEV":"nein","longitude":"9,201048","latitude":"48,792458","geojson_lng":9.201048,"geojson_lat":48.792458},"geometry":{"type":"Point","coordinates":[9.201048,48.792458]}},{"type":"Feature","properties":{"SeqNo":"1957","Type":"A","DHID":"de:08111:27:94","Parent":"de:08111:27","Name":"Rtg. Stöckach","MunicipalityCode":"00000000","Municipality":"-","DistrictCode":"-","District":"-","Description":"","Authority":"NVBW","DelfiName":"-","THID":"-","LastOperationDate":"","SEV":"nein","longitude":"9,200509","latitude":"48,79231","geojson_lng":9.200509,"geojson_lat":48.79231},"geometry":{"type":"Point","coordinates":[9.200509,48.79231]}},{"type":"Feature","properties":{"SeqNo":"1958","Type":"Q","DHID":"de:08111:27:0:3","Parent":"de:08111:27","Name":"NBus Rtg einwärts","MunicipalityCode":"00000000","Municipality":"-","DistrictCode":"-","District":"-","Description":"","Authority":"NVBW","DelfiName":"-","THID":"-","LastOperationDate":"","SEV":"nein","longitude":"9,200348","latitude":"48,792281","geojson_lng":9.200348,"geojson_lat":48.792281},"geometry":{"type":"Point","coordinates":[9.200348,48.792281]}},{"type":"Feature","properties":{"SeqNo":"1961","Type":"Q","DHID":"de:08111:27:0:Z1","Parent":"de:08111:27:1","Name":"Zugang St","MunicipalityCode":"00000000","Municipality":"-","DistrictCode":"-","District":"-","Description":"","Authority":"NVBW","DelfiName":"-","THID":"-","LastOperationDate":"","SEV":"nein","longitude":"9,200958","latitude":"48,792482","geojson_lng":9.200958,"geojson_lat":48.792482},"geometry":{"type":"Point","coordinates":[9.200958,48.792482]}},{"type":"Feature","properties":{"SeqNo":"1963","Type":"Q","DHID":"de:08111:27:94:3","Parent":"de:08111:27:94","Name":"Ersatzhaltestelle Rtg. Stöckach","MunicipalityCode":"00000000","Municipality":"-","DistrictCode":"-","District":"-","Description":"","Authority":"NVBW","DelfiName":"-","THID":"-","LastOperationDate":"","SEV":"nein","longitude":"9,2005","latitude":"48,792316","geojson_lng":9.2005,"geojson_lat":48.792316},"geometry":{"type":"Point","coordinates":[9.2005,48.792316]}},{"type":"Feature","properties":{"SeqNo":"1964","Type":"Q","DHID":"de:08111:27:94:4","Parent":"de:08111:27:94","Name":"Ersatzhaltestelle Ausstieg","MunicipalityCode":"00000000","Municipality":"-","DistrictCode":"-","District":"-","Description":"","Authority":"NVBW","DelfiName":"-","THID":"-","LastOperationDate":"","SEV":"nein","longitude":"9,201183","latitude":"48,792725","geojson_lng":9.201183,"geojson_lat":48.792725},"geometry":{"type":"Point","coordinates":[9.201183,48.792725]}},{"type":"Feature","properties":{"SeqNo":"1965","Type":"Q","DHID":"de:08111:27:94:5","Parent":"de:08111:27:94","Name":"Ersatzhst. Rtg. Karl-Olga-Krankenhaus","MunicipalityCode":"00000000","Municipality":"-","DistrictCode":"-","District":"-","Description":"","Authority":"NVBW","DelfiName":"-","THID":"-","LastOperationDate":"","SEV":"nein","longitude":"9,200878","latitude":"48,79231","geojson_lng":9.200878,"geojson_lat":48.79231},"geometry":{"type":"Point","coordinates":[9.200878,48.79231]}},{"type":"Feature","properties":{"SeqNo":"2061","Type":"S","DHID":"de:08111:28","Parent":"de:08111:28","Name":"Mineralbäder","MunicipalityCode":"08111000","Municipality":"Stuttgart","DistrictCode":"-","District":"-","Description":"","Authority":"NVBW","DelfiName":"-","THID":"D91FAF00001C","LastOperationDate":"2025-02-28T00:00:00","SEV":"nein","longitude":"9,205728","latitude":"48,796932","geojson_lng":9.205728,"geojson_lat":48.796932},"geometry":{"type":"Point","coordinates":[9.205728,48.796932]}},{"type":"Feature","properties":{"SeqNo":"2062","Type":"A","DHID":"de:08111:28:1","Parent":"de:08111:28","Name":"St","MunicipalityCode":"00000000","Municipality":"-","DistrictCode":"-","District":"-","Description":"St","Authority":"NVBW","DelfiName":"-","THID":"-","LastOperationDate":"","SEV":"nein","longitude":"9,205719","latitude":"48,796932","geojson_lng":9.205719,"geojson_lat":48.796932},"geometry":{"type":"Point","coordinates":[9.205719,48.796932]}},{"type":"Feature","properties":{"SeqNo":"2063","Type":"A","DHID":"de:08111:28:2","Parent":"de:08111:28","Name":"Nordbahnsteig","MunicipalityCode":"00000000","Municipality":"-","DistrictCode":"-","District":"-","Description":"Nordbahnsteig","Authority":"NVBW","DelfiName":"-","THID":"-","LastOperationDate":"","SEV":"nein","longitude":"9,205746","latitude":"48,797056","geojson_lng":9.205746,"geojson_lat":48.797056},"geometry":{"type":"Point","coordinates":[9.205746,48.797056]}},{"type":"Feature","properties":{"SeqNo":"2064","Type":"A","DHID":"de:08111:28:90","Parent":"de:08111:28","Name":"Zg Leuze","MunicipalityCode":"00000000","Municipality":"-","DistrictCode":"-","District":"-","Description":"Zg Leuze","Authority":"NVBW","DelfiName":"-","THID":"-","LastOperationDate":"","SEV":"nein","longitude":"9,206169","latitude":"48,797086","geojson_lng":9.206169,"geojson_lat":48.797086},"geometry":{"type":"Point","coordinates":[9.206169,48.797086]}},{"type":"Feature","properties":{"SeqNo":"2065","Type":"A","DHID":"de:08111:28:91","Parent":"de:08111:28","Name":"Zg Nord","MunicipalityCode":"00000000","Municipality":"-","DistrictCode":"-","District":"-","Description":"Zg Nord","Authority":"NVBW","DelfiName":"-","THID":"-","LastOperationDate":"","SEV":"nein","longitude":"9,206034","latitude":"48,797281","geojson_lng":9.206034,"geojson_lat":48.797281},"geometry":{"type":"Point","coordinates":[9.206034,48.797281]}},{"type":"Feature","properties":{"SeqNo":"2066","Type":"A","DHID":"de:08111:28:92","Parent":"de:08111:28","Name":"Zg Treppe","MunicipalityCode":"00000000","Municipality":"-","DistrictCode":"-","District":"-","Description":"Zg Treppe","Authority":"NVBW","DelfiName":"-","THID":"-","LastOperationDate":"","SEV":"nein","longitude":"9,205513","latitude":"48,796938","geojson_lng":9.205513,"geojson_lat":48.796938},"geometry":{"type":"Point","coordinates":[9.205513,48.796938]}},{"type":"Feature","properties":{"SeqNo":"2067","Type":"A","DHID":"de:08111:28:93","Parent":"de:08111:28","Name":"Zg Süd","MunicipalityCode":"00000000","Municipality":"-","DistrictCode":"-","District":"-","Description":"Zg Süd","Authority":"NVBW","DelfiName":"-","THID":"-","LastOperationDate":"","SEV":"nein","longitude":"9,205252","latitude":"48,796642","geojson_lng":9.205252,"geojson_lat":48.796642},"geometry":{"type":"Point","coordinates":[9.205252,48.796642]}},{"type":"Feature","properties":{"SeqNo":"2068","Type":"Q","DHID":"de:08111:28:1:1","Parent":"de:08111:28:1","Name":"Rtg Metzstraße","MunicipalityCode":"00000000","Municipality":"-","DistrictCode":"-","District":"-","Description":"Rtg Metzstraße","Authority":"NVBW","DelfiName":"-","THID":"-","LastOperationDate":"","SEV":"nein","longitude":"9,205675","latitude":"48,796974","geojson_lng":9.205675,"geojson_lat":48.796974},"geometry":{"type":"Point","coordinates":[9.205675,48.796974]}},{"type":"Feature","properties":{"SeqNo":"2069","Type":"Q","DHID":"de:08111:28:1:2","Parent":"de:08111:28:1","Name":"Rtg Mercedesstr./Wilhelma","MunicipalityCode":"00000000","Municipality":"-","DistrictCode":"-","District":"-","Description":"Rtg Mercedesstr./Wilhelma","Authority":"NVBW","DelfiName":"-","THID":"-","LastOperationDate":"","SEV":"nein","longitude":"9,205773","latitude":"48,796885","geojson_lng":9.205773,"geojson_lat":48.796885},"geometry":{"type":"Point","coordinates":[9.205773,48.796885]}},{"type":"Feature","properties":{"SeqNo":"2487","Type":"S","DHID":"de:08111:372","Parent":"de:08111:372","Name":"Villastraße","MunicipalityCode":"08111000","Municipality":"Stuttgart","DistrictCode":"","District":"","Description":"","Authority":"NVBW","DelfiName":"-","THID":"D91FAF000174","LastOperationDate":"2025-02-28T00:00:00","SEV":"nein","longitude":"9,203429","latitude":"48,794275","geojson_lng":9.203429,"geojson_lat":48.794275},"geometry":{"type":"Point","coordinates":[9.203429,48.794275]}},{"type":"Feature","properties":{"SeqNo":"2488","Type":"Q","DHID":"de:08111:372:0:4","Parent":"de:08111:372","Name":"NBus auswärts","MunicipalityCode":"00000000","Municipality":"-","DistrictCode":"-","District":"-","Description":"","Authority":"NVBW","DelfiName":"-","THID":"-","LastOperationDate":"","SEV":"nein","longitude":"9,20342","latitude":"48,793825","geojson_lng":9.20342,"geojson_lat":48.793825},"geometry":{"type":"Point","coordinates":[9.20342,48.793825]}}]}