{"type":"FeatureCollection","features":[{"type":"Feature","properties":{"SeqNo":"726","Type":"S","DHID":"de:08111:2058","Parent":"de:08111:2058","Name":"Urachstraße","MunicipalityCode":"08111000","Municipality":"Stuttgart","DistrictCode":"","District":"","Description":"","Authority":"NVBW","DelfiName":"-","THID":"D91FAF00080A","LastOperationDate":"2025-02-28T00:00:00","SEV":"nein","longitude":"9,197967","latitude":"48,785806","geojson_lng":9.197967,"geojson_lat":48.785806},"geometry":{"type":"Point","coordinates":[9.197967,48.785806]}},{"type":"Feature","properties":{"SeqNo":"727","Type":"Q","DHID":"de:08111:2058:0:3","Parent":"de:08111:2058","Name":"Rtg Friedenstr.","MunicipalityCode":"00000000","Municipality":"-","DistrictCode":"-","District":"-","Description":"","Authority":"NVBW","DelfiName":"-","THID":"-","LastOperationDate":"","SEV":"nein","longitude":"9,197985","latitude":"48,7858","geojson_lng":9.197985,"geojson_lat":48.7858},"geometry":{"type":"Point","coordinates":[9.197985,48.7858]}},{"type":"Feature","properties":{"SeqNo":"728","Type":"Q","DHID":"de:08111:2058:0:4","Parent":"de:08111:2058","Name":"Rtg Schwarenbergstr.","MunicipalityCode":"00000000","Municipality":"-","DistrictCode":"-","District":"-","Description":"","Authority":"NVBW","DelfiName":"-","THID":"-","LastOperationDate":"","SEV":"nein","longitude":"9,197985","latitude":"48,7858","geojson_lng":9.197985,"geojson_lat":48.7858},"geometry":{"type":"Point","coordinates":[9.197985,48.7858]}},{"type":"Feature","properties":{"SeqNo":"729","Type":"S","DHID":"de:08111:2059","Parent":"de:08111:2059","Name":"Schwarenbergstraße","MunicipalityCode":"08111000","Municipality":"Stuttgart","DistrictCode":"","District":"","Description":"","Authority":"NVBW","DelfiName":"-","THID":"D91FAF00080B","LastOperationDate":"2025-02-28T00:00:00","SEV":"nein","longitude":"9,20315","latitude":"48,785599","geojson_lng":9.20315,"geojson_lat":48.785599},"geometry":{"type":"Point","coordinates":[9.20315,48.785599]}},{"type":"Feature","properties":{"SeqNo":"730","Type":"Q","DHID":"de:08111:2059:0:3","Parent":"de:08111:2059","Name":"Rtg Urachstr.","MunicipalityCode":"00000000","Municipality":"-","DistrictCode":"-","District":"-","Description":"","Authority":"NVBW","DelfiName":"-","THID":"-","LastOperationDate":"","SEV":"nein","longitude":"9,203537","latitude":"48,785652","geojson_lng":9.203537,"geojson_lat":48.785652},"geometry":{"type":"Point","coordinates":[9.203537,48.785652]}},{"type":"Feature","properties":{"SeqNo":"731","Type":"Q","DHID":"de:08111:2059:0:4","Parent":"de:08111:2059","Name":"Rtg Ostendplatz","MunicipalityCode":"00000000","Municipality":"-","DistrictCode":"-","District":"-","Description":"","Authority":"NVBW","DelfiName":"-","THID":"-","LastOperationDate":"","SEV":"nein","longitude":"9,202863","latitude":"48,785504","geojson_lng":9.202863,"geojson_lat":48.785504},"geometry":{"type":"Point","coordinates":[9.202863,48.785504]}},{"type":"Feature","properties":{"SeqNo":"1780","Type":"A","DHID":"de:08111:26:81","Parent":"de:08111:26","Name":"Zw. Bahnüberg.2","MunicipalityCode":"00000000","Municipality":"-","DistrictCode":"-","District":"-","Description":"","Authority":"NVBW","DelfiName":"-","THID":"-","LastOperationDate":"","SEV":"nein","longitude":"9,195586","latitude":"48,789316","geojson_lng":9.195586,"geojson_lat":48.789316},"geometry":{"type":"Point","coordinates":[9.195586,48.789316]}},{"type":"Feature","properties":{"SeqNo":"1786","Type":"A","DHID":"de:08111:26:95","Parent":"de:08111:26","Name":"Zug. Neckarstr.2","MunicipalityCode":"00000000","Municipality":"-","DistrictCode":"-","District":"-","Description":"","Authority":"NVBW","DelfiName":"-","THID":"-","LastOperationDate":"","SEV":"nein","longitude":"9,195586","latitude":"48,789268","geojson_lng":9.195586,"geojson_lat":48.789268},"geometry":{"type":"Point","coordinates":[9.195586,48.789268]}},{"type":"Feature","properties":{"SeqNo":"1787","Type":"A","DHID":"de:08111:26:96","Parent":"de:08111:26","Name":"Zug. Neckarstr.Nord","MunicipalityCode":"00000000","Municipality":"-","DistrictCode":"-","District":"-","Description":"","Authority":"NVBW","DelfiName":"-","THID":"-","LastOperationDate":"","SEV":"nein","longitude":"9,195551","latitude":"48,789357","geojson_lng":9.195551,"geojson_lat":48.789357},"geometry":{"type":"Point","coordinates":[9.195551,48.789357]}},{"type":"Feature","properties":{"SeqNo":"1949","Type":"S","DHID":"de:08111:27","Parent":"de:08111:27","Name":"Metzstraße","MunicipalityCode":"08111000","Municipality":"Stuttgart","DistrictCode":"","District":"","Description":"","Authority":"NVBW","DelfiName":"-","THID":"D91FAF00001B","LastOperationDate":"2025-02-28T00:00:00","SEV":"nein","longitude":"9,200536","latitude":"48,792227","geojson_lng":9.200536,"geojson_lat":48.792227},"geometry":{"type":"Point","coordinates":[9.200536,48.792227]}},{"type":"Feature","properties":{"SeqNo":"1950","Type":"A","DHID":"de:08111:27:1","Parent":"de:08111:27","Name":"St Stöckach","MunicipalityCode":"00000000","Municipality":"-","DistrictCode":"-","District":"-","Description":"","Authority":"NVBW","DelfiName":"-","THID":"-","LastOperationDate":"","SEV":"nein","longitude":"9,2005","latitude":"48,792263","geojson_lng":9.2005,"geojson_lat":48.792263},"geometry":{"type":"Point","coordinates":[9.2005,48.792263]}},{"type":"Feature","properties":{"SeqNo":"1951","Type":"A","DHID":"de:08111:27:2","Parent":"de:08111:27","Name":"St Mineralbäder","MunicipalityCode":"00000000","Municipality":"-","DistrictCode":"-","District":"-","Description":"","Authority":"NVBW","DelfiName":"-","THID":"-","LastOperationDate":"","SEV":"nein","longitude":"9,200581","latitude":"48,792204","geojson_lng":9.200581,"geojson_lat":48.792204},"geometry":{"type":"Point","coordinates":[9.200581,48.792204]}},{"type":"Feature","properties":{"SeqNo":"1952","Type":"A","DHID":"de:08111:27:80","Parent":"de:08111:27","Name":"Gleisübergang","MunicipalityCode":"00000000","Municipality":"-","DistrictCode":"-","District":"-","Description":"","Authority":"NVBW","DelfiName":"-","THID":"-","LastOperationDate":"","SEV":"nein","longitude":"9,200958","latitude":"48,79247","geojson_lng":9.200958,"geojson_lat":48.79247},"geometry":{"type":"Point","coordinates":[9.200958,48.79247]}},{"type":"Feature","properties":{"SeqNo":"1954","Type":"A","DHID":"de:08111:27:91","Parent":"de:08111:27","Name":"Zg Nord-Ost","MunicipalityCode":"00000000","Municipality":"-","DistrictCode":"-","District":"-","Description":"","Authority":"NVBW","DelfiName":"-","THID":"-","LastOperationDate":"","SEV":"nein","longitude":"9,201048","latitude":"48,792458","geojson_lng":9.201048,"geojson_lat":48.792458},"geometry":{"type":"Point","coordinates":[9.201048,48.792458]}},{"type":"Feature","properties":{"SeqNo":"1955","Type":"A","DHID":"de:08111:27:92","Parent":"de:08111:27","Name":"Zg Süd-Ost","MunicipalityCode":"00000000","Municipality":"-","DistrictCode":"-","District":"-","Description":"","Authority":"NVBW","DelfiName":"-","THID":"-","LastOperationDate":"","SEV":"nein","longitude":"9,199997","latitude":"48,791843","geojson_lng":9.199997,"geojson_lat":48.791843},"geometry":{"type":"Point","coordinates":[9.199997,48.791843]}},{"type":"Feature","properties":{"SeqNo":"1956","Type":"A","DHID":"de:08111:27:93","Parent":"de:08111:27","Name":"Zg Süd-West","MunicipalityCode":"00000000","Municipality":"-","DistrictCode":"-","District":"-","Description":"","Authority":"NVBW","DelfiName":"-","THID":"-","LastOperationDate":"","SEV":"nein","longitude":"9,199889","latitude":"48,791926","geojson_lng":9.199889,"geojson_lat":48.791926},"geometry":{"type":"Point","coordinates":[9.199889,48.791926]}},{"type":"Feature","properties":{"SeqNo":"1957","Type":"A","DHID":"de:08111:27:94","Parent":"de:08111:27","Name":"Rtg. Stöckach","MunicipalityCode":"00000000","Municipality":"-","DistrictCode":"-","District":"-","Description":"","Authority":"NVBW","DelfiName":"-","THID":"-","LastOperationDate":"","SEV":"nein","longitude":"9,200509","latitude":"48,79231","geojson_lng":9.200509,"geojson_lat":48.79231},"geometry":{"type":"Point","coordinates":[9.200509,48.79231]}},{"type":"Feature","properties":{"SeqNo":"1958","Type":"Q","DHID":"de:08111:27:0:3","Parent":"de:08111:27","Name":"NBus Rtg einwärts","MunicipalityCode":"00000000","Municipality":"-","DistrictCode":"-","District":"-","Description":"","Authority":"NVBW","DelfiName":"-","THID":"-","LastOperationDate":"","SEV":"nein","longitude":"9,200348","latitude":"48,792281","geojson_lng":9.200348,"geojson_lat":48.792281},"geometry":{"type":"Point","coordinates":[9.200348,48.792281]}},{"type":"Feature","properties":{"SeqNo":"1959","Type":"Q","DHID":"de:08111:27:0:4","Parent":"de:08111:27","Name":"NBus Rtg auswärts","MunicipalityCode":"00000000","Municipality":"-","DistrictCode":"-","District":"-","Description":"","Authority":"NVBW","DelfiName":"-","THID":"-","LastOperationDate":"","SEV":"nein","longitude":"9,200554","latitude":"48,792103","geojson_lng":9.200554,"geojson_lat":48.792103},"geometry":{"type":"Point","coordinates":[9.200554,48.792103]}},{"type":"Feature","properties":{"SeqNo":"1960","Type":"Q","DHID":"de:08111:27:0:1","Parent":"de:08111:27:1","Name":"Rtg Stöckach","MunicipalityCode":"00000000","Municipality":"-","DistrictCode":"-","District":"-","Description":"","Authority":"NVBW","DelfiName":"-","THID":"-","LastOperationDate":"","SEV":"nein","longitude":"9,200527","latitude":"48,792245","geojson_lng":9.200527,"geojson_lat":48.792245},"geometry":{"type":"Point","coordinates":[9.200527,48.792245]}},{"type":"Feature","properties":{"SeqNo":"1961","Type":"Q","DHID":"de:08111:27:0:Z1","Parent":"de:08111:27:1","Name":"Zugang St","MunicipalityCode":"00000000","Municipality":"-","DistrictCode":"-","District":"-","Description":"","Authority":"NVBW","DelfiName":"-","THID":"-","LastOperationDate":"","SEV":"nein","longitude":"9,200958","latitude":"48,792482","geojson_lng":9.200958,"geojson_lat":48.792482},"geometry":{"type":"Point","coordinates":[9.200958,48.792482]}},{"type":"Feature","properties":{"SeqNo":"1962","Type":"Q","DHID":"de:08111:27:0:2","Parent":"de:08111:27:2","Name":"Rtg Mineralbäder","MunicipalityCode":"00000000","Municipality":"-","DistrictCode":"-","District":"-","Description":"","Authority":"NVBW","DelfiName":"-","THID":"-","LastOperationDate":"","SEV":"nein","longitude":"9,200554","latitude":"48,792222","geojson_lng":9.200554,"geojson_lat":48.792222},"geometry":{"type":"Point","coordinates":[9.200554,48.792222]}},{"type":"Feature","properties":{"SeqNo":"1963","Type":"Q","DHID":"de:08111:27:94:3","Parent":"de:08111:27:94","Name":"Ersatzhaltestelle Rtg. Stöckach","MunicipalityCode":"00000000","Municipality":"-","DistrictCode":"-","District":"-","Description":"","Authority":"NVBW","DelfiName":"-","THID":"-","LastOperationDate":"","SEV":"nein","longitude":"9,2005","latitude":"48,792316","geojson_lng":9.2005,"geojson_lat":48.792316},"geometry":{"type":"Point","coordinates":[9.2005,48.792316]}},{"type":"Feature","properties":{"SeqNo":"1965","Type":"Q","DHID":"de:08111:27:94:5","Parent":"de:08111:27:94","Name":"Ersatzhst. Rtg. Karl-Olga-Krankenhaus","MunicipalityCode":"00000000","Municipality":"-","DistrictCode":"-","District":"-","Description":"","Authority":"NVBW","DelfiName":"-","THID":"-","LastOperationDate":"","SEV":"nein","longitude":"9,200878","latitude":"48,79231","geojson_lng":9.200878,"geojson_lat":48.79231},"geometry":{"type":"Point","coordinates":[9.200878,48.79231]}},{"type":"Feature","properties":{"SeqNo":"4396","Type":"S","DHID":"de:08111:76","Parent":"de:08111:76","Name":"Karl-Olga-Krankenhaus","MunicipalityCode":"08111000","Municipality":"Stuttgart","DistrictCode":"","District":"","Description":"","Authority":"NVBW","DelfiName":"-","THID":"D91FAF00004C","LastOperationDate":"2025-02-28T00:00:00","SEV":"nein","longitude":"9,201749","latitude":"48,789197","geojson_lng":9.201749,"geojson_lat":48.789197},"geometry":{"type":"Point","coordinates":[9.201749,48.789197]}},{"type":"Feature","properties":{"SeqNo":"4397","Type":"A","DHID":"de:08111:76:1","Parent":"de:08111:76","Name":"Stb. R Stöckach","MunicipalityCode":"00000000","Municipality":"-","DistrictCode":"-","District":"-","Description":"","Authority":"NVBW","DelfiName":"-","THID":"-","LastOperationDate":"","SEV":"nein","longitude":"9,201291","latitude":"48,789268","geojson_lng":9.201291,"geojson_lat":48.789268},"geometry":{"type":"Point","coordinates":[9.201291,48.789268]}},{"type":"Feature","properties":{"SeqNo":"4398","Type":"A","DHID":"de:08111:76:2","Parent":"de:08111:76","Name":"Stb. RBergfriedhof","MunicipalityCode":"00000000","Municipality":"-","DistrictCode":"-","District":"-","Description":"","Authority":"NVBW","DelfiName":"-","THID":"-","LastOperationDate":"","SEV":"nein","longitude":"9,202144","latitude":"48,789138","geojson_lng":9.202144,"geojson_lat":48.789138},"geometry":{"type":"Point","coordinates":[9.202144,48.789138]}},{"type":"Feature","properties":{"SeqNo":"4399","Type":"A","DHID":"de:08111:76:3","Parent":"de:08111:76","Name":"(Nacht)Bus","MunicipalityCode":"00000000","Municipality":"-","DistrictCode":"-","District":"-","Description":"","Authority":"NVBW","DelfiName":"-","THID":"-","LastOperationDate":"","SEV":"nein","longitude":"9,20236","latitude":"48,789079","geojson_lng":9.20236,"geojson_lat":48.789079},"geometry":{"type":"Point","coordinates":[9.20236,48.789079]}},{"type":"Feature","properties":{"SeqNo":"4400","Type":"A","DHID":"de:08111:76:80","Parent":"de:08111:76","Name":"Kreuzung 1","MunicipalityCode":"00000000","Municipality":"-","DistrictCode":"-","District":"-","Description":"","Authority":"NVBW","DelfiName":"-","THID":"-","LastOperationDate":"","SEV":"nein","longitude":"9,200851","latitude":"48,789245","geojson_lng":9.200851,"geojson_lat":48.789245},"geometry":{"type":"Point","coordinates":[9.200851,48.789245]}},{"type":"Feature","properties":{"SeqNo":"4401","Type":"A","DHID":"de:08111:76:81","Parent":"de:08111:76","Name":"Kreuzung 2","MunicipalityCode":"00000000","Municipality":"-","DistrictCode":"-","District":"-","Description":"","Authority":"NVBW","DelfiName":"-","THID":"-","LastOperationDate":"","SEV":"nein","longitude":"9,20262","latitude":"48,789174","geojson_lng":9.20262,"geojson_lat":48.789174},"geometry":{"type":"Point","coordinates":[9.20262,48.789174]}},{"type":"Feature","properties":{"SeqNo":"4402","Type":"A","DHID":"de:08111:76:90","Parent":"de:08111:76","Name":"Zug. K-Br-Hackstr","MunicipalityCode":"00000000","Municipality":"-","DistrictCode":"-","District":"-","Description":"","Authority":"NVBW","DelfiName":"-","THID":"-","LastOperationDate":"","SEV":"nein","longitude":"9,200869","latitude":"48,789298","geojson_lng":9.200869,"geojson_lat":48.789298},"geometry":{"type":"Point","coordinates":[9.200869,48.789298]}},{"type":"Feature","properties":{"SeqNo":"4403","Type":"A","DHID":"de:08111:76:91","Parent":"de:08111:76","Name":"Zug. Restaurants","MunicipalityCode":"00000000","Municipality":"-","DistrictCode":"-","District":"-","Description":"","Authority":"NVBW","DelfiName":"-","THID":"-","LastOperationDate":"","SEV":"nein","longitude":"9,20174","latitude":"48,789257","geojson_lng":9.20174,"geojson_lat":48.789257},"geometry":{"type":"Point","coordinates":[9.20174,48.789257]}},{"type":"Feature","properties":{"SeqNo":"4404","Type":"A","DHID":"de:08111:76:92","Parent":"de:08111:76","Name":"Zug. Turnhalle","MunicipalityCode":"00000000","Municipality":"-","DistrictCode":"-","District":"-","Description":"","Authority":"NVBW","DelfiName":"-","THID":"-","LastOperationDate":"","SEV":"nein","longitude":"9,202503","latitude":"48,78912","geojson_lng":9.202503,"geojson_lat":48.78912},"geometry":{"type":"Point","coordinates":[9.202503,48.78912]}},{"type":"Feature","properties":{"SeqNo":"4405","Type":"Q","DHID":"de:08111:76:1:1","Parent":"de:08111:76:1","Name":"Rtg Stöckach","MunicipalityCode":"00000000","Municipality":"-","DistrictCode":"-","District":"-","Description":"","Authority":"NVBW","DelfiName":"-","THID":"-","LastOperationDate":"","SEV":"nein","longitude":"9,201327","latitude":"48,789233","geojson_lng":9.201327,"geojson_lat":48.789233},"geometry":{"type":"Point","coordinates":[9.201327,48.789233]}},{"type":"Feature","properties":{"SeqNo":"4406","Type":"Q","DHID":"de:08111:76:1:2","Parent":"de:08111:76:2","Name":"Rtg Bergfriedhof","MunicipalityCode":"00000000","Municipality":"-","DistrictCode":"-","District":"-","Description":"","Authority":"NVBW","DelfiName":"-","THID":"-","LastOperationDate":"","SEV":"nein","longitude":"9,202117","latitude":"48,789168","geojson_lng":9.202117,"geojson_lat":48.789168},"geometry":{"type":"Point","coordinates":[9.202117,48.789168]}},{"type":"Feature","properties":{"SeqNo":"4407","Type":"Q","DHID":"de:08111:76:1:4","Parent":"de:08111:76:3","Name":"NBus","MunicipalityCode":"00000000","Municipality":"-","DistrictCode":"-","District":"-","Description":"","Authority":"NVBW","DelfiName":"-","THID":"-","LastOperationDate":"","SEV":"nein","longitude":"9,20236","latitude":"48,789103","geojson_lng":9.20236,"geojson_lat":48.789103},"geometry":{"type":"Point","coordinates":[9.20236,48.789103]}},{"type":"Feature","properties":{"SeqNo":"4408","Type":"Q","DHID":"de:08111:76:3:5","Parent":"de:08111:76:3","Name":"Ersatzhaltestelle U9E Ein-Ausstieg","MunicipalityCode":"00000000","Municipality":"-","DistrictCode":"-","District":"-","Description":"","Authority":"NVBW","DelfiName":"-","THID":"-","LastOperationDate":"","SEV":"nein","longitude":"9,201893","latitude":"48,789197","geojson_lng":9.201893,"geojson_lat":48.789197},"geometry":{"type":"Point","coordinates":[9.201893,48.789197]}},{"type":"Feature","properties":{"SeqNo":"4409","Type":"S","DHID":"de:08111:77","Parent":"de:08111:77","Name":"Bergfriedhof","MunicipalityCode":"08111000","Municipality":"Stuttgart","DistrictCode":"","District":"","Description":"","Authority":"NVBW","DelfiName":"-","THID":"D91FAF00004D","LastOperationDate":"2025-02-28T00:00:00","SEV":"nein","longitude":"9,205621","latitude":"48,789061","geojson_lng":9.205621,"geojson_lat":48.789061},"geometry":{"type":"Point","coordinates":[9.205621,48.789061]}},{"type":"Feature","properties":{"SeqNo":"4410","Type":"A","DHID":"de:08111:77:1","Parent":"de:08111:77","Name":"Stb Rtg. Raitelsberg","MunicipalityCode":"00000000","Municipality":"-","DistrictCode":"-","District":"-","Description":"","Authority":"NVBW","DelfiName":"-","THID":"-","LastOperationDate":"","SEV":"nein","longitude":"9,206151","latitude":"48,78899","geojson_lng":9.206151,"geojson_lat":48.78899},"geometry":{"type":"Point","coordinates":[9.206151,48.78899]}},{"type":"Feature","properties":{"SeqNo":"4411","Type":"A","DHID":"de:08111:77:2","Parent":"de:08111:77","Name":"Stb. Rtg. K.-O.-KH","MunicipalityCode":"00000000","Municipality":"-","DistrictCode":"-","District":"-","Description":"","Authority":"NVBW","DelfiName":"-","THID":"-","LastOperationDate":"","SEV":"nein","longitude":"9,205001","latitude":"48,789126","geojson_lng":9.205001,"geojson_lat":48.789126},"geometry":{"type":"Point","coordinates":[9.205001,48.789126]}},{"type":"Feature","properties":{"SeqNo":"4412","Type":"A","DHID":"de:08111:77:3","Parent":"de:08111:77","Name":"(Nacht)Bus","MunicipalityCode":"00000000","Municipality":"-","DistrictCode":"-","District":"-","Description":"","Authority":"NVBW","DelfiName":"-","THID":"-","LastOperationDate":"","SEV":"nein","longitude":"9,206124","latitude":"48,789079","geojson_lng":9.206124,"geojson_lat":48.789079},"geometry":{"type":"Point","coordinates":[9.206124,48.789079]}},{"type":"Feature","properties":{"SeqNo":"4413","Type":"A","DHID":"de:08111:77:80","Parent":"de:08111:77","Name":"Zw.Bereich Straße","MunicipalityCode":"00000000","Municipality":"-","DistrictCode":"-","District":"-","Description":"","Authority":"NVBW","DelfiName":"-","THID":"-","LastOperationDate":"","SEV":"nein","longitude":"9,205728","latitude":"48,789055","geojson_lng":9.205728,"geojson_lat":48.789055},"geometry":{"type":"Point","coordinates":[9.205728,48.789055]}},{"type":"Feature","properties":{"SeqNo":"4414","Type":"A","DHID":"de:08111:77:90","Parent":"de:08111:77","Name":"Zugang Rtg. K.O.-Kh","MunicipalityCode":"00000000","Municipality":"-","DistrictCode":"-","District":"-","Description":"","Authority":"NVBW","DelfiName":"-","THID":"-","LastOperationDate":"","SEV":"nein","longitude":"9,20465","latitude":"48,789126","geojson_lng":9.20465,"geojson_lat":48.789126},"geometry":{"type":"Point","coordinates":[9.20465,48.789126]}},{"type":"Feature","properties":{"SeqNo":"4415","Type":"A","DHID":"de:08111:77:91","Parent":"de:08111:77","Name":"Zugang Werderstr.","MunicipalityCode":"00000000","Municipality":"-","DistrictCode":"-","District":"-","Description":"","Authority":"NVBW","DelfiName":"-","THID":"-","LastOperationDate":"","SEV":"nein","longitude":"9,205441","latitude":"48,789115","geojson_lng":9.205441,"geojson_lat":48.789115},"geometry":{"type":"Point","coordinates":[9.205441,48.789115]}},{"type":"Feature","properties":{"SeqNo":"4416","Type":"A","DHID":"de:08111:77:92","Parent":"de:08111:77","Name":"Zugang kleiner Weg","MunicipalityCode":"00000000","Municipality":"-","DistrictCode":"-","District":"-","Description":"","Authority":"NVBW","DelfiName":"-","THID":"-","LastOperationDate":"","SEV":"nein","longitude":"9,205836","latitude":"48,789002","geojson_lng":9.205836,"geojson_lat":48.789002},"geometry":{"type":"Point","coordinates":[9.205836,48.789002]}},{"type":"Feature","properties":{"SeqNo":"4417","Type":"A","DHID":"de:08111:77:93","Parent":"de:08111:77","Name":"Z Hack-/Ostendstr.","MunicipalityCode":"00000000","Municipality":"-","DistrictCode":"-","District":"-","Description":"","Authority":"NVBW","DelfiName":"-","THID":"-","LastOperationDate":"","SEV":"nein","longitude":"9,206456","latitude":"48,788972","geojson_lng":9.206456,"geojson_lat":48.788972},"geometry":{"type":"Point","coordinates":[9.206456,48.788972]}},{"type":"Feature","properties":{"SeqNo":"4418","Type":"Q","DHID":"de:08111:77:0:2","Parent":"de:08111:77:1","Name":"Rtg Raitelsberg/Ostendplatz","MunicipalityCode":"00000000","Municipality":"-","DistrictCode":"-","District":"-","Description":"","Authority":"NVBW","DelfiName":"-","THID":"-","LastOperationDate":"","SEV":"nein","longitude":"9,206124","latitude":"48,789026","geojson_lng":9.206124,"geojson_lat":48.789026},"geometry":{"type":"Point","coordinates":[9.206124,48.789026]}},{"type":"Feature","properties":{"SeqNo":"4419","Type":"Q","DHID":"de:08111:77:0:1","Parent":"de:08111:77:2","Name":"Rtg Karl-Olga-Krankenhaus","MunicipalityCode":"00000000","Municipality":"-","DistrictCode":"-","District":"-","Description":"","Authority":"NVBW","DelfiName":"-","THID":"-","LastOperationDate":"","SEV":"nein","longitude":"9,204974","latitude":"48,789103","geojson_lng":9.204974,"geojson_lat":48.789103},"geometry":{"type":"Point","coordinates":[9.204974,48.789103]}},{"type":"Feature","properties":{"SeqNo":"4420","Type":"Q","DHID":"de:08111:77:0:4","Parent":"de:08111:77:3","Name":"NBus","MunicipalityCode":"00000000","Municipality":"-","DistrictCode":"-","District":"-","Description":"","Authority":"NVBW","DelfiName":"-","THID":"-","LastOperationDate":"","SEV":"nein","longitude":"9,206097","latitude":"48,789091","geojson_lng":9.206097,"geojson_lat":48.789091},"geometry":{"type":"Point","coordinates":[9.206097,48.789091]}},{"type":"Feature","properties":{"SeqNo":"4421","Type":"Q","DHID":"de:08111:77:1:5","Parent":"de:08111:77:3","Name":"Ersatzhaltestelle Rtg Raitelsberg","MunicipalityCode":"00000000","Municipality":"-","DistrictCode":"-","District":"-","Description":"","Authority":"NVBW","DelfiName":"-","THID":"-","LastOperationDate":"","SEV":"nein","longitude":"9,206555","latitude":"48,788955","geojson_lng":9.206555,"geojson_lat":48.788955},"geometry":{"type":"Point","coordinates":[9.206555,48.788955]}}]}