{"type":"FeatureCollection","features":[{"type":"Feature","properties":{"SeqNo":"726","Type":"S","DHID":"de:08111:2058","Parent":"de:08111:2058","Name":"Urachstraße","Latitude":"48,785806","Longitude":"9,197967","MunicipalityCode":"08111000","Municipality":"Stuttgart","DistrictCode":"","District":"","Description":"","Authority":"NVBW","DelfiName":"-","THID":"D91FAF00080A","TariffProvider":"-","LastOperationDate":"2025-12-13T00:00:00","SEV":"nein","geojson_lng":9.197967,"geojson_lat":48.785806},"geometry":{"type":"Point","coordinates":[9.197967,48.785806]}},{"type":"Feature","properties":{"SeqNo":"727","Type":"Q","DHID":"de:08111:2058:0:3","Parent":"de:08111:2058","Name":"Rtg Friedenstr.","Latitude":"48,7858","Longitude":"9,197985","MunicipalityCode":"00000000","Municipality":"-","DistrictCode":"-","District":"-","Description":"","Authority":"NVBW","DelfiName":"-","THID":"-","TariffProvider":"-","LastOperationDate":"","SEV":"nein","geojson_lng":9.197985,"geojson_lat":48.7858},"geometry":{"type":"Point","coordinates":[9.197985,48.7858]}},{"type":"Feature","properties":{"SeqNo":"728","Type":"Q","DHID":"de:08111:2058:0:4","Parent":"de:08111:2058","Name":"Rtg Schwarenbergstr.","Latitude":"48,7858","Longitude":"9,197985","MunicipalityCode":"00000000","Municipality":"-","DistrictCode":"-","District":"-","Description":"","Authority":"NVBW","DelfiName":"-","THID":"-","TariffProvider":"-","LastOperationDate":"","SEV":"nein","geojson_lng":9.197985,"geojson_lat":48.7858},"geometry":{"type":"Point","coordinates":[9.197985,48.7858]}},{"type":"Feature","properties":{"SeqNo":"729","Type":"S","DHID":"de:08111:2059","Parent":"de:08111:2059","Name":"Schwarenbergstraße","Latitude":"48,785599","Longitude":"9,20315","MunicipalityCode":"08111000","Municipality":"Stuttgart","DistrictCode":"","District":"","Description":"","Authority":"NVBW","DelfiName":"-","THID":"D91FAF00080B","TariffProvider":"-","LastOperationDate":"2025-12-13T00:00:00","SEV":"nein","geojson_lng":9.20315,"geojson_lat":48.785599},"geometry":{"type":"Point","coordinates":[9.20315,48.785599]}},{"type":"Feature","properties":{"SeqNo":"730","Type":"Q","DHID":"de:08111:2059:0:3","Parent":"de:08111:2059","Name":"Rtg Urachstr.","Latitude":"48,785652","Longitude":"9,203537","MunicipalityCode":"00000000","Municipality":"-","DistrictCode":"-","District":"-","Description":"","Authority":"NVBW","DelfiName":"-","THID":"-","TariffProvider":"-","LastOperationDate":"","SEV":"nein","geojson_lng":9.203537,"geojson_lat":48.785652},"geometry":{"type":"Point","coordinates":[9.203537,48.785652]}},{"type":"Feature","properties":{"SeqNo":"731","Type":"Q","DHID":"de:08111:2059:0:4","Parent":"de:08111:2059","Name":"Rtg Ostendplatz","Latitude":"48,785504","Longitude":"9,202863","MunicipalityCode":"00000000","Municipality":"-","DistrictCode":"-","District":"-","Description":"","Authority":"NVBW","DelfiName":"-","THID":"-","TariffProvider":"-","LastOperationDate":"","SEV":"nein","geojson_lng":9.202863,"geojson_lat":48.785504},"geometry":{"type":"Point","coordinates":[9.202863,48.785504]}},{"type":"Feature","properties":{"SeqNo":"1808","Type":"A","DHID":"de:08111:26:81","Parent":"de:08111:26","Name":"Zw. Bahnüberg.2","Latitude":"48,789316","Longitude":"9,195586","MunicipalityCode":"00000000","Municipality":"-","DistrictCode":"-","District":"-","Description":"","Authority":"NVBW","DelfiName":"-","THID":"-","TariffProvider":"-","LastOperationDate":"","SEV":"nein","geojson_lng":9.195586,"geojson_lat":48.789316},"geometry":{"type":"Point","coordinates":[9.195586,48.789316]}},{"type":"Feature","properties":{"SeqNo":"1814","Type":"A","DHID":"de:08111:26:95","Parent":"de:08111:26","Name":"Zug. Neckarstr.2","Latitude":"48,789268","Longitude":"9,195586","MunicipalityCode":"00000000","Municipality":"-","DistrictCode":"-","District":"-","Description":"","Authority":"NVBW","DelfiName":"-","THID":"-","TariffProvider":"-","LastOperationDate":"","SEV":"nein","geojson_lng":9.195586,"geojson_lat":48.789268},"geometry":{"type":"Point","coordinates":[9.195586,48.789268]}},{"type":"Feature","properties":{"SeqNo":"1815","Type":"A","DHID":"de:08111:26:96","Parent":"de:08111:26","Name":"Zug. Neckarstr.Nord","Latitude":"48,789357","Longitude":"9,195551","MunicipalityCode":"00000000","Municipality":"-","DistrictCode":"-","District":"-","Description":"","Authority":"NVBW","DelfiName":"-","THID":"-","TariffProvider":"-","LastOperationDate":"","SEV":"nein","geojson_lng":9.195551,"geojson_lat":48.789357},"geometry":{"type":"Point","coordinates":[9.195551,48.789357]}},{"type":"Feature","properties":{"SeqNo":"1981","Type":"S","DHID":"de:08111:27","Parent":"de:08111:27","Name":"Metzstraße","Latitude":"48,792227","Longitude":"9,200536","MunicipalityCode":"08111000","Municipality":"Stuttgart","DistrictCode":"","District":"","Description":"","Authority":"NVBW","DelfiName":"-","THID":"D91FAF00001B","TariffProvider":"-","LastOperationDate":"2025-12-13T00:00:00","SEV":"nein","geojson_lng":9.200536,"geojson_lat":48.792227},"geometry":{"type":"Point","coordinates":[9.200536,48.792227]}},{"type":"Feature","properties":{"SeqNo":"1982","Type":"A","DHID":"de:08111:27:1","Parent":"de:08111:27","Name":"St Stöckach","Latitude":"48,792263","Longitude":"9,2005","MunicipalityCode":"00000000","Municipality":"-","DistrictCode":"-","District":"-","Description":"","Authority":"NVBW","DelfiName":"-","THID":"-","TariffProvider":"-","LastOperationDate":"","SEV":"nein","geojson_lng":9.2005,"geojson_lat":48.792263},"geometry":{"type":"Point","coordinates":[9.2005,48.792263]}},{"type":"Feature","properties":{"SeqNo":"1983","Type":"A","DHID":"de:08111:27:2","Parent":"de:08111:27","Name":"St Mineralbäder","Latitude":"48,792204","Longitude":"9,200581","MunicipalityCode":"00000000","Municipality":"-","DistrictCode":"-","District":"-","Description":"","Authority":"NVBW","DelfiName":"-","THID":"-","TariffProvider":"-","LastOperationDate":"","SEV":"nein","geojson_lng":9.200581,"geojson_lat":48.792204},"geometry":{"type":"Point","coordinates":[9.200581,48.792204]}},{"type":"Feature","properties":{"SeqNo":"1984","Type":"A","DHID":"de:08111:27:80","Parent":"de:08111:27","Name":"Gleisübergang","Latitude":"48,79247","Longitude":"9,200958","MunicipalityCode":"00000000","Municipality":"-","DistrictCode":"-","District":"-","Description":"","Authority":"NVBW","DelfiName":"-","THID":"-","TariffProvider":"-","LastOperationDate":"","SEV":"nein","geojson_lng":9.200958,"geojson_lat":48.79247},"geometry":{"type":"Point","coordinates":[9.200958,48.79247]}},{"type":"Feature","properties":{"SeqNo":"1986","Type":"A","DHID":"de:08111:27:91","Parent":"de:08111:27","Name":"Zg Nord-Ost","Latitude":"48,792458","Longitude":"9,201048","MunicipalityCode":"00000000","Municipality":"-","DistrictCode":"-","District":"-","Description":"","Authority":"NVBW","DelfiName":"-","THID":"-","TariffProvider":"-","LastOperationDate":"","SEV":"nein","geojson_lng":9.201048,"geojson_lat":48.792458},"geometry":{"type":"Point","coordinates":[9.201048,48.792458]}},{"type":"Feature","properties":{"SeqNo":"1987","Type":"A","DHID":"de:08111:27:92","Parent":"de:08111:27","Name":"Zg Süd-Ost","Latitude":"48,791843","Longitude":"9,199997","MunicipalityCode":"00000000","Municipality":"-","DistrictCode":"-","District":"-","Description":"","Authority":"NVBW","DelfiName":"-","THID":"-","TariffProvider":"-","LastOperationDate":"","SEV":"nein","geojson_lng":9.199997,"geojson_lat":48.791843},"geometry":{"type":"Point","coordinates":[9.199997,48.791843]}},{"type":"Feature","properties":{"SeqNo":"1988","Type":"A","DHID":"de:08111:27:93","Parent":"de:08111:27","Name":"Zg Süd-West","Latitude":"48,791926","Longitude":"9,199889","MunicipalityCode":"00000000","Municipality":"-","DistrictCode":"-","District":"-","Description":"","Authority":"NVBW","DelfiName":"-","THID":"-","TariffProvider":"-","LastOperationDate":"","SEV":"nein","geojson_lng":9.199889,"geojson_lat":48.791926},"geometry":{"type":"Point","coordinates":[9.199889,48.791926]}},{"type":"Feature","properties":{"SeqNo":"1989","Type":"A","DHID":"de:08111:27:94","Parent":"de:08111:27","Name":"Rtg. Stöckach","Latitude":"48,79231","Longitude":"9,200509","MunicipalityCode":"00000000","Municipality":"-","DistrictCode":"-","District":"-","Description":"","Authority":"NVBW","DelfiName":"-","THID":"-","TariffProvider":"-","LastOperationDate":"","SEV":"nein","geojson_lng":9.200509,"geojson_lat":48.79231},"geometry":{"type":"Point","coordinates":[9.200509,48.79231]}},{"type":"Feature","properties":{"SeqNo":"1990","Type":"Q","DHID":"de:08111:27:0:3","Parent":"de:08111:27","Name":"NBus Rtg einwärts","Latitude":"48,792281","Longitude":"9,200348","MunicipalityCode":"00000000","Municipality":"-","DistrictCode":"-","District":"-","Description":"","Authority":"NVBW","DelfiName":"-","THID":"-","TariffProvider":"-","LastOperationDate":"","SEV":"nein","geojson_lng":9.200348,"geojson_lat":48.792281},"geometry":{"type":"Point","coordinates":[9.200348,48.792281]}},{"type":"Feature","properties":{"SeqNo":"1991","Type":"Q","DHID":"de:08111:27:0:4","Parent":"de:08111:27","Name":"NBus Rtg auswärts","Latitude":"48,792103","Longitude":"9,200554","MunicipalityCode":"00000000","Municipality":"-","DistrictCode":"-","District":"-","Description":"","Authority":"NVBW","DelfiName":"-","THID":"-","TariffProvider":"-","LastOperationDate":"","SEV":"nein","geojson_lng":9.200554,"geojson_lat":48.792103},"geometry":{"type":"Point","coordinates":[9.200554,48.792103]}},{"type":"Feature","properties":{"SeqNo":"1992","Type":"Q","DHID":"de:08111:27:0:1","Parent":"de:08111:27:1","Name":"Rtg Stöckach","Latitude":"48,792245","Longitude":"9,200527","MunicipalityCode":"00000000","Municipality":"-","DistrictCode":"-","District":"-","Description":"","Authority":"NVBW","DelfiName":"-","THID":"-","TariffProvider":"-","LastOperationDate":"","SEV":"nein","geojson_lng":9.200527,"geojson_lat":48.792245},"geometry":{"type":"Point","coordinates":[9.200527,48.792245]}},{"type":"Feature","properties":{"SeqNo":"1993","Type":"Q","DHID":"de:08111:27:0:Z1","Parent":"de:08111:27:1","Name":"Zugang St","Latitude":"48,792482","Longitude":"9,200958","MunicipalityCode":"00000000","Municipality":"-","DistrictCode":"-","District":"-","Description":"","Authority":"NVBW","DelfiName":"-","THID":"-","TariffProvider":"-","LastOperationDate":"","SEV":"nein","geojson_lng":9.200958,"geojson_lat":48.792482},"geometry":{"type":"Point","coordinates":[9.200958,48.792482]}},{"type":"Feature","properties":{"SeqNo":"1994","Type":"Q","DHID":"de:08111:27:0:2","Parent":"de:08111:27:2","Name":"Rtg Mineralbäder","Latitude":"48,792222","Longitude":"9,200554","MunicipalityCode":"00000000","Municipality":"-","DistrictCode":"-","District":"-","Description":"","Authority":"NVBW","DelfiName":"-","THID":"-","TariffProvider":"-","LastOperationDate":"","SEV":"nein","geojson_lng":9.200554,"geojson_lat":48.792222},"geometry":{"type":"Point","coordinates":[9.200554,48.792222]}},{"type":"Feature","properties":{"SeqNo":"1995","Type":"Q","DHID":"de:08111:27:94:3","Parent":"de:08111:27:94","Name":"Ersatzhaltestelle Rtg. Stöckach","Latitude":"48,792316","Longitude":"9,2005","MunicipalityCode":"00000000","Municipality":"-","DistrictCode":"-","District":"-","Description":"","Authority":"NVBW","DelfiName":"-","THID":"-","TariffProvider":"-","LastOperationDate":"","SEV":"nein","geojson_lng":9.2005,"geojson_lat":48.792316},"geometry":{"type":"Point","coordinates":[9.2005,48.792316]}},{"type":"Feature","properties":{"SeqNo":"1997","Type":"Q","DHID":"de:08111:27:94:5","Parent":"de:08111:27:94","Name":"Ersatzhst. Rtg. Karl-Olga-Krankenhaus","Latitude":"48,79231","Longitude":"9,200878","MunicipalityCode":"00000000","Municipality":"-","DistrictCode":"-","District":"-","Description":"","Authority":"NVBW","DelfiName":"-","THID":"-","TariffProvider":"-","LastOperationDate":"","SEV":"nein","geojson_lng":9.200878,"geojson_lat":48.79231},"geometry":{"type":"Point","coordinates":[9.200878,48.79231]}},{"type":"Feature","properties":{"SeqNo":"4460","Type":"S","DHID":"de:08111:76","Parent":"de:08111:76","Name":"Karl-Olga-Krankenhaus","Latitude":"48,789197","Longitude":"9,201749","MunicipalityCode":"08111000","Municipality":"Stuttgart","DistrictCode":"","District":"","Description":"","Authority":"NVBW","DelfiName":"-","THID":"D91FAF00004C","TariffProvider":"-","LastOperationDate":"2025-12-13T00:00:00","SEV":"nein","geojson_lng":9.201749,"geojson_lat":48.789197},"geometry":{"type":"Point","coordinates":[9.201749,48.789197]}},{"type":"Feature","properties":{"SeqNo":"4461","Type":"A","DHID":"de:08111:76:1","Parent":"de:08111:76","Name":"Stb. R Stöckach","Latitude":"48,789268","Longitude":"9,201291","MunicipalityCode":"00000000","Municipality":"-","DistrictCode":"-","District":"-","Description":"","Authority":"NVBW","DelfiName":"-","THID":"-","TariffProvider":"-","LastOperationDate":"","SEV":"nein","geojson_lng":9.201291,"geojson_lat":48.789268},"geometry":{"type":"Point","coordinates":[9.201291,48.789268]}},{"type":"Feature","properties":{"SeqNo":"4462","Type":"A","DHID":"de:08111:76:2","Parent":"de:08111:76","Name":"Stb. RBergfriedhof","Latitude":"48,789138","Longitude":"9,202144","MunicipalityCode":"00000000","Municipality":"-","DistrictCode":"-","District":"-","Description":"","Authority":"NVBW","DelfiName":"-","THID":"-","TariffProvider":"-","LastOperationDate":"","SEV":"nein","geojson_lng":9.202144,"geojson_lat":48.789138},"geometry":{"type":"Point","coordinates":[9.202144,48.789138]}},{"type":"Feature","properties":{"SeqNo":"4463","Type":"A","DHID":"de:08111:76:3","Parent":"de:08111:76","Name":"(Nacht)Bus","Latitude":"48,789079","Longitude":"9,20236","MunicipalityCode":"00000000","Municipality":"-","DistrictCode":"-","District":"-","Description":"","Authority":"NVBW","DelfiName":"-","THID":"-","TariffProvider":"-","LastOperationDate":"","SEV":"nein","geojson_lng":9.20236,"geojson_lat":48.789079},"geometry":{"type":"Point","coordinates":[9.20236,48.789079]}},{"type":"Feature","properties":{"SeqNo":"4464","Type":"A","DHID":"de:08111:76:80","Parent":"de:08111:76","Name":"Kreuzung 1","Latitude":"48,789245","Longitude":"9,200851","MunicipalityCode":"00000000","Municipality":"-","DistrictCode":"-","District":"-","Description":"","Authority":"NVBW","DelfiName":"-","THID":"-","TariffProvider":"-","LastOperationDate":"","SEV":"nein","geojson_lng":9.200851,"geojson_lat":48.789245},"geometry":{"type":"Point","coordinates":[9.200851,48.789245]}},{"type":"Feature","properties":{"SeqNo":"4465","Type":"A","DHID":"de:08111:76:81","Parent":"de:08111:76","Name":"Kreuzung 2","Latitude":"48,789174","Longitude":"9,20262","MunicipalityCode":"00000000","Municipality":"-","DistrictCode":"-","District":"-","Description":"","Authority":"NVBW","DelfiName":"-","THID":"-","TariffProvider":"-","LastOperationDate":"","SEV":"nein","geojson_lng":9.20262,"geojson_lat":48.789174},"geometry":{"type":"Point","coordinates":[9.20262,48.789174]}},{"type":"Feature","properties":{"SeqNo":"4466","Type":"A","DHID":"de:08111:76:90","Parent":"de:08111:76","Name":"Zug. K-Br-Hackstr","Latitude":"48,789298","Longitude":"9,200869","MunicipalityCode":"00000000","Municipality":"-","DistrictCode":"-","District":"-","Description":"","Authority":"NVBW","DelfiName":"-","THID":"-","TariffProvider":"-","LastOperationDate":"","SEV":"nein","geojson_lng":9.200869,"geojson_lat":48.789298},"geometry":{"type":"Point","coordinates":[9.200869,48.789298]}},{"type":"Feature","properties":{"SeqNo":"4467","Type":"A","DHID":"de:08111:76:91","Parent":"de:08111:76","Name":"Zug. Restaurants","Latitude":"48,789257","Longitude":"9,20174","MunicipalityCode":"00000000","Municipality":"-","DistrictCode":"-","District":"-","Description":"","Authority":"NVBW","DelfiName":"-","THID":"-","TariffProvider":"-","LastOperationDate":"","SEV":"nein","geojson_lng":9.20174,"geojson_lat":48.789257},"geometry":{"type":"Point","coordinates":[9.20174,48.789257]}},{"type":"Feature","properties":{"SeqNo":"4468","Type":"A","DHID":"de:08111:76:92","Parent":"de:08111:76","Name":"Zug. Turnhalle","Latitude":"48,78912","Longitude":"9,202503","MunicipalityCode":"00000000","Municipality":"-","DistrictCode":"-","District":"-","Description":"","Authority":"NVBW","DelfiName":"-","THID":"-","TariffProvider":"-","LastOperationDate":"","SEV":"nein","geojson_lng":9.202503,"geojson_lat":48.78912},"geometry":{"type":"Point","coordinates":[9.202503,48.78912]}},{"type":"Feature","properties":{"SeqNo":"4469","Type":"Q","DHID":"de:08111:76:1:1","Parent":"de:08111:76:1","Name":"Rtg Stöckach","Latitude":"48,789233","Longitude":"9,201327","MunicipalityCode":"00000000","Municipality":"-","DistrictCode":"-","District":"-","Description":"","Authority":"NVBW","DelfiName":"-","THID":"-","TariffProvider":"-","LastOperationDate":"","SEV":"nein","geojson_lng":9.201327,"geojson_lat":48.789233},"geometry":{"type":"Point","coordinates":[9.201327,48.789233]}},{"type":"Feature","properties":{"SeqNo":"4470","Type":"Q","DHID":"de:08111:76:1:2","Parent":"de:08111:76:2","Name":"Rtg Bergfriedhof","Latitude":"48,789168","Longitude":"9,202117","MunicipalityCode":"00000000","Municipality":"-","DistrictCode":"-","District":"-","Description":"","Authority":"NVBW","DelfiName":"-","THID":"-","TariffProvider":"-","LastOperationDate":"","SEV":"nein","geojson_lng":9.202117,"geojson_lat":48.789168},"geometry":{"type":"Point","coordinates":[9.202117,48.789168]}},{"type":"Feature","properties":{"SeqNo":"4471","Type":"Q","DHID":"de:08111:76:1:4","Parent":"de:08111:76:3","Name":"NBus","Latitude":"48,789103","Longitude":"9,20236","MunicipalityCode":"00000000","Municipality":"-","DistrictCode":"-","District":"-","Description":"","Authority":"NVBW","DelfiName":"-","THID":"-","TariffProvider":"-","LastOperationDate":"","SEV":"nein","geojson_lng":9.20236,"geojson_lat":48.789103},"geometry":{"type":"Point","coordinates":[9.20236,48.789103]}},{"type":"Feature","properties":{"SeqNo":"4472","Type":"Q","DHID":"de:08111:76:3:5","Parent":"de:08111:76:3","Name":"Ersatzhaltestelle U9E Ein-Ausstieg","Latitude":"48,789197","Longitude":"9,201893","MunicipalityCode":"00000000","Municipality":"-","DistrictCode":"-","District":"-","Description":"","Authority":"NVBW","DelfiName":"-","THID":"-","TariffProvider":"-","LastOperationDate":"","SEV":"nein","geojson_lng":9.201893,"geojson_lat":48.789197},"geometry":{"type":"Point","coordinates":[9.201893,48.789197]}},{"type":"Feature","properties":{"SeqNo":"4473","Type":"S","DHID":"de:08111:77","Parent":"de:08111:77","Name":"Bergfriedhof","Latitude":"48,789061","Longitude":"9,205621","MunicipalityCode":"08111000","Municipality":"Stuttgart","DistrictCode":"","District":"","Description":"","Authority":"NVBW","DelfiName":"-","THID":"D91FAF00004D","TariffProvider":"-","LastOperationDate":"2025-12-13T00:00:00","SEV":"nein","geojson_lng":9.205621,"geojson_lat":48.789061},"geometry":{"type":"Point","coordinates":[9.205621,48.789061]}},{"type":"Feature","properties":{"SeqNo":"4474","Type":"A","DHID":"de:08111:77:1","Parent":"de:08111:77","Name":"Stb Rtg. Raitelsberg","Latitude":"48,78899","Longitude":"9,206151","MunicipalityCode":"00000000","Municipality":"-","DistrictCode":"-","District":"-","Description":"","Authority":"NVBW","DelfiName":"-","THID":"-","TariffProvider":"-","LastOperationDate":"","SEV":"nein","geojson_lng":9.206151,"geojson_lat":48.78899},"geometry":{"type":"Point","coordinates":[9.206151,48.78899]}},{"type":"Feature","properties":{"SeqNo":"4475","Type":"A","DHID":"de:08111:77:2","Parent":"de:08111:77","Name":"Stb. Rtg. K.-O.-KH","Latitude":"48,789126","Longitude":"9,205001","MunicipalityCode":"00000000","Municipality":"-","DistrictCode":"-","District":"-","Description":"","Authority":"NVBW","DelfiName":"-","THID":"-","TariffProvider":"-","LastOperationDate":"","SEV":"nein","geojson_lng":9.205001,"geojson_lat":48.789126},"geometry":{"type":"Point","coordinates":[9.205001,48.789126]}},{"type":"Feature","properties":{"SeqNo":"4476","Type":"A","DHID":"de:08111:77:3","Parent":"de:08111:77","Name":"(Nacht)Bus","Latitude":"48,789079","Longitude":"9,206124","MunicipalityCode":"00000000","Municipality":"-","DistrictCode":"-","District":"-","Description":"","Authority":"NVBW","DelfiName":"-","THID":"-","TariffProvider":"-","LastOperationDate":"","SEV":"nein","geojson_lng":9.206124,"geojson_lat":48.789079},"geometry":{"type":"Point","coordinates":[9.206124,48.789079]}},{"type":"Feature","properties":{"SeqNo":"4477","Type":"A","DHID":"de:08111:77:80","Parent":"de:08111:77","Name":"Zw.Bereich Straße","Latitude":"48,789055","Longitude":"9,205728","MunicipalityCode":"00000000","Municipality":"-","DistrictCode":"-","District":"-","Description":"","Authority":"NVBW","DelfiName":"-","THID":"-","TariffProvider":"-","LastOperationDate":"","SEV":"nein","geojson_lng":9.205728,"geojson_lat":48.789055},"geometry":{"type":"Point","coordinates":[9.205728,48.789055]}},{"type":"Feature","properties":{"SeqNo":"4478","Type":"A","DHID":"de:08111:77:90","Parent":"de:08111:77","Name":"Zugang Rtg. K.O.-Kh","Latitude":"48,789126","Longitude":"9,20465","MunicipalityCode":"00000000","Municipality":"-","DistrictCode":"-","District":"-","Description":"","Authority":"NVBW","DelfiName":"-","THID":"-","TariffProvider":"-","LastOperationDate":"","SEV":"nein","geojson_lng":9.20465,"geojson_lat":48.789126},"geometry":{"type":"Point","coordinates":[9.20465,48.789126]}},{"type":"Feature","properties":{"SeqNo":"4479","Type":"A","DHID":"de:08111:77:91","Parent":"de:08111:77","Name":"Zugang Werderstr.","Latitude":"48,789115","Longitude":"9,205441","MunicipalityCode":"00000000","Municipality":"-","DistrictCode":"-","District":"-","Description":"","Authority":"NVBW","DelfiName":"-","THID":"-","TariffProvider":"-","LastOperationDate":"","SEV":"nein","geojson_lng":9.205441,"geojson_lat":48.789115},"geometry":{"type":"Point","coordinates":[9.205441,48.789115]}},{"type":"Feature","properties":{"SeqNo":"4480","Type":"A","DHID":"de:08111:77:92","Parent":"de:08111:77","Name":"Zugang kleiner Weg","Latitude":"48,789002","Longitude":"9,205836","MunicipalityCode":"00000000","Municipality":"-","DistrictCode":"-","District":"-","Description":"","Authority":"NVBW","DelfiName":"-","THID":"-","TariffProvider":"-","LastOperationDate":"","SEV":"nein","geojson_lng":9.205836,"geojson_lat":48.789002},"geometry":{"type":"Point","coordinates":[9.205836,48.789002]}},{"type":"Feature","properties":{"SeqNo":"4481","Type":"A","DHID":"de:08111:77:93","Parent":"de:08111:77","Name":"Z Hack-/Ostendstr.","Latitude":"48,788972","Longitude":"9,206456","MunicipalityCode":"00000000","Municipality":"-","DistrictCode":"-","District":"-","Description":"","Authority":"NVBW","DelfiName":"-","THID":"-","TariffProvider":"-","LastOperationDate":"","SEV":"nein","geojson_lng":9.206456,"geojson_lat":48.788972},"geometry":{"type":"Point","coordinates":[9.206456,48.788972]}},{"type":"Feature","properties":{"SeqNo":"4482","Type":"Q","DHID":"de:08111:77:0:2","Parent":"de:08111:77:1","Name":"Rtg Raitelsberg/Ostendplatz","Latitude":"48,789026","Longitude":"9,206124","MunicipalityCode":"00000000","Municipality":"-","DistrictCode":"-","District":"-","Description":"","Authority":"NVBW","DelfiName":"-","THID":"-","TariffProvider":"-","LastOperationDate":"","SEV":"nein","geojson_lng":9.206124,"geojson_lat":48.789026},"geometry":{"type":"Point","coordinates":[9.206124,48.789026]}},{"type":"Feature","properties":{"SeqNo":"4483","Type":"Q","DHID":"de:08111:77:0:1","Parent":"de:08111:77:2","Name":"Rtg Karl-Olga-Krankenhaus","Latitude":"48,789103","Longitude":"9,204974","MunicipalityCode":"00000000","Municipality":"-","DistrictCode":"-","District":"-","Description":"","Authority":"NVBW","DelfiName":"-","THID":"-","TariffProvider":"-","LastOperationDate":"","SEV":"nein","geojson_lng":9.204974,"geojson_lat":48.789103},"geometry":{"type":"Point","coordinates":[9.204974,48.789103]}},{"type":"Feature","properties":{"SeqNo":"4484","Type":"Q","DHID":"de:08111:77:0:4","Parent":"de:08111:77:3","Name":"NBus","Latitude":"48,789091","Longitude":"9,206097","MunicipalityCode":"00000000","Municipality":"-","DistrictCode":"-","District":"-","Description":"","Authority":"NVBW","DelfiName":"-","THID":"-","TariffProvider":"-","LastOperationDate":"","SEV":"nein","geojson_lng":9.206097,"geojson_lat":48.789091},"geometry":{"type":"Point","coordinates":[9.206097,48.789091]}},{"type":"Feature","properties":{"SeqNo":"4485","Type":"Q","DHID":"de:08111:77:1:5","Parent":"de:08111:77:3","Name":"Ersatzhaltestelle Rtg Raitelsberg","Latitude":"48,788955","Longitude":"9,206555","MunicipalityCode":"00000000","Municipality":"-","DistrictCode":"-","District":"-","Description":"","Authority":"NVBW","DelfiName":"-","THID":"-","TariffProvider":"-","LastOperationDate":"","SEV":"nein","geojson_lng":9.206555,"geojson_lat":48.788955},"geometry":{"type":"Point","coordinates":[9.206555,48.788955]}}]}