{"type":"FeatureCollection","features":[{"type":"Feature","properties":{"SeqNo":"840565","Type":"S","DHID":"de:14612:209","Parent":"de:14612:209","Name":"Dresden Alttrachau","MunicipalityCode":"14612000","Municipality":"Dresden","DistrictCode":"","District":"","Description":"","Authority":"VVO","DelfiName":"Dresden, Alttrachau","THID":"D939140000D1","LastOperationDate":"2025-02-28T00:00:00","SEV":"nein","longitude":"13,709001","latitude":"51,08434","geojson_lng":13.709001,"geojson_lat":51.08434},"geometry":{"type":"Point","coordinates":[13.709001,51.08434]}},{"type":"Feature","properties":{"SeqNo":"840566","Type":"A","DHID":"de:14612:209:1","Parent":"de:14612:209","Name":"Haltestelle","MunicipalityCode":"00000000","Municipality":"-","DistrictCode":"-","District":"-","Description":"","Authority":"VVO","DelfiName":"-","THID":"-","LastOperationDate":"","SEV":"nein","longitude":"13,709028","latitude":"51,084323","geojson_lng":13.709028,"geojson_lat":51.084323},"geometry":{"type":"Point","coordinates":[13.709028,51.084323]}},{"type":"Feature","properties":{"SeqNo":"840567","Type":"A","DHID":"de:14612:209:2","Parent":"de:14612:209","Name":"Bunsenstr.","MunicipalityCode":"00000000","Municipality":"-","DistrictCode":"-","District":"-","Description":"","Authority":"VVO","DelfiName":"-","THID":"-","LastOperationDate":"","SEV":"nein","longitude":"13,706953","latitude":"51,084407","geojson_lng":13.706953,"geojson_lat":51.084407},"geometry":{"type":"Point","coordinates":[13.706953,51.084407]}},{"type":"Feature","properties":{"SeqNo":"840568","Type":"Q","DHID":"de:14612:209:1:1","Parent":"de:14612:209:1","Name":"Stadtwärts","MunicipalityCode":"00000000","Municipality":"-","DistrictCode":"-","District":"-","Description":"","Authority":"VVO","DelfiName":"-","THID":"-","LastOperationDate":"","SEV":"nein","longitude":"13,708381","latitude":"51,08434","geojson_lng":13.708381,"geojson_lat":51.08434},"geometry":{"type":"Point","coordinates":[13.708381,51.08434]}},{"type":"Feature","properties":{"SeqNo":"840569","Type":"Q","DHID":"de:14612:209:1:2","Parent":"de:14612:209:1","Name":"landwärts","MunicipalityCode":"00000000","Municipality":"-","DistrictCode":"-","District":"-","Description":"","Authority":"VVO","DelfiName":"-","THID":"-","LastOperationDate":"","SEV":"nein","longitude":"13,709621","latitude":"51,084159","geojson_lng":13.709621,"geojson_lat":51.084159},"geometry":{"type":"Point","coordinates":[13.709621,51.084159]}},{"type":"Feature","properties":{"SeqNo":"840570","Type":"Q","DHID":"de:14612:209:2:91","Parent":"de:14612:209:2","Name":"91","MunicipalityCode":"00000000","Municipality":"-","DistrictCode":"-","District":"-","Description":"","Authority":"VVO","DelfiName":"-","THID":"-","LastOperationDate":"","SEV":"nein","longitude":"13,706962","latitude":"51,084407","geojson_lng":13.706962,"geojson_lat":51.084407},"geometry":{"type":"Point","coordinates":[13.706962,51.084407]}},{"type":"Feature","properties":{"SeqNo":"840578","Type":"S","DHID":"de:14612:210","Parent":"de:14612:210","Name":"Dresden Rankestraße","MunicipalityCode":"14612000","Municipality":"Dresden","DistrictCode":"","District":"","Description":"","Authority":"VVO","DelfiName":"Dresden, Rankestraße","THID":"D939140000D2","LastOperationDate":"2025-02-28T00:00:00","SEV":"nein","longitude":"13,704806","latitude":"51,085858","geojson_lng":13.704806,"geojson_lat":51.085858},"geometry":{"type":"Point","coordinates":[13.704806,51.085858]}},{"type":"Feature","properties":{"SeqNo":"840579","Type":"A","DHID":"de:14612:210:1","Parent":"de:14612:210","Name":"Haltestelle","MunicipalityCode":"00000000","Municipality":"-","DistrictCode":"-","District":"-","Description":"","Authority":"VVO","DelfiName":"-","THID":"-","LastOperationDate":"","SEV":"nein","longitude":"13,704779","latitude":"51,085869","geojson_lng":13.704779,"geojson_lat":51.085869},"geometry":{"type":"Point","coordinates":[13.704779,51.085869]}},{"type":"Feature","properties":{"SeqNo":"840580","Type":"Q","DHID":"de:14612:210:1:1","Parent":"de:14612:210:1","Name":"1","MunicipalityCode":"00000000","Municipality":"-","DistrictCode":"-","District":"-","Description":"","Authority":"VVO","DelfiName":"-","THID":"-","LastOperationDate":"","SEV":"nein","longitude":"13,704985","latitude":"51,08544","geojson_lng":13.704985,"geojson_lat":51.08544},"geometry":{"type":"Point","coordinates":[13.704985,51.08544]}},{"type":"Feature","properties":{"SeqNo":"840581","Type":"Q","DHID":"de:14612:210:1:2","Parent":"de:14612:210:1","Name":"2","MunicipalityCode":"00000000","Municipality":"-","DistrictCode":"-","District":"-","Description":"","Authority":"VVO","DelfiName":"-","THID":"-","LastOperationDate":"","SEV":"nein","longitude":"13,704554","latitude":"51,086365","geojson_lng":13.704554,"geojson_lat":51.086365},"geometry":{"type":"Point","coordinates":[13.704554,51.086365]}},{"type":"Feature","properties":{"SeqNo":"840582","Type":"S","DHID":"de:14612:211","Parent":"de:14612:211","Name":"Dresden Peschelstraße","MunicipalityCode":"14612000","Municipality":"Dresden","DistrictCode":"","District":"","Description":"","Authority":"VVO","DelfiName":"Dresden, Peschelstraße","THID":"D939140000D3","LastOperationDate":"2025-02-28T00:00:00","SEV":"nein","longitude":"13,703422","latitude":"51,088577","geojson_lng":13.703422,"geojson_lat":51.088577},"geometry":{"type":"Point","coordinates":[13.703422,51.088577]}},{"type":"Feature","properties":{"SeqNo":"840583","Type":"A","DHID":"de:14612:211:1","Parent":"de:14612:211","Name":"Richtung Rankestr","MunicipalityCode":"00000000","Municipality":"-","DistrictCode":"-","District":"-","Description":"","Authority":"VVO","DelfiName":"-","THID":"-","LastOperationDate":"","SEV":"nein","longitude":"13,703548","latitude":"51,088323","geojson_lng":13.703548,"geojson_lat":51.088323},"geometry":{"type":"Point","coordinates":[13.703548,51.088323]}},{"type":"Feature","properties":{"SeqNo":"840584","Type":"A","DHID":"de:14612:211:2","Parent":"de:14612:211","Name":"Ri. Hp. Trachau","MunicipalityCode":"00000000","Municipality":"-","DistrictCode":"-","District":"-","Description":"","Authority":"VVO","DelfiName":"-","THID":"-","LastOperationDate":"","SEV":"nein","longitude":"13,702883","latitude":"51,088521","geojson_lng":13.702883,"geojson_lat":51.088521},"geometry":{"type":"Point","coordinates":[13.702883,51.088521]}},{"type":"Feature","properties":{"SeqNo":"840585","Type":"Q","DHID":"de:14612:211:1:1","Parent":"de:14612:211:1","Name":"1","MunicipalityCode":"00000000","Municipality":"-","DistrictCode":"-","District":"-","Description":"","Authority":"VVO","DelfiName":"-","THID":"-","LastOperationDate":"","SEV":"nein","longitude":"13,703539","latitude":"51,088278","geojson_lng":13.703539,"geojson_lat":51.088278},"geometry":{"type":"Point","coordinates":[13.703539,51.088278]}},{"type":"Feature","properties":{"SeqNo":"840586","Type":"Q","DHID":"de:14612:211:1:2","Parent":"de:14612:211:1","Name":"2","MunicipalityCode":"00000000","Municipality":"-","DistrictCode":"-","District":"-","Description":"","Authority":"VVO","DelfiName":"-","THID":"-","LastOperationDate":"","SEV":"nein","longitude":"13,703602","latitude":"51,088256","geojson_lng":13.703602,"geojson_lat":51.088256},"geometry":{"type":"Point","coordinates":[13.703602,51.088256]}},{"type":"Feature","properties":{"SeqNo":"840587","Type":"Q","DHID":"de:14612:211:2:3","Parent":"de:14612:211:2","Name":"3","MunicipalityCode":"00000000","Municipality":"-","DistrictCode":"-","District":"-","Description":"","Authority":"VVO","DelfiName":"-","THID":"-","LastOperationDate":"","SEV":"nein","longitude":"13,702704","latitude":"51,088521","geojson_lng":13.702704,"geojson_lat":51.088521},"geometry":{"type":"Point","coordinates":[13.702704,51.088521]}},{"type":"Feature","properties":{"SeqNo":"840588","Type":"Q","DHID":"de:14612:211:2:4","Parent":"de:14612:211:2","Name":"4","MunicipalityCode":"00000000","Municipality":"-","DistrictCode":"-","District":"-","Description":"","Authority":"VVO","DelfiName":"-","THID":"-","LastOperationDate":"","SEV":"nein","longitude":"13,703009","latitude":"51,08851","geojson_lng":13.703009,"geojson_lat":51.08851},"geometry":{"type":"Point","coordinates":[13.703009,51.08851]}},{"type":"Feature","properties":{"SeqNo":"842673","Type":"S","DHID":"de:14612:621","Parent":"de:14612:621","Name":"Dresden Krankenhaus Neustadt","MunicipalityCode":"14612000","Municipality":"Dresden","DistrictCode":"","District":"","Description":"","Authority":"VVO","DelfiName":"Dresden, Krankenhaus Neustadt","THID":"D9391400026D","LastOperationDate":"2025-02-28T00:00:00","SEV":"nein","longitude":"13,709091","latitude":"51,089678","geojson_lng":13.709091,"geojson_lat":51.089678},"geometry":{"type":"Point","coordinates":[13.709091,51.089678]}},{"type":"Feature","properties":{"SeqNo":"842674","Type":"A","DHID":"de:14612:621:1","Parent":"de:14612:621","Name":"Haltestelle","MunicipalityCode":"00000000","Municipality":"-","DistrictCode":"-","District":"-","Description":"","Authority":"VVO","DelfiName":"-","THID":"-","LastOperationDate":"","SEV":"nein","longitude":"13,709136","latitude":"51,089672","geojson_lng":13.709136,"geojson_lat":51.089672},"geometry":{"type":"Point","coordinates":[13.709136,51.089672]}},{"type":"Feature","properties":{"SeqNo":"842675","Type":"Q","DHID":"de:14612:621:1:1","Parent":"de:14612:621:1","Name":"1","MunicipalityCode":"00000000","Municipality":"-","DistrictCode":"-","District":"-","Description":"","Authority":"VVO","DelfiName":"-","THID":"-","LastOperationDate":"","SEV":"nein","longitude":"13,708713","latitude":"51,089807","geojson_lng":13.708713,"geojson_lat":51.089807},"geometry":{"type":"Point","coordinates":[13.708713,51.089807]}},{"type":"Feature","properties":{"SeqNo":"842676","Type":"Q","DHID":"de:14612:621:1:2","Parent":"de:14612:621:1","Name":"2","MunicipalityCode":"00000000","Municipality":"-","DistrictCode":"-","District":"-","Description":"","Authority":"VVO","DelfiName":"-","THID":"-","LastOperationDate":"","SEV":"nein","longitude":"13,709252","latitude":"51,08961","geojson_lng":13.709252,"geojson_lat":51.08961},"geometry":{"type":"Point","coordinates":[13.709252,51.08961]}},{"type":"Feature","properties":{"SeqNo":"842679","Type":"A","DHID":"de:14612:622:2","Parent":"de:14612:622","Name":"Zugg Am Trachauer Bf","MunicipalityCode":"00000000","Municipality":"-","DistrictCode":"-","District":"-","Description":"","Authority":"VVO","DelfiName":"-","THID":"-","LastOperationDate":"","SEV":"nein","longitude":"13,705156","latitude":"51,089621","geojson_lng":13.705156,"geojson_lat":51.089621},"geometry":{"type":"Point","coordinates":[13.705156,51.089621]}},{"type":"Feature","properties":{"SeqNo":"842680","Type":"A","DHID":"de:14612:622:3","Parent":"de:14612:622","Name":"Bus","MunicipalityCode":"00000000","Municipality":"-","DistrictCode":"-","District":"-","Description":"","Authority":"VVO","DelfiName":"-","THID":"-","LastOperationDate":"","SEV":"ja","longitude":"13,704985","latitude":"51,089407","geojson_lng":13.704985,"geojson_lat":51.089407},"geometry":{"type":"Point","coordinates":[13.704985,51.089407]}},{"type":"Feature","properties":{"SeqNo":"842685","Type":"Q","DHID":"de:14612:622:3:1","Parent":"de:14612:622:3","Name":"Ri.Gompitz (stw)","MunicipalityCode":"00000000","Municipality":"-","DistrictCode":"-","District":"-","Description":"","Authority":"VVO","DelfiName":"-","THID":"-","LastOperationDate":"","SEV":"ja","longitude":"13,704914","latitude":"51,08935","geojson_lng":13.704914,"geojson_lat":51.08935},"geometry":{"type":"Point","coordinates":[13.704914,51.08935]}},{"type":"Feature","properties":{"SeqNo":"842686","Type":"Q","DHID":"de:14612:622:3:2","Parent":"de:14612:622:3","Name":"Ri. Trachenberge (ldw)","MunicipalityCode":"00000000","Municipality":"-","DistrictCode":"-","District":"-","Description":"","Authority":"VVO","DelfiName":"-","THID":"-","LastOperationDate":"","SEV":"ja","longitude":"13,705057","latitude":"51,089452","geojson_lng":13.705057,"geojson_lat":51.089452},"geometry":{"type":"Point","coordinates":[13.705057,51.089452]}}]}