{"type":"FeatureCollection","features":[{"type":"Feature","properties":{"highway":"bus_stop","public_transport":"platform","name":"Korhoenstraat","ref:IFOPT":"NL:Q:31006355","_quaycode":"NL:Q:31006355","_town":"Maassluis","_status":"available","_mode":"bus","_direction":125,"_visuallyAccessible":false,"_disabledAccessible":false,"geojson_lng":4.228111995802491,"geojson_lat":51.9316869310669},"geometry":{"type":"Point","coordinates":[4.228111995802491,51.9316869310669]}},{"type":"Feature","properties":{"highway":"bus_stop","public_transport":"platform","name":"Botlekstraat","ref:IFOPT":"NL:Q:53370100","_quaycode":"NL:Q:53370100","_town":"Botlek","_status":"available","_mode":"bus","_direction":27,"_visuallyAccessible":false,"_disabledAccessible":false,"geojson_lng":4.261774685496967,"geojson_lat":51.890466830385776},"geometry":{"type":"Point","coordinates":[4.261774685496967,51.890466830385776]}},{"type":"Feature","properties":{"highway":"bus_stop","public_transport":"platform","name":"Industrieweg","ref:IFOPT":"NL:Q:42077302","_quaycode":"NL:Q:42077302","_town":"Maassluis","_status":"available","_mode":"bus","_direction":135,"_visuallyAccessible":false,"_disabledAccessible":false,"geojson_lng":4.242517876258988,"geojson_lat":51.92215591148833},"geometry":{"type":"Point","coordinates":[4.242517876258988,51.92215591148833]}},{"type":"Feature","properties":{"highway":"bus_stop","public_transport":"platform","name":"Botlekstraat","ref:IFOPT":"NL:Q:53370030","_quaycode":"NL:Q:53370030","_town":"Botlek","_status":"available","_mode":"bus","_direction":208,"_visuallyAccessible":false,"_disabledAccessible":false,"geojson_lng":4.26108369967109,"geojson_lat":51.88963321757937},"geometry":{"type":"Point","coordinates":[4.26108369967109,51.88963321757937]}},{"type":"Feature","properties":{"highway":"bus_stop","public_transport":"platform","name":"Prof. Gerbrandyweg","ref:IFOPT":"NL:Q:53370010","_quaycode":"NL:Q:53370010","_town":"Rozenburg","_status":"available","_mode":"bus","_direction":204,"_visuallyAccessible":false,"_disabledAccessible":false,"geojson_lng":4.263410066800086,"geojson_lat":51.90176371165638},"geometry":{"type":"Point","coordinates":[4.263410066800086,51.90176371165638]}},{"type":"Feature","properties":{"highway":"bus_stop","public_transport":"platform","name":"Doelstraat","ref:IFOPT":"NL:Q:42034102","_quaycode":"NL:Q:42034102","_town":"Maasland","_status":"available","_mode":"bus","_direction":330,"_visuallyAccessible":true,"_disabledAccessible":true,"geojson_lng":4.275786136336016,"geojson_lat":51.935455274700345},"geometry":{"type":"Point","coordinates":[4.275786136336016,51.935455274700345]}},{"type":"Feature","properties":{"highway":"bus_stop","public_transport":"platform","name":"Mesdaglaan","ref:IFOPT":"NL:Q:31006345","_quaycode":"NL:Q:31006345","_town":"Maassluis","_status":"available","_mode":"bus","_direction":63,"_visuallyAccessible":false,"_disabledAccessible":false,"geojson_lng":4.260940662514465,"geojson_lat":51.91970910016795},"geometry":{"type":"Point","coordinates":[4.260940662514465,51.91970910016795]}},{"type":"Feature","properties":{"highway":"bus_stop","public_transport":"platform","name":"Commandeurskade","ref:IFOPT":"NL:Q:42034001","_quaycode":"NL:Q:42034001","_town":"Maasland","_status":"available","_mode":"bus","_direction":144,"_visuallyAccessible":true,"_disabledAccessible":true,"geojson_lng":4.272948457667413,"geojson_lat":51.93905096528187},"geometry":{"type":"Point","coordinates":[4.272948457667413,51.93905096528187]}},{"type":"Feature","properties":{"highway":"bus_stop","public_transport":"platform","name":"Grote Stern","ref:IFOPT":"NL:Q:53470050","_quaycode":"NL:Q:53470050","_town":"Rozenburg","_status":"available","_mode":"bus","_direction":78,"_visuallyAccessible":false,"_disabledAccessible":true,"geojson_lng":4.243523695139968,"geojson_lat":51.908340576568875},"geometry":{"type":"Point","coordinates":[4.243523695139968,51.908340576568875]}},{"type":"Feature","properties":{"highway":"bus_stop","public_transport":"platform","name":"Meeuwensingel","ref:IFOPT":"NL:Q:53470120","_quaycode":"NL:Q:53470120","_town":"Rozenburg","_status":"available","_mode":"bus","_direction":226,"_visuallyAccessible":false,"_disabledAccessible":true,"geojson_lng":4.238427188194212,"geojson_lat":51.90644810946156},"geometry":{"type":"Point","coordinates":[4.238427188194212,51.90644810946156]}},{"type":"Feature","properties":{"highway":"bus_stop","public_transport":"platform","name":"Maasland Viaduct","ref:IFOPT":"NL:Q:42035001","_quaycode":"NL:Q:42035001","_town":"Maasland","_status":"available","_mode":"bus","_direction":50,"_visuallyAccessible":false,"_disabledAccessible":true,"geojson_lng":4.27215925622223,"geojson_lat":51.925146534586545},"geometry":{"type":"Point","coordinates":[4.27215925622223,51.925146534586545]}},{"type":"Feature","properties":{"highway":"bus_stop","public_transport":"platform","name":"Maassluis Centrum","ref:IFOPT":"NL:Q:31007206","_quaycode":"NL:Q:31007206","_town":"Maassluis","_status":"available","_mode":"bus","_direction":65,"_visuallyAccessible":false,"_disabledAccessible":false,"geojson_lng":4.253032929304126,"geojson_lat":51.917385803987486},"geometry":{"type":"Point","coordinates":[4.253032929304126,51.917385803987486]}},{"type":"Feature","properties":{"highway":"bus_stop","public_transport":"platform","name":"Prof. Gerbrandyweg","ref:IFOPT":"NL:Q:53470200","_quaycode":"NL:Q:53470200","_town":"Rozenburg","_status":"available","_mode":"bus","_direction":345,"_visuallyAccessible":null,"_disabledAccessible":null,"geojson_lng":4.266679284399552,"geojson_lat":51.90060838636132},"geometry":{"type":"Point","coordinates":[4.266679284399552,51.90060838636132]}},{"type":"Feature","properties":{"highway":"bus_stop","public_transport":"platform","name":"Prof. Gerbrandyweg","ref:IFOPT":"NL:Q:53370180","_quaycode":"NL:Q:53370180","_town":"Rozenburg","_status":"available","_mode":"bus","_direction":164,"_visuallyAccessible":null,"_disabledAccessible":null,"geojson_lng":4.266563064249938,"geojson_lat":51.90060727795459},"geometry":{"type":"Point","coordinates":[4.266563064249938,51.90060727795459]}},{"type":"Feature","properties":{"highway":"bus_stop","public_transport":"platform","name":"Prof. Gerbrandyweg","ref:IFOPT":"NL:Q:53470020","_quaycode":"NL:Q:53470020","_town":"Rozenburg","_status":"available","_mode":"bus","_direction":24,"_visuallyAccessible":false,"_disabledAccessible":false,"geojson_lng":4.2636686492503815,"geojson_lat":51.90188304176093},"geometry":{"type":"Point","coordinates":[4.2636686492503815,51.90188304176093]}},{"type":"Feature","properties":{"highway":"bus_stop","public_transport":"platform","name":"Nieuw Huis Ter Lucht","ref:IFOPT":"NL:Q:42034901","_quaycode":"NL:Q:42034901","_town":"Maasland","_status":"available","_mode":"bus","_direction":165,"_visuallyAccessible":false,"_disabledAccessible":true,"geojson_lng":4.2701270706086785,"geojson_lat":51.929693640202075},"geometry":{"type":"Point","coordinates":[4.2701270706086785,51.929693640202075]}},{"type":"Feature","properties":{"highway":"bus_stop","public_transport":"platform","name":"Stellingmolen","ref:IFOPT":"NL:Q:42038602","_quaycode":"NL:Q:42038602","_town":"Maassluis","_status":"available","_mode":"bus","_direction":40,"_visuallyAccessible":false,"_disabledAccessible":false,"geojson_lng":4.228573331215734,"geojson_lat":51.9431165268319},"geometry":{"type":"Point","coordinates":[4.228573331215734,51.9431165268319]}},{"type":"Feature","properties":{"highway":"bus_stop","public_transport":"platform","name":"Westeinde","ref:IFOPT":"NL:Q:42076801","_quaycode":"NL:Q:42076801","_town":"Maassluis","_status":"available","_mode":"bus","_direction":50,"_visuallyAccessible":false,"_disabledAccessible":true,"geojson_lng":4.228284665134214,"geojson_lat":51.93683035686715},"geometry":{"type":"Point","coordinates":[4.228284665134214,51.93683035686715]}},{"type":"Feature","properties":{"highway":"bus_stop","public_transport":"platform","name":"Industrieweg","ref:IFOPT":"NL:Q:42077301","_quaycode":"NL:Q:42077301","_town":"Maassluis","_status":"available","_mode":"bus","_direction":316,"_visuallyAccessible":false,"_disabledAccessible":false,"geojson_lng":4.242247555838849,"geojson_lat":51.92249486135039},"geometry":{"type":"Point","coordinates":[4.242247555838849,51.92249486135039]}},{"type":"Feature","properties":{"highway":"bus_stop","public_transport":"platform","name":"Nieuw Huis Ter Lucht","ref:IFOPT":"NL:Q:42034902","_quaycode":"NL:Q:42034902","_town":"Maasland","_status":"available","_mode":"bus","_direction":345,"_visuallyAccessible":false,"_disabledAccessible":true,"geojson_lng":4.270303301256737,"geojson_lat":51.929623402978535},"geometry":{"type":"Point","coordinates":[4.270303301256737,51.929623402978535]}},{"type":"Feature","properties":{"highway":"bus_stop","public_transport":"platform","name":"Vermeerlaan","ref:IFOPT":"NL:Q:31006346","_quaycode":"NL:Q:31006346","_town":"Maassluis","_status":"available","_mode":"bus","_direction":61,"_visuallyAccessible":false,"_disabledAccessible":false,"geojson_lng":4.2668676319722865,"geojson_lat":51.92162646784175},"geometry":{"type":"Point","coordinates":[4.2668676319722865,51.92162646784175]}},{"type":"Feature","properties":{"highway":"bus_stop","public_transport":"platform","name":"Nachtegaallaan","ref:IFOPT":"NL:Q:31006354","_quaycode":"NL:Q:31006354","_town":"Maassluis","_status":"available","_mode":"bus","_direction":122,"_visuallyAccessible":false,"_disabledAccessible":false,"geojson_lng":4.231658769006226,"geojson_lat":51.929474592801974},"geometry":{"type":"Point","coordinates":[4.231658769006226,51.929474592801974]}},{"type":"Feature","properties":{"highway":"bus_stop","public_transport":"platform","name":"Eikenlaan","ref:IFOPT":"NL:Q:53470110","_quaycode":"NL:Q:53470110","_town":"Rozenburg","_status":"available","_mode":"bus","_direction":26,"_visuallyAccessible":false,"_disabledAccessible":true,"geojson_lng":4.259984536044962,"geojson_lat":51.90102975509695},"geometry":{"type":"Point","coordinates":[4.259984536044962,51.90102975509695]}},{"type":"Feature","properties":{"highway":"bus_stop","public_transport":"platform","name":"Stadsmolen","ref:IFOPT":"NL:Q:31003012","_quaycode":"NL:Q:31003012","_town":"Maassluis","_status":"available","_mode":"bus","_direction":346,"_visuallyAccessible":true,"_disabledAccessible":true,"geojson_lng":4.22793148912298,"geojson_lat":51.93924492187341},"geometry":{"type":"Point","coordinates":[4.22793148912298,51.93924492187341]}},{"type":"Feature","properties":{"highway":"bus_stop","public_transport":"platform","name":"Commandeurskade","ref:IFOPT":"NL:Q:42034002","_quaycode":"NL:Q:42034002","_town":"Maasland","_status":"available","_mode":"bus","_direction":324,"_visuallyAccessible":true,"_disabledAccessible":true,"geojson_lng":4.27315179444839,"geojson_lat":51.93906188120755},"geometry":{"type":"Point","coordinates":[4.27315179444839,51.93906188120755]}},{"type":"Feature","properties":{"highway":"bus_stop","public_transport":"platform","name":"Mesdaglaan","ref:IFOPT":"NL:Q:31003003","_quaycode":"NL:Q:31003003","_town":"Maassluis","_status":"available","_mode":"bus","_direction":245,"_visuallyAccessible":false,"_disabledAccessible":false,"geojson_lng":4.260561660579348,"geojson_lat":51.919750412719935},"geometry":{"type":"Point","coordinates":[4.260561660579348,51.919750412719935]}},{"type":"Feature","properties":{"highway":"bus_stop","public_transport":"platform","name":"Laan van Nw. Blankenburg","ref:IFOPT":"NL:Q:53470090","_quaycode":"NL:Q:53470090","_town":"Rozenburg","_status":"available","_mode":"bus","_direction":114,"_visuallyAccessible":false,"_disabledAccessible":true,"geojson_lng":4.25282856646496,"geojson_lat":51.90129347997711},"geometry":{"type":"Point","coordinates":[4.25282856646496,51.90129347997711]}},{"type":"Feature","properties":{"highway":"bus_stop","public_transport":"platform","name":"Nachtegaallaan","ref:IFOPT":"NL:Q:31003009","_quaycode":"NL:Q:31003009","_town":"Maassluis","_status":"available","_mode":"bus","_direction":299,"_visuallyAccessible":false,"_disabledAccessible":false,"geojson_lng":4.23177413816801,"geojson_lat":51.92951168297816},"geometry":{"type":"Point","coordinates":[4.23177413816801,51.92951168297816]}},{"type":"Feature","properties":{"highway":"bus_stop","public_transport":"platform","name":"Mgr. W.M. Bekkerslaan","ref:IFOPT":"NL:Q:31006344","_quaycode":"NL:Q:31006344","_town":"Maassluis","_status":"available","_mode":"bus","_direction":144,"_visuallyAccessible":true,"_disabledAccessible":true,"geojson_lng":4.257490835742124,"geojson_lat":51.922201900989926},"geometry":{"type":"Point","coordinates":[4.257490835742124,51.922201900989926]}},{"type":"Feature","properties":{"highway":"bus_stop","public_transport":"platform","name":"Kluisweer","ref:IFOPT":"NL:Q:42034402","_quaycode":"NL:Q:42034402","_town":"Maasland","_status":"available","_mode":"bus","_direction":62,"_visuallyAccessible":true,"_disabledAccessible":false,"geojson_lng":4.275198633203915,"geojson_lat":51.93275302978509},"geometry":{"type":"Point","coordinates":[4.275198633203915,51.93275302978509]}},{"type":"Feature","properties":{"highway":"bus_stop","public_transport":"platform","name":"Twee Molens","ref:IFOPT":"NL:Q:42034802","_quaycode":"NL:Q:42034802","_town":"Maasland","_status":"available","_mode":"bus","_direction":27,"_visuallyAccessible":false,"_disabledAccessible":false,"geojson_lng":4.275009725421881,"geojson_lat":51.94390654099189},"geometry":{"type":"Point","coordinates":[4.275009725421881,51.94390654099189]}},{"type":"Feature","properties":{"highway":"bus_stop","public_transport":"platform","name":"Stellingmolen","ref:IFOPT":"NL:Q:42038601","_quaycode":"NL:Q:42038601","_town":"Maassluis","_status":"available","_mode":"bus","_direction":220,"_visuallyAccessible":false,"_disabledAccessible":false,"geojson_lng":4.228740637887128,"geojson_lat":51.943396834915994},"geometry":{"type":"Point","coordinates":[4.228740637887128,51.943396834915994]}},{"type":"Feature","properties":{"highway":"bus_stop","public_transport":"platform","name":"Maassluis Centrum","ref:IFOPT":"NL:Q:31007205","_quaycode":"NL:Q:31007205","_town":"Maassluis","_status":"available","_mode":"bus","_direction":285,"_visuallyAccessible":false,"_disabledAccessible":false,"geojson_lng":4.253056552049166,"geojson_lat":51.91760176827213},"geometry":{"type":"Point","coordinates":[4.253056552049166,51.91760176827213]}},{"type":"Feature","properties":{"highway":"bus_stop","public_transport":"platform","name":"Korte Boonestraat","ref:IFOPT":"NL:Q:31003005","_quaycode":"NL:Q:31003005","_town":"Maassluis","_status":"available","_mode":"bus","_direction":337,"_visuallyAccessible":true,"_disabledAccessible":true,"geojson_lng":4.253508670402828,"geojson_lat":51.92330516222186},"geometry":{"type":"Point","coordinates":[4.253508670402828,51.92330516222186]}},{"type":"Feature","properties":{"highway":"bus_stop","public_transport":"platform","name":"Uiverlaan","ref:IFOPT":"NL:Q:31003008","_quaycode":"NL:Q:31003008","_town":"Maassluis","_status":"available","_mode":"bus","_direction":303,"_visuallyAccessible":true,"_disabledAccessible":false,"geojson_lng":4.242442517872696,"geojson_lat":51.929678985286586},"geometry":{"type":"Point","coordinates":[4.242442517872696,51.929678985286586]}},{"type":"Feature","properties":{"highway":"bus_stop","public_transport":"platform","name":"Eikenlaan","ref:IFOPT":"NL:Q:53470040","_quaycode":"NL:Q:53470040","_town":"Rozenburg","_status":"available","_mode":"bus","_direction":212,"_visuallyAccessible":false,"_disabledAccessible":false,"geojson_lng":4.259953903643254,"geojson_lat":51.90109238438297},"geometry":{"type":"Point","coordinates":[4.259953903643254,51.90109238438297]}},{"type":"Feature","properties":{"highway":"bus_stop","public_transport":"platform","name":"Volgerweg","ref:IFOPT":"NL:Q:53470140","_quaycode":"NL:Q:53470140","_town":"Rozenburg","_status":"available","_mode":"bus","_direction":229,"_visuallyAccessible":false,"_disabledAccessible":false,"geojson_lng":4.23535701973262,"geojson_lat":51.90375729514586},"geometry":{"type":"Point","coordinates":[4.23535701973262,51.90375729514586]}},{"type":"Feature","properties":{"highway":"bus_stop","public_transport":"platform","name":"Raadhuisplein","ref:IFOPT":"NL:Q:53470080","_quaycode":"NL:Q:53470080","_town":"Rozenburg","_status":"available","_mode":"bus","_direction":285,"_visuallyAccessible":false,"_disabledAccessible":true,"geojson_lng":4.2495792206772425,"geojson_lat":51.90451609510257},"geometry":{"type":"Point","coordinates":[4.2495792206772425,51.90451609510257]}},{"type":"Feature","properties":{"highway":"bus_stop","public_transport":"platform","name":"Maasland Viaduct","ref:IFOPT":"NL:Q:53491302","_quaycode":"NL:Q:53491302","_town":"Maasland","_status":"available","_mode":"bus","_direction":330,"_visuallyAccessible":false,"_disabledAccessible":true,"geojson_lng":4.271975648491146,"geojson_lat":51.92492905717437},"geometry":{"type":"Point","coordinates":[4.271975648491146,51.92492905717437]}},{"type":"Feature","properties":{"highway":"bus_stop","public_transport":"platform","name":"Volgerweg","ref:IFOPT":"NL:Q:53470010","_quaycode":"NL:Q:53470010","_town":"Rozenburg","_status":"available","_mode":"bus","_direction":36,"_visuallyAccessible":false,"_disabledAccessible":false,"geojson_lng":4.235860911302563,"geojson_lat":51.90394201468007},"geometry":{"type":"Point","coordinates":[4.235860911302563,51.90394201468007]}},{"type":"Feature","properties":{"highway":"bus_stop","public_transport":"platform","name":"Dr. Jan Schoutenlaan","ref:IFOPT":"NL:Q:42037201","_quaycode":"NL:Q:42037201","_town":"Maassluis","_status":"available","_mode":"bus","_direction":75,"_visuallyAccessible":false,"_disabledAccessible":false,"geojson_lng":4.231781740692222,"geojson_lat":51.93882438686363},"geometry":{"type":"Point","coordinates":[4.231781740692222,51.93882438686363]}},{"type":"Feature","properties":{"highway":"bus_stop","public_transport":"platform","name":"Laan van Nw. Blankenburg","ref:IFOPT":"NL:Q:53470060","_quaycode":"NL:Q:53470060","_town":"Rozenburg","_status":"available","_mode":"bus","_direction":284,"_visuallyAccessible":false,"_disabledAccessible":false,"geojson_lng":4.2529720296855,"geojson_lat":51.901366777208764},"geometry":{"type":"Point","coordinates":[4.2529720296855,51.901366777208764]}},{"type":"Feature","properties":{"highway":"bus_stop","public_transport":"platform","name":"Twee Molens","ref:IFOPT":"NL:Q:42034801","_quaycode":"NL:Q:42034801","_town":"Maasland","_status":"available","_mode":"bus","_direction":207,"_visuallyAccessible":false,"_disabledAccessible":false,"geojson_lng":4.274892947766715,"geojson_lat":51.943923414201016},"geometry":{"type":"Point","coordinates":[4.274892947766715,51.943923414201016]}},{"type":"Feature","properties":{"highway":"bus_stop","public_transport":"platform","name":"Koningshoek","ref:IFOPT":"NL:Q:31003103","_quaycode":"NL:Q:31003103","_town":"Maassluis","_status":"available","_mode":"bus","_direction":225,"_visuallyAccessible":true,"_disabledAccessible":true,"geojson_lng":4.237226708036069,"geojson_lat":51.928378601069},"geometry":{"type":"Point","coordinates":[4.237226708036069,51.928378601069]}},{"type":"Feature","properties":{"highway":"bus_stop","public_transport":"platform","name":"Stadsmolen","ref:IFOPT":"NL:Q:31006353","_quaycode":"NL:Q:31006353","_town":"Maassluis","_status":"available","_mode":"bus","_direction":163,"_visuallyAccessible":true,"_disabledAccessible":false,"geojson_lng":4.227961802102072,"geojson_lat":51.9386339673013},"geometry":{"type":"Point","coordinates":[4.227961802102072,51.9386339673013]}},{"type":"Feature","properties":{"highway":"bus_stop","public_transport":"platform","name":"Koningshoek","ref:IFOPT":"NL:Q:31006352","_quaycode":"NL:Q:31006352","_town":"Maassluis","_status":"available","_mode":"bus","_direction":58,"_visuallyAccessible":true,"_disabledAccessible":false,"geojson_lng":4.237373681837911,"geojson_lat":51.928317115693325},"geometry":{"type":"Point","coordinates":[4.237373681837911,51.928317115693325]}},{"type":"Feature","properties":{"highway":"bus_stop","public_transport":"platform","name":"Maassluis West","ref:IFOPT":"NL:Q:31006348","_quaycode":"NL:Q:31006348","_town":"Maassluis","_status":"available","_mode":"bus","_direction":230,"_visuallyAccessible":true,"_disabledAccessible":true,"geojson_lng":4.236179503433027,"geojson_lat":51.92612109530564},"geometry":{"type":"Point","coordinates":[4.236179503433027,51.92612109530564]}},{"type":"Feature","properties":{"highway":"bus_stop","public_transport":"platform","name":"Korhoenstraat","ref:IFOPT":"NL:Q:31003010","_quaycode":"NL:Q:31003010","_town":"Maassluis","_status":"available","_mode":"bus","_direction":303,"_visuallyAccessible":false,"_disabledAccessible":false,"geojson_lng":4.228139447522125,"geojson_lat":51.93175012495446},"geometry":{"type":"Point","coordinates":[4.228139447522125,51.93175012495446]}},{"type":"Feature","properties":{"highway":"bus_stop","public_transport":"platform","name":"Mgr. W.M. Bekkerslaan","ref:IFOPT":"NL:Q:31003004","_quaycode":"NL:Q:31003004","_town":"Maassluis","_status":"available","_mode":"bus","_direction":321,"_visuallyAccessible":true,"_disabledAccessible":false,"geojson_lng":4.257590317806856,"geojson_lat":51.92229274714893},"geometry":{"type":"Point","coordinates":[4.257590317806856,51.92229274714893]}},{"type":"Feature","properties":{"highway":"bus_stop","public_transport":"platform","name":"Korte Boonestraat","ref:IFOPT":"NL:Q:31006343","_quaycode":"NL:Q:31006343","_town":"Maassluis","_status":"available","_mode":"bus","_direction":156,"_visuallyAccessible":true,"_disabledAccessible":true,"geojson_lng":4.253512298250136,"geojson_lat":51.92316137311914},"geometry":{"type":"Point","coordinates":[4.253512298250136,51.92316137311914]}},{"type":"Feature","properties":{"highway":"bus_stop","public_transport":"platform","name":"Grote Stern","ref:IFOPT":"NL:Q:53470100","_quaycode":"NL:Q:53470100","_town":"Rozenburg","_status":"available","_mode":"bus","_direction":261,"_visuallyAccessible":false,"_disabledAccessible":true,"geojson_lng":4.244548010097453,"geojson_lat":51.90863819049064},"geometry":{"type":"Point","coordinates":[4.244548010097453,51.90863819049064]}},{"type":"Feature","properties":{"highway":"bus_stop","public_transport":"platform","name":"Kluisweer","ref:IFOPT":"NL:Q:42034401","_quaycode":"NL:Q:42034401","_town":"Maasland","_status":"available","_mode":"bus","_direction":242,"_visuallyAccessible":true,"_disabledAccessible":true,"geojson_lng":4.275296839727006,"geojson_lat":51.93289778216262},"geometry":{"type":"Point","coordinates":[4.275296839727006,51.93289778216262]}},{"type":"Feature","properties":{"highway":"bus_stop","public_transport":"platform","name":"Maassluis West","ref:IFOPT":"NL:Q:31006347","_quaycode":"NL:Q:31006347","_town":"Maassluis","_status":"available","_mode":"bus","_direction":225,"_visuallyAccessible":true,"_disabledAccessible":true,"geojson_lng":4.236224261448864,"geojson_lat":51.9260765884568},"geometry":{"type":"Point","coordinates":[4.236224261448864,51.9260765884568]}},{"type":"Feature","properties":{"highway":"bus_stop","public_transport":"platform","name":"Uiverlaan","ref:IFOPT":"NL:Q:31006340","_quaycode":"NL:Q:31006340","_town":"Maassluis","_status":"available","_mode":"bus","_direction":122,"_visuallyAccessible":true,"_disabledAccessible":false,"geojson_lng":4.241312638748262,"geojson_lat":51.930081471110064},"geometry":{"type":"Point","coordinates":[4.241312638748262,51.930081471110064]}},{"type":"Feature","properties":{"highway":"bus_stop","public_transport":"platform","name":"Raadhuisplein","ref:IFOPT":"NL:Q:53470070","_quaycode":"NL:Q:53470070","_town":"Rozenburg","_status":"available","_mode":"bus","_direction":105,"_visuallyAccessible":false,"_disabledAccessible":false,"geojson_lng":4.249450736554866,"geojson_lat":51.9044249607606},"geometry":{"type":"Point","coordinates":[4.249450736554866,51.9044249607606]}},{"type":"Feature","properties":{"highway":"bus_stop","public_transport":"platform","name":"Maassluis Centrum","ref:IFOPT":"NL:Q:42077101","_quaycode":"NL:Q:42077101","_town":"Maassluis","_status":"available","_mode":"bus","_direction":230,"_visuallyAccessible":false,"_disabledAccessible":false,"geojson_lng":4.252924604870642,"geojson_lat":51.91707014309001},"geometry":{"type":"Point","coordinates":[4.252924604870642,51.91707014309001]}},{"type":"Feature","properties":{"highway":"bus_stop","public_transport":"platform","name":"Maassluis West","ref:IFOPT":"NL:Q:31003047","_quaycode":"NL:Q:31003047","_town":"Maassluis","_status":"available","_mode":"bus","_direction":236,"_visuallyAccessible":true,"_disabledAccessible":true,"geojson_lng":4.236120209670731,"geojson_lat":51.92616545979149},"geometry":{"type":"Point","coordinates":[4.236120209670731,51.92616545979149]}},{"type":"Feature","properties":{"highway":"bus_stop","public_transport":"platform","name":"Ruysdaelstraat","ref:IFOPT":"NL:Q:31006594","_quaycode":"NL:Q:31006594","_town":"Rozenburg","_status":"available","_mode":"bus","_direction":287,"_visuallyAccessible":false,"_disabledAccessible":false,"geojson_lng":4.246519493327838,"geojson_lat":51.903111109228064},"geometry":{"type":"Point","coordinates":[4.246519493327838,51.903111109228064]}},{"type":"Feature","properties":{"highway":"bus_stop","public_transport":"platform","name":"Meeuwensingel","ref:IFOPT":"NL:Q:53470030","_quaycode":"NL:Q:53470030","_town":"Rozenburg","_status":"available","_mode":"bus","_direction":45,"_visuallyAccessible":false,"_disabledAccessible":false,"geojson_lng":4.239210235126981,"geojson_lat":51.90708499526534},"geometry":{"type":"Point","coordinates":[4.239210235126981,51.90708499526534]}},{"type":"Feature","properties":{"highway":"bus_stop","public_transport":"platform","name":"Mozartlaan","ref:IFOPT":"NL:Q:31006341","_quaycode":"NL:Q:31006341","_town":"Maassluis","_status":"available","_mode":"bus","_direction":114,"_visuallyAccessible":true,"_disabledAccessible":false,"geojson_lng":4.247380132300603,"geojson_lat":51.926481934827684},"geometry":{"type":"Point","coordinates":[4.247380132300603,51.926481934827684]}},{"type":"Feature","properties":{"highway":"bus_stop","public_transport":"platform","name":"Doelstraat","ref:IFOPT":"NL:Q:42034101","_quaycode":"NL:Q:42034101","_town":"Maasland","_status":"available","_mode":"bus","_direction":157,"_visuallyAccessible":true,"_disabledAccessible":true,"geojson_lng":4.275622873314649,"geojson_lat":51.935588565529976},"geometry":{"type":"Point","coordinates":[4.275622873314649,51.935588565529976]}},{"type":"Feature","properties":{"highway":"bus_stop","public_transport":"platform","name":"Mozartlaan","ref:IFOPT":"NL:Q:31003007","_quaycode":"NL:Q:31003007","_town":"Maassluis","_status":"available","_mode":"bus","_direction":300,"_visuallyAccessible":true,"_disabledAccessible":true,"geojson_lng":4.247390564356909,"geojson_lat":51.92664383817005},"geometry":{"type":"Point","coordinates":[4.247390564356909,51.92664383817005]}},{"type":"Feature","properties":{"highway":"bus_stop","public_transport":"platform","name":"Noordererf","ref:IFOPT":"NL:Q:53470130","_quaycode":"NL:Q:53470130","_town":"Rozenburg","_status":"available","_mode":"bus","_direction":0,"_visuallyAccessible":false,"_disabledAccessible":false,"geojson_lng":4.236933532258704,"geojson_lat":51.9046177096194},"geometry":{"type":"Point","coordinates":[4.236933532258704,51.9046177096194]}},{"type":"Feature","properties":{"highway":"bus_stop","public_transport":"platform","name":"Westeinde","ref:IFOPT":"NL:Q:42076802","_quaycode":"NL:Q:42076802","_town":"Maassluis","_status":"available","_mode":"bus","_direction":230,"_visuallyAccessible":false,"_disabledAccessible":true,"geojson_lng":4.228511030898308,"geojson_lat":51.93707529178097},"geometry":{"type":"Point","coordinates":[4.228511030898308,51.93707529178097]}},{"type":"Feature","properties":{"highway":"bus_stop","public_transport":"platform","name":"Rozenlaan","ref:IFOPT":"NL:Q:31006342","_quaycode":"NL:Q:31006342","_town":"Maassluis","_status":"available","_mode":"bus","_direction":109,"_visuallyAccessible":false,"_disabledAccessible":false,"geojson_lng":4.249806979495715,"geojson_lat":51.92538181702659},"geometry":{"type":"Point","coordinates":[4.249806979495715,51.92538181702659]}},{"type":"Feature","properties":{"highway":"bus_stop","public_transport":"platform","name":"Rozenlaan","ref:IFOPT":"NL:Q:31003006","_quaycode":"NL:Q:31003006","_town":"Maassluis","_status":"available","_mode":"bus","_direction":304,"_visuallyAccessible":true,"_disabledAccessible":false,"geojson_lng":4.2505721445947735,"geojson_lat":51.92502066938329},"geometry":{"type":"Point","coordinates":[4.2505721445947735,51.92502066938329]}},{"type":"Feature","properties":{"highway":"bus_stop","public_transport":"platform","name":"Vermeerlaan","ref:IFOPT":"NL:Q:31003046","_quaycode":"NL:Q:31003046","_town":"Maassluis","_status":"available","_mode":"bus","_direction":245,"_visuallyAccessible":false,"_disabledAccessible":false,"geojson_lng":4.266400964894448,"geojson_lat":51.92168494161967},"geometry":{"type":"Point","coordinates":[4.266400964894448,51.92168494161967]}},{"type":"Feature","properties":{"highway":"bus_stop","public_transport":"platform","name":"Maasland Viaduct","ref:IFOPT":"NL:Q:42035002","_quaycode":"NL:Q:42035002","_town":"Maasland","_status":"available","_mode":"bus","_direction":330,"_visuallyAccessible":false,"_disabledAccessible":true,"geojson_lng":4.272047879421882,"geojson_lat":51.92494772043403},"geometry":{"type":"Point","coordinates":[4.272047879421882,51.92494772043403]}},{"type":"Feature","properties":{"highway":"bus_stop","public_transport":"platform","name":"Hammerdreef","ref:IFOPT":"NL:Q:42034301","_quaycode":"NL:Q:42034301","_town":"Maasland","_status":"available","_mode":"bus","_direction":329,"_visuallyAccessible":true,"_disabledAccessible":true,"geojson_lng":4.270375326148575,"geojson_lat":51.932572472876465},"geometry":{"type":"Point","coordinates":[4.270375326148575,51.932572472876465]}},{"type":"Feature","properties":{"highway":"bus_stop","public_transport":"platform","name":"Hammerdreef","ref:IFOPT":"NL:Q:42034302","_quaycode":"NL:Q:42034302","_town":"Maasland","_status":"available","_mode":"bus","_direction":146,"_visuallyAccessible":true,"_disabledAccessible":true,"geojson_lng":4.270286981701553,"geojson_lat":51.932616578394146},"geometry":{"type":"Point","coordinates":[4.270286981701553,51.932616578394146]}},{"type":"Feature","properties":{"highway":"bus_stop","public_transport":"platform","name":"Maasland Viaduct","ref:IFOPT":"NL:Q:54471300","_quaycode":"NL:Q:54471300","_town":"Maasland","_status":"available","_mode":"bus","_direction":50,"_visuallyAccessible":false,"_disabledAccessible":true,"geojson_lng":4.2722616735539996,"geojson_lat":51.925120539172944},"geometry":{"type":"Point","coordinates":[4.2722616735539996,51.925120539172944]}},{"type":"Feature","properties":{"highway":"bus_stop","public_transport":"platform","name":"Maasland Viaduct","ref:IFOPT":"NL:Q:42035003","_quaycode":"NL:Q:42035003","_town":"Maasland","_status":"available","_mode":"bus","_direction":230,"_visuallyAccessible":false,"_disabledAccessible":true,"geojson_lng":4.272118772233075,"geojson_lat":51.925020304828806},"geometry":{"type":"Point","coordinates":[4.272118772233075,51.925020304828806]}}]}