{"type":"FeatureCollection","features":[{"type":"Feature","properties":{"highway":"bus_stop","public_transport":"platform","name":"Molenstraat","ref:IFOPT":"NL:Q:60630050","_quaycode":"NL:Q:60630050","_town":"Wanroij","_status":"available","_mode":"bus","_direction":97,"_visuallyAccessible":false,"_disabledAccessible":false,"geojson_lng":5.825603813332827,"geojson_lat":51.65534081043802},"geometry":{"type":"Point","coordinates":[5.825603813332827,51.65534081043802]}},{"type":"Feature","properties":{"highway":"bus_stop","public_transport":"platform","name":"Molenstraat","ref:IFOPT":"NL:Q:60630060","_quaycode":"NL:Q:60630060","_town":"Wanroij","_status":"available","_mode":"bus","_direction":276,"_visuallyAccessible":false,"_disabledAccessible":false,"geojson_lng":5.825287203555691,"geojson_lat":51.65547682590123},"geometry":{"type":"Point","coordinates":[5.825287203555691,51.65547682590123]}},{"type":"Feature","properties":{"highway":"bus_stop","public_transport":"platform","name":"Hulsbeek","ref:IFOPT":"NL:Q:60630020","_quaycode":"NL:Q:60630020","_town":"Rijkevoort-De Walsert","_status":"available","_mode":"bus","_direction":282,"_visuallyAccessible":false,"_disabledAccessible":false,"geojson_lng":5.841406072645041,"geojson_lat":51.65316820026595},"geometry":{"type":"Point","coordinates":[5.841406072645041,51.65316820026595]}},{"type":"Feature","properties":{"highway":"bus_stop","public_transport":"platform","name":"Molen","ref:IFOPT":"NL:Q:60630040","_quaycode":"NL:Q:60630040","_town":"Wanroij","_status":"available","_mode":"bus","_direction":270,"_visuallyAccessible":false,"_disabledAccessible":false,"geojson_lng":5.831630707817971,"geojson_lat":51.655416947302925},"geometry":{"type":"Point","coordinates":[5.831630707817971,51.655416947302925]}},{"type":"Feature","properties":{"highway":"bus_stop","public_transport":"platform","name":"Hulsbeek","ref:IFOPT":"NL:Q:60630090","_quaycode":"NL:Q:60630090","_town":"Rijkevoort-De Walsert","_status":"available","_mode":"bus","_direction":108,"_visuallyAccessible":false,"_disabledAccessible":false,"geojson_lng":5.843711084133546,"geojson_lat":51.652467103190105},"geometry":{"type":"Point","coordinates":[5.843711084133546,51.652467103190105]}},{"type":"Feature","properties":{"highway":"bus_stop","public_transport":"platform","name":"Molen","ref:IFOPT":"NL:Q:60630070","_quaycode":"NL:Q:60630070","_town":"Wanroij","_status":"available","_mode":"bus","_direction":106,"_visuallyAccessible":false,"_disabledAccessible":false,"geojson_lng":5.8332879296173195,"geojson_lat":51.65494323126082},"geometry":{"type":"Point","coordinates":[5.8332879296173195,51.65494323126082]}}]}