{"type":"FeatureCollection","features":[{"type":"Feature","properties":{"SeqNo":"824830","Type":"S","DHID":"de:14521:89005","Parent":"de:14521:89005","Name":"Schönheide, Mitte","MunicipalityCode":"14521540","Municipality":"Schönheide","DistrictCode":"-","District":"-","Description":"","Authority":"VVO","DelfiName":"-","THID":"D938B9015BAD","LastOperationDate":"2025-06-14T00:00:00","SEV":"nein","longitude":"12,519317","latitude":"50,505088","geojson_lng":12.519317,"geojson_lat":50.505088},"geometry":{"type":"Point","coordinates":[12.519317,50.505088]}},{"type":"Feature","properties":{"SeqNo":"824831","Type":"Q","DHID":"de:14521:89005:0:BO","Parent":"de:14521:89005","Name":"Bus Ost","MunicipalityCode":"00000000","Municipality":"-","DistrictCode":"-","District":"-","Description":"Bus Ost","Authority":"VVO","DelfiName":"-","THID":"-","LastOperationDate":"","SEV":"nein","longitude":"12,519398","latitude":"50,505025","geojson_lng":12.519398,"geojson_lat":50.505025},"geometry":{"type":"Point","coordinates":[12.519398,50.505025]}},{"type":"Feature","properties":{"SeqNo":"824832","Type":"Q","DHID":"de:14521:89005:0:BW","Parent":"de:14521:89005","Name":"Bus West","MunicipalityCode":"00000000","Municipality":"-","DistrictCode":"-","District":"-","Description":"Bus West","Authority":"VVO","DelfiName":"-","THID":"-","LastOperationDate":"","SEV":"nein","longitude":"12,519227","latitude":"50,505071","geojson_lng":12.519227,"geojson_lat":50.505071},"geometry":{"type":"Point","coordinates":[12.519227,50.505071]}},{"type":"Feature","properties":{"SeqNo":"824833","Type":"S","DHID":"de:14521:89006","Parent":"de:14521:89006","Name":"Schönheide, Wiener Spitze","MunicipalityCode":"14521540","Municipality":"Schönheide","DistrictCode":"-","District":"-","Description":"","Authority":"VVO","DelfiName":"-","THID":"D938B9015BAE","LastOperationDate":"2025-06-14T00:00:00","SEV":"nein","longitude":"12,513703","latitude":"50,505105","geojson_lng":12.513703,"geojson_lat":50.505105},"geometry":{"type":"Point","coordinates":[12.513703,50.505105]}},{"type":"Feature","properties":{"SeqNo":"824834","Type":"Q","DHID":"de:14521:89006:0:BO","Parent":"de:14521:89006","Name":"Bus Ost","MunicipalityCode":"00000000","Municipality":"-","DistrictCode":"-","District":"-","Description":"Bus Ost","Authority":"VVO","DelfiName":"-","THID":"-","LastOperationDate":"","SEV":"nein","longitude":"12,513828","latitude":"50,505059","geojson_lng":12.513828,"geojson_lat":50.505059},"geometry":{"type":"Point","coordinates":[12.513828,50.505059]}},{"type":"Feature","properties":{"SeqNo":"824835","Type":"Q","DHID":"de:14521:89006:0:BW","Parent":"de:14521:89006","Name":"Bus West","MunicipalityCode":"00000000","Municipality":"-","DistrictCode":"-","District":"-","Description":"Bus West","Authority":"VVO","DelfiName":"-","THID":"-","LastOperationDate":"","SEV":"nein","longitude":"12,513577","latitude":"50,505088","geojson_lng":12.513577,"geojson_lat":50.505088},"geometry":{"type":"Point","coordinates":[12.513577,50.505088]}},{"type":"Feature","properties":{"SeqNo":"824839","Type":"S","DHID":"de:14521:89008","Parent":"de:14521:89008","Name":"Schönheide, Feuerwehrdepot","MunicipalityCode":"14521540","Municipality":"Schönheide","DistrictCode":"-","District":"-","Description":"","Authority":"VVO","DelfiName":"-","THID":"D938B9015BB0","LastOperationDate":"2025-06-14T00:00:00","SEV":"nein","longitude":"12,52238","latitude":"50,50559","geojson_lng":12.52238,"geojson_lat":50.50559},"geometry":{"type":"Point","coordinates":[12.52238,50.50559]}},{"type":"Feature","properties":{"SeqNo":"824840","Type":"Q","DHID":"de:14521:89008:0:BN","Parent":"de:14521:89008","Name":"Bus Nord","MunicipalityCode":"00000000","Municipality":"-","DistrictCode":"-","District":"-","Description":"Bus Nord","Authority":"VVO","DelfiName":"-","THID":"-","LastOperationDate":"","SEV":"nein","longitude":"12,522398","latitude":"50,505505","geojson_lng":12.522398,"geojson_lat":50.505505},"geometry":{"type":"Point","coordinates":[12.522398,50.505505]}},{"type":"Feature","properties":{"SeqNo":"824841","Type":"Q","DHID":"de:14521:89008:0:BS","Parent":"de:14521:89008","Name":"Bus Süd","MunicipalityCode":"00000000","Municipality":"-","DistrictCode":"-","District":"-","Description":"Bus Süd","Authority":"VVO","DelfiName":"-","THID":"-","LastOperationDate":"","SEV":"nein","longitude":"12,522308","latitude":"50,505642","geojson_lng":12.522308,"geojson_lat":50.505642},"geometry":{"type":"Point","coordinates":[12.522308,50.505642]}}]}