{"type":"FeatureCollection","features":[{"type":"Feature","properties":{"highway":"bus_stop","public_transport":"platform","name":"Maalderij","ref:IFOPT":"NL:Q:57243550","_quaycode":"NL:Q:57243550","_town":"Amstelveen","_status":"available","_mode":"bus","_direction":103,"_visuallyAccessible":false,"_disabledAccessible":true,"geojson_lng":4.84169248351085,"geojson_lat":52.291859451130385},"geometry":{"type":"Point","coordinates":[4.84169248351085,52.291859451130385]}},{"type":"Feature","properties":{"highway":"bus_stop","public_transport":"platform","name":"Pastoor Brouwerslaan","ref:IFOPT":"NL:Q:57243570","_quaycode":"NL:Q:57243570","_town":"Amstelveen","_status":"available","_mode":"bus","_direction":103,"_visuallyAccessible":false,"_disabledAccessible":true,"geojson_lng":4.836812469868955,"geojson_lat":52.29296032350769},"geometry":{"type":"Point","coordinates":[4.836812469868955,52.29296032350769]}},{"type":"Feature","properties":{"highway":"bus_stop","public_transport":"platform","name":"Maalderij","ref:IFOPT":"NL:Q:57243560","_quaycode":"NL:Q:57243560","_town":"Amstelveen","_status":"available","_mode":"bus","_direction":284,"_visuallyAccessible":false,"_disabledAccessible":true,"geojson_lng":4.841662397663412,"geojson_lat":52.29192222751756},"geometry":{"type":"Point","coordinates":[4.841662397663412,52.29192222751756]}},{"type":"Feature","properties":{"highway":"bus_stop","public_transport":"platform","name":"Pastoor Brouwerslaan","ref:IFOPT":"NL:Q:57243580","_quaycode":"NL:Q:57243580","_town":"Amstelveen","_status":"available","_mode":"bus","_direction":283,"_visuallyAccessible":false,"_disabledAccessible":true,"geojson_lng":4.836297236785214,"geojson_lat":52.2931376819689},"geometry":{"type":"Point","coordinates":[4.836297236785214,52.2931376819689]}},{"type":"Feature","properties":{"highway":"bus_stop","public_transport":"platform","name":"Bovenkerkerweg","ref:IFOPT":"NL:Q:57243110","_quaycode":"NL:Q:57243110","_town":"Amstelveen","_status":"available","_mode":"bus","_direction":8,"_visuallyAccessible":true,"_disabledAccessible":true,"geojson_lng":4.842863211700651,"geojson_lat":52.28842248598235},"geometry":{"type":"Point","coordinates":[4.842863211700651,52.28842248598235]}},{"type":"Feature","properties":{"highway":"bus_stop","public_transport":"platform","name":"Zetterij","ref:IFOPT":"NL:Q:57243740","_quaycode":"NL:Q:57243740","_town":"Amstelveen","_status":"available","_mode":"bus","_direction":279,"_visuallyAccessible":true,"_disabledAccessible":true,"geojson_lng":4.835197034824494,"geojson_lat":52.289663226308214},"geometry":{"type":"Point","coordinates":[4.835197034824494,52.289663226308214]}},{"type":"Feature","properties":{"highway":"bus_stop","public_transport":"platform","name":"Handweg","ref:IFOPT":"NL:Q:57243270","_quaycode":"NL:Q:57243270","_town":"Amstelveen","_status":"available","_mode":"bus","_direction":14,"_visuallyAccessible":true,"_disabledAccessible":false,"geojson_lng":4.843802426595105,"geojson_lat":52.291923093232846},"geometry":{"type":"Point","coordinates":[4.843802426595105,52.291923093232846]}}]}