{"type":"FeatureCollection","features":[{"type":"Feature","properties":{"highway":"bus_stop","public_transport":"platform","name":"Centraal Station","ref:IFOPT":"NL:Q:62440290","_quaycode":"NL:Q:62440290","_town":"Oss","_status":"available","_mode":"bus","_direction":254,"_visuallyAccessible":false,"_disabledAccessible":true,"geojson_lng":5.528252229207586,"geojson_lat":51.764631214027226},"geometry":{"type":"Point","coordinates":[5.528252229207586,51.764631214027226]}},{"type":"Feature","properties":{"highway":"bus_stop","public_transport":"platform","name":"Centraal Station","ref:IFOPT":"NL:Q:62440294","_quaycode":"NL:Q:62440294","_town":"Oss","_status":"available","_mode":"bus","_direction":263,"_visuallyAccessible":false,"_disabledAccessible":true,"geojson_lng":5.529252665732029,"geojson_lat":51.76491763465367},"geometry":{"type":"Point","coordinates":[5.529252665732029,51.76491763465367]}},{"type":"Feature","properties":{"highway":"bus_stop","public_transport":"platform","name":"Mgr. v.d. Boerpark","ref:IFOPT":"NL:Q:62440700","_quaycode":"NL:Q:62440700","_town":"Oss","_status":"available","_mode":"bus","_direction":175,"_visuallyAccessible":true,"_disabledAccessible":true,"geojson_lng":5.530584660837391,"geojson_lat":51.760134163270806},"geometry":{"type":"Point","coordinates":[5.530584660837391,51.760134163270806]}},{"type":"Feature","properties":{"highway":"bus_stop","public_transport":"platform","name":"Titus Brandsmalaan","ref:IFOPT":"NL:Q:62443040","_quaycode":"NL:Q:62443040","_town":"Oss","_status":"available","_mode":"bus","_direction":146,"_visuallyAccessible":true,"_disabledAccessible":true,"geojson_lng":5.533322707180093,"geojson_lat":51.75580733844335},"geometry":{"type":"Point","coordinates":[5.533322707180093,51.75580733844335]}},{"type":"Feature","properties":{"highway":"bus_stop","public_transport":"platform","name":"Mgr. v.d. Boerpark","ref:IFOPT":"NL:Q:62440710","_quaycode":"NL:Q:62440710","_town":"Oss","_status":"available","_mode":"bus","_direction":358,"_visuallyAccessible":true,"_disabledAccessible":true,"geojson_lng":5.530946859366648,"geojson_lat":51.76016068453656},"geometry":{"type":"Point","coordinates":[5.530946859366648,51.76016068453656]}},{"type":"Feature","properties":{"highway":"bus_stop","public_transport":"platform","name":"Eikenboomgaard","ref:IFOPT":"NL:Q:62440470","_quaycode":"NL:Q:62440470","_town":"Oss","_status":"available","_mode":"bus","_direction":304,"_visuallyAccessible":false,"_disabledAccessible":false,"geojson_lng":5.525391014622546,"geojson_lat":51.77164560059901},"geometry":{"type":"Point","coordinates":[5.525391014622546,51.77164560059901]}},{"type":"Feature","properties":{"highway":"bus_stop","public_transport":"platform","name":"Hertogensingel","ref:IFOPT":"NL:Q:62440690","_quaycode":"NL:Q:62440690","_town":"Oss","_status":"available","_mode":"bus","_direction":248,"_visuallyAccessible":false,"_disabledAccessible":false,"geojson_lng":5.5209171999055995,"geojson_lat":51.77267547449266},"geometry":{"type":"Point","coordinates":[5.5209171999055995,51.77267547449266]}},{"type":"Feature","properties":{"highway":"bus_stop","public_transport":"platform","name":"Titus Brandsmalaan","ref:IFOPT":"NL:Q:62443030","_quaycode":"NL:Q:62443030","_town":"Oss","_status":"available","_mode":"bus","_direction":327,"_visuallyAccessible":true,"_disabledAccessible":true,"geojson_lng":5.533079139901508,"geojson_lat":51.756625590447705},"geometry":{"type":"Point","coordinates":[5.533079139901508,51.756625590447705]}},{"type":"Feature","properties":{"highway":"bus_stop","public_transport":"platform","name":"Kardinaal de Jongstraat","ref:IFOPT":"NL:Q:62440190","_quaycode":"NL:Q:62440190","_town":"Oss","_status":"available","_mode":"bus","_direction":269,"_visuallyAccessible":false,"_disabledAccessible":false,"geojson_lng":5.5375938527080395,"geojson_lat":51.772763109026144},"geometry":{"type":"Point","coordinates":[5.5375938527080395,51.772763109026144]}},{"type":"Feature","properties":{"highway":"bus_stop","public_transport":"platform","name":"Mikkeldonkweg","ref:IFOPT":"NL:Q:62560060","_quaycode":"NL:Q:62560060","_town":"Oss","_status":"available","_mode":"bus","_direction":309,"_visuallyAccessible":false,"_disabledAccessible":false,"geojson_lng":5.503234282974183,"geojson_lat":51.78126928107823},"geometry":{"type":"Point","coordinates":[5.503234282974183,51.78126928107823]}},{"type":"Feature","properties":{"highway":"bus_stop","public_transport":"platform","name":"Oostwal","ref:IFOPT":"NL:Q:62447180","_quaycode":"NL:Q:62447180","_town":"Oss","_status":"available","_mode":"bus","_direction":355,"_visuallyAccessible":true,"_disabledAccessible":true,"geojson_lng":5.528174525109254,"geojson_lat":51.76751590174576},"geometry":{"type":"Point","coordinates":[5.528174525109254,51.76751590174576]}},{"type":"Feature","properties":{"highway":"bus_stop","public_transport":"platform","name":"Zaltbommelseweg","ref:IFOPT":"NL:Q:62440960","_quaycode":"NL:Q:62440960","_town":"Oss","_status":"available","_mode":"bus","_direction":87,"_visuallyAccessible":false,"_disabledAccessible":false,"geojson_lng":5.5127543198855,"geojson_lat":51.77059020751667},"geometry":{"type":"Point","coordinates":[5.5127543198855,51.77059020751667]}},{"type":"Feature","properties":{"highway":"bus_stop","public_transport":"platform","name":"Walstraat","ref:IFOPT":"NL:Q:62447210","_quaycode":"NL:Q:62447210","_town":"Oss","_status":"available","_mode":"bus","_direction":354,"_visuallyAccessible":false,"_disabledAccessible":false,"geojson_lng":5.52667003579205,"geojson_lat":51.768273423893355},"geometry":{"type":"Point","coordinates":[5.52667003579205,51.768273423893355]}},{"type":"Feature","properties":{"highway":"bus_stop","public_transport":"platform","name":"Kardinaal de Jongstraat","ref:IFOPT":"NL:Q:62440140","_quaycode":"NL:Q:62440140","_town":"Oss","_status":"available","_mode":"bus","_direction":85,"_visuallyAccessible":false,"_disabledAccessible":false,"geojson_lng":5.536405255853356,"geojson_lat":51.772602837447245},"geometry":{"type":"Point","coordinates":[5.536405255853356,51.772602837447245]}},{"type":"Feature","properties":{"highway":"bus_stop","public_transport":"platform","name":"Walstraat","ref:IFOPT":"NL:Q:62447200","_quaycode":"NL:Q:62447200","_town":"Oss","_status":"available","_mode":"bus","_direction":173,"_visuallyAccessible":false,"_disabledAccessible":false,"geojson_lng":5.5263945307955975,"geojson_lat":51.76819285579961},"geometry":{"type":"Point","coordinates":[5.5263945307955975,51.76819285579961]}},{"type":"Feature","properties":{"highway":"bus_stop","public_transport":"platform","name":"Eikenboomgaard","ref:IFOPT":"NL:Q:62440460","_quaycode":"NL:Q:62440460","_town":"Oss","_status":"available","_mode":"bus","_direction":96,"_visuallyAccessible":false,"_disabledAccessible":false,"geojson_lng":5.526682800634971,"geojson_lat":51.77239909706026},"geometry":{"type":"Point","coordinates":[5.526682800634971,51.77239909706026]}},{"type":"Feature","properties":{"highway":"bus_stop","public_transport":"platform","name":"Hertogensingel","ref:IFOPT":"NL:Q:62440760","_quaycode":"NL:Q:62440760","_town":"Oss","_status":"available","_mode":"bus","_direction":68,"_visuallyAccessible":false,"_disabledAccessible":false,"geojson_lng":5.521148508922488,"geojson_lat":51.77250443009752},"geometry":{"type":"Point","coordinates":[5.521148508922488,51.77250443009752]}},{"type":"Feature","properties":{"highway":"bus_stop","public_transport":"platform","name":"Zaltbommelseweg","ref:IFOPT":"NL:Q:62440970","_quaycode":"NL:Q:62440970","_town":"Oss","_status":"available","_mode":"bus","_direction":267,"_visuallyAccessible":false,"_disabledAccessible":false,"geojson_lng":5.51316060812858,"geojson_lat":51.77081448183364},"geometry":{"type":"Point","coordinates":[5.51316060812858,51.77081448183364]}},{"type":"Feature","properties":{"highway":"bus_stop","public_transport":"platform","name":"Eikenboomgaard","ref:IFOPT":"NL:Q:62440450","_quaycode":"NL:Q:62440450","_town":"Oss","_status":"available","_mode":"bus","_direction":277,"_visuallyAccessible":false,"_disabledAccessible":false,"geojson_lng":5.527465959584888,"geojson_lat":51.77264983767583},"geometry":{"type":"Point","coordinates":[5.527465959584888,51.77264983767583]}}]}