{"type":"FeatureCollection","features":[{"type":"Feature","properties":{"SeqNo":"851414","Type":"S","DHID":"de:14626:8814","Parent":"de:14626:8814","Name":"Markersdorf Feuerwehrhaus","MunicipalityCode":"14626300","Municipality":"Markersdorf","DistrictCode":"","District":"","Description":"","Authority":"VVO","DelfiName":"-","THID":"D9392200226E","LastOperationDate":"2025-06-14T00:00:00","SEV":"nein","longitude":"14,875535","latitude":"51,14047","geojson_lng":14.875535,"geojson_lat":51.14047},"geometry":{"type":"Point","coordinates":[14.875535,51.14047]}},{"type":"Feature","properties":{"SeqNo":"851415","Type":"Q","DHID":"de:14626:8814:0:1","Parent":"de:14626:8814","Name":"1 - Ri. Görlitz","MunicipalityCode":"00000000","Municipality":"-","DistrictCode":"-","District":"-","Description":"","Authority":"VVO","DelfiName":"-","THID":"-","LastOperationDate":"","SEV":"nein","longitude":"14,875508","latitude":"51,140634","geojson_lng":14.875508,"geojson_lat":51.140634},"geometry":{"type":"Point","coordinates":[14.875508,51.140634]}},{"type":"Feature","properties":{"SeqNo":"851416","Type":"Q","DHID":"de:14626:8814:0:2","Parent":"de:14626:8814","Name":"2 - Ri. Reichenbach","MunicipalityCode":"00000000","Municipality":"-","DistrictCode":"-","District":"-","Description":"","Authority":"VVO","DelfiName":"-","THID":"-","LastOperationDate":"","SEV":"nein","longitude":"14,875562","latitude":"51,140307","geojson_lng":14.875562,"geojson_lat":51.140307},"geometry":{"type":"Point","coordinates":[14.875562,51.140307]}},{"type":"Feature","properties":{"SeqNo":"851417","Type":"Q","DHID":"de:14626:8814:0:3","Parent":"de:14626:8814","Name":"3","MunicipalityCode":"00000000","Municipality":"-","DistrictCode":"-","District":"-","Description":"","Authority":"VVO","DelfiName":"-","THID":"-","LastOperationDate":"","SEV":"nein","longitude":"14,87638","latitude":"51,13923","geojson_lng":14.87638,"geojson_lat":51.13923},"geometry":{"type":"Point","coordinates":[14.87638,51.13923]}},{"type":"Feature","properties":{"SeqNo":"851418","Type":"Q","DHID":"de:14626:8814:0:4","Parent":"de:14626:8814","Name":"4","MunicipalityCode":"00000000","Municipality":"-","DistrictCode":"-","District":"-","Description":"","Authority":"VVO","DelfiName":"-","THID":"-","LastOperationDate":"","SEV":"nein","longitude":"14,876389","latitude":"51,139106","geojson_lng":14.876389,"geojson_lat":51.139106},"geometry":{"type":"Point","coordinates":[14.876389,51.139106]}},{"type":"Feature","properties":{"SeqNo":"851420","Type":"Q","DHID":"de:14626:8815:0:1","Parent":"de:14626:8815","Name":"1 - Ri. Görlitz","MunicipalityCode":"00000000","Municipality":"-","DistrictCode":"-","District":"-","Description":"","Authority":"VVO","DelfiName":"-","THID":"-","LastOperationDate":"","SEV":"nein","longitude":"14,880835","latitude":"51,144996","geojson_lng":14.880835,"geojson_lat":51.144996},"geometry":{"type":"Point","coordinates":[14.880835,51.144996]}},{"type":"Feature","properties":{"SeqNo":"851425","Type":"S","DHID":"de:14626:8817","Parent":"de:14626:8817","Name":"Markersdorf Schule","MunicipalityCode":"14626300","Municipality":"Markersdorf","DistrictCode":"","District":"","Description":"","Authority":"VVO","DelfiName":"-","THID":"D93922002271","LastOperationDate":"2025-06-13T00:00:00","SEV":"nein","longitude":"14,881419","latitude":"51,142184","geojson_lng":14.881419,"geojson_lat":51.142184},"geometry":{"type":"Point","coordinates":[14.881419,51.142184]}},{"type":"Feature","properties":{"SeqNo":"851426","Type":"Q","DHID":"de:14626:8817:0:1","Parent":"de:14626:8817","Name":"alle Richtungen","MunicipalityCode":"00000000","Municipality":"-","DistrictCode":"-","District":"-","Description":"","Authority":"VVO","DelfiName":"-","THID":"-","LastOperationDate":"","SEV":"nein","longitude":"14,881383","latitude":"51,142189","geojson_lng":14.881383,"geojson_lat":51.142189},"geometry":{"type":"Point","coordinates":[14.881383,51.142189]}},{"type":"Feature","properties":{"SeqNo":"851427","Type":"Q","DHID":"de:14626:8817:0:2","Parent":"de:14626:8817","Name":"Ri. 2","MunicipalityCode":"00000000","Municipality":"-","DistrictCode":"-","District":"-","Description":"","Authority":"VVO","DelfiName":"-","THID":"-","LastOperationDate":"","SEV":"nein","longitude":"14,881365","latitude":"51,142263","geojson_lng":14.881365,"geojson_lat":51.142263},"geometry":{"type":"Point","coordinates":[14.881365,51.142263]}},{"type":"Feature","properties":{"SeqNo":"851428","Type":"Q","DHID":"de:14626:8817:0:3","Parent":"de:14626:8817","Name":"Ri. 3","MunicipalityCode":"00000000","Municipality":"-","DistrictCode":"-","District":"-","Description":"","Authority":"VVO","DelfiName":"-","THID":"-","LastOperationDate":"","SEV":"nein","longitude":"14,881464","latitude":"51,142285","geojson_lng":14.881464,"geojson_lat":51.142285},"geometry":{"type":"Point","coordinates":[14.881464,51.142285]}}]}