{"type":"FeatureCollection","features":[{"type":"Feature","properties":{"SeqNo":"672528","Type":"S","DHID":"de:05916:7570","Parent":"de:05916:7570","Name":"Herne Albert-Einstein-Str.","MunicipalityCode":"05916000","Municipality":"Herne","DistrictCode":"","District":"","Description":"","Authority":"VRR","DelfiName":"-","THID":"D9171C001D92","LastOperationDate":"2025-06-14T00:00:00","SEV":"nein","longitude":"7,203339","latitude":"51,531221","geojson_lng":7.203339,"geojson_lat":51.531221},"geometry":{"type":"Point","coordinates":[7.203339,51.531221]}},{"type":"Feature","properties":{"SeqNo":"672529","Type":"A","DHID":"de:05916:7570:1","Parent":"de:05916:7570","Name":"Bus","MunicipalityCode":"00000000","Municipality":"-","DistrictCode":"-","District":"-","Description":"","Authority":"VRR","DelfiName":"-","THID":"-","LastOperationDate":"","SEV":"nein","longitude":"7,20359","latitude":"51,531433","geojson_lng":7.20359,"geojson_lat":51.531433},"geometry":{"type":"Point","coordinates":[7.20359,51.531433]}},{"type":"Feature","properties":{"SeqNo":"672530","Type":"Q","DHID":"de:05916:7570:1:1","Parent":"de:05916:7570:1","Name":"> Herne","MunicipalityCode":"00000000","Municipality":"-","DistrictCode":"-","District":"-","Description":"","Authority":"VRR","DelfiName":"-","THID":"-","LastOperationDate":"","SEV":"nein","longitude":"7,204057","latitude":"51,531634","geojson_lng":7.204057,"geojson_lat":51.531634},"geometry":{"type":"Point","coordinates":[7.204057,51.531634]}},{"type":"Feature","properties":{"SeqNo":"672531","Type":"Q","DHID":"de:05916:7570:1:2","Parent":"de:05916:7570:1","Name":"> Wanne-Eickel","MunicipalityCode":"00000000","Municipality":"-","DistrictCode":"-","District":"-","Description":"","Authority":"VRR","DelfiName":"-","THID":"-","LastOperationDate":"","SEV":"nein","longitude":"7,203123","latitude":"51,531238","geojson_lng":7.203123,"geojson_lat":51.531238},"geometry":{"type":"Point","coordinates":[7.203123,51.531238]}},{"type":"Feature","properties":{"SeqNo":"672549","Type":"S","DHID":"de:05916:7575","Parent":"de:05916:7575","Name":"Herne E.-Fried-G.schule","MunicipalityCode":"05916000","Municipality":"Herne","DistrictCode":"","District":"","Description":"","Authority":"VRR","DelfiName":"-","THID":"D9171C001D97","LastOperationDate":"2025-06-13T00:00:00","SEV":"nein","longitude":"7,201219","latitude":"51,535261","geojson_lng":7.201219,"geojson_lat":51.535261},"geometry":{"type":"Point","coordinates":[7.201219,51.535261]}},{"type":"Feature","properties":{"SeqNo":"672550","Type":"A","DHID":"de:05916:7575:1","Parent":"de:05916:7575","Name":"Bus","MunicipalityCode":"00000000","Municipality":"-","DistrictCode":"-","District":"-","Description":"","Authority":"VRR","DelfiName":"-","THID":"-","LastOperationDate":"","SEV":"nein","longitude":"7,201228","latitude":"51,535261","geojson_lng":7.201228,"geojson_lat":51.535261},"geometry":{"type":"Point","coordinates":[7.201228,51.535261]}},{"type":"Feature","properties":{"SeqNo":"672551","Type":"Q","DHID":"de:05916:7575:1:1","Parent":"de:05916:7575:1","Name":"> Ankunft","MunicipalityCode":"00000000","Municipality":"-","DistrictCode":"-","District":"-","Description":"","Authority":"VRR","DelfiName":"-","THID":"-","LastOperationDate":"","SEV":"nein","longitude":"7,20121","latitude":"51,535272","geojson_lng":7.20121,"geojson_lat":51.535272},"geometry":{"type":"Point","coordinates":[7.20121,51.535272]}},{"type":"Feature","properties":{"SeqNo":"672552","Type":"Q","DHID":"de:05916:7575:1:2","Parent":"de:05916:7575:1","Name":"> Abfahrt","MunicipalityCode":"00000000","Municipality":"-","DistrictCode":"-","District":"-","Description":"","Authority":"VRR","DelfiName":"-","THID":"-","LastOperationDate":"","SEV":"nein","longitude":"7,201309","latitude":"51,535261","geojson_lng":7.201309,"geojson_lat":51.535261},"geometry":{"type":"Point","coordinates":[7.201309,51.535261]}}]}