{"type":"FeatureCollection","features":[{"type":"Feature","properties":{"SeqNo":"62402","Type":"S","DHID":"de:08317:13554","Parent":"de:08317:13554","Name":"Renchen Bahnhof","Latitude":"48,592572","Longitude":"8,007097","MunicipalityCode":"08317110","Municipality":"Renchen","DistrictCode":"","District":"","Description":"","Authority":"NVBW","DelfiName":"-","THID":"D9207D0034F2","TariffProvider":"-","LastOperationDate":"2025-12-13T00:00:00","SEV":"nein","geojson_lng":8.007097,"geojson_lat":48.592572},"geometry":{"type":"Point","coordinates":[8.007097,48.592572]}},{"type":"Feature","properties":{"SeqNo":"62403","Type":"A","DHID":"de:08317:13554:1","Parent":"de:08317:13554","Name":"Gleis 1","Latitude":"48,592845","Longitude":"8,007466","MunicipalityCode":"00000000","Municipality":"-","DistrictCode":"-","District":"-","Description":"","Authority":"NVBW","DelfiName":"-","THID":"-","TariffProvider":"-","LastOperationDate":"","SEV":"nein","geojson_lng":8.007466,"geojson_lat":48.592845},"geometry":{"type":"Point","coordinates":[8.007466,48.592845]}},{"type":"Feature","properties":{"SeqNo":"62404","Type":"A","DHID":"de:08317:13554:10","Parent":"de:08317:13554","Name":"Gleis 2","Latitude":"48,592697","Longitude":"8,007079","MunicipalityCode":"00000000","Municipality":"-","DistrictCode":"-","District":"-","Description":"","Authority":"NVBW","DelfiName":"-","THID":"-","TariffProvider":"-","LastOperationDate":"","SEV":"nein","geojson_lng":8.007079,"geojson_lat":48.592697},"geometry":{"type":"Point","coordinates":[8.007079,48.592697]}},{"type":"Feature","properties":{"SeqNo":"62405","Type":"A","DHID":"de:08317:13554:2","Parent":"de:08317:13554","Name":"Bus","Latitude":"48,591995","Longitude":"8,007762","MunicipalityCode":"00000000","Municipality":"-","DistrictCode":"-","District":"-","Description":"","Authority":"NVBW","DelfiName":"-","THID":"-","TariffProvider":"-","LastOperationDate":"","SEV":"nein","geojson_lng":8.007762,"geojson_lat":48.591995},"geometry":{"type":"Point","coordinates":[8.007762,48.591995]}},{"type":"Feature","properties":{"SeqNo":"62406","Type":"A","DHID":"de:08317:13554:20","Parent":"de:08317:13554","Name":"Zugang Gleis 1 Süd","Latitude":"48,591728","Longitude":"8,006316","MunicipalityCode":"00000000","Municipality":"-","DistrictCode":"-","District":"-","Description":"","Authority":"NVBW","DelfiName":"-","THID":"-","TariffProvider":"-","LastOperationDate":"","SEV":"nein","geojson_lng":8.006316,"geojson_lat":48.591728},"geometry":{"type":"Point","coordinates":[8.006316,48.591728]}},{"type":"Feature","properties":{"SeqNo":"62407","Type":"A","DHID":"de:08317:13554:3","Parent":"de:08317:13554","Name":"Zugang Gl1 Zentral","Latitude":"48,592613","Longitude":"8,007502","MunicipalityCode":"00000000","Municipality":"-","DistrictCode":"-","District":"-","Description":"","Authority":"NVBW","DelfiName":"-","THID":"-","TariffProvider":"-","LastOperationDate":"","SEV":"nein","geojson_lng":8.007502,"geojson_lat":48.592613},"geometry":{"type":"Point","coordinates":[8.007502,48.592613]}},{"type":"Feature","properties":{"SeqNo":"62408","Type":"A","DHID":"de:08317:13554:30","Parent":"de:08317:13554","Name":"B+R Zentral Dach","Latitude":"48,592798","Longitude":"8,007555","MunicipalityCode":"00000000","Municipality":"-","DistrictCode":"-","District":"-","Description":"","Authority":"NVBW","DelfiName":"-","THID":"-","TariffProvider":"-","LastOperationDate":"","SEV":"nein","geojson_lng":8.007555,"geojson_lat":48.592798},"geometry":{"type":"Point","coordinates":[8.007555,48.592798]}},{"type":"Feature","properties":{"SeqNo":"62409","Type":"A","DHID":"de:08317:13554:50","Parent":"de:08317:13554","Name":"P+R Zentral","Latitude":"48,592358","Longitude":"8,007645","MunicipalityCode":"00000000","Municipality":"-","DistrictCode":"-","District":"-","Description":"","Authority":"NVBW","DelfiName":"-","THID":"-","TariffProvider":"-","LastOperationDate":"","SEV":"nein","geojson_lng":8.007645,"geojson_lat":48.592358},"geometry":{"type":"Point","coordinates":[8.007645,48.592358]}},{"type":"Feature","properties":{"SeqNo":"62410","Type":"A","DHID":"de:08317:13554:70","Parent":"de:08317:13554","Name":"Unterführung","Latitude":"48,59278","Longitude":"8,007295","MunicipalityCode":"00000000","Municipality":"-","DistrictCode":"-","District":"-","Description":"","Authority":"NVBW","DelfiName":"-","THID":"-","TariffProvider":"-","LastOperationDate":"","SEV":"nein","geojson_lng":8.007295,"geojson_lat":48.59278},"geometry":{"type":"Point","coordinates":[8.007295,48.59278]}},{"type":"Feature","properties":{"SeqNo":"62411","Type":"A","DHID":"de:08317:13554:71","Parent":"de:08317:13554","Name":"Unterf. Schleifweg","Latitude":"48,591508","Longitude":"8,005624","MunicipalityCode":"00000000","Municipality":"-","DistrictCode":"-","District":"-","Description":"","Authority":"NVBW","DelfiName":"-","THID":"-","TariffProvider":"-","LastOperationDate":"","SEV":"nein","geojson_lng":8.005624,"geojson_lat":48.591508},"geometry":{"type":"Point","coordinates":[8.005624,48.591508]}},{"type":"Feature","properties":{"SeqNo":"62412","Type":"Q","DHID":"de:08317:13554:1:1","Parent":"de:08317:13554:1","Name":"Gleis 1","Latitude":"48,592821","Longitude":"8,007394","MunicipalityCode":"00000000","Municipality":"-","DistrictCode":"-","District":"-","Description":"","Authority":"NVBW","DelfiName":"-","THID":"-","TariffProvider":"-","LastOperationDate":"","SEV":"nein","geojson_lng":8.007394,"geojson_lat":48.592821},"geometry":{"type":"Point","coordinates":[8.007394,48.592821]}},{"type":"Feature","properties":{"SeqNo":"62413","Type":"Q","DHID":"de:08317:13554:1:2","Parent":"de:08317:13554:10","Name":"Gleis 2","Latitude":"48,592839","Longitude":"8,007322","MunicipalityCode":"00000000","Municipality":"-","DistrictCode":"-","District":"-","Description":"","Authority":"NVBW","DelfiName":"-","THID":"-","TariffProvider":"-","LastOperationDate":"","SEV":"nein","geojson_lng":8.007322,"geojson_lat":48.592839},"geometry":{"type":"Point","coordinates":[8.007322,48.592839]}},{"type":"Feature","properties":{"SeqNo":"62414","Type":"Q","DHID":"de:08317:13554:2:1","Parent":"de:08317:13554:2","Name":"Steig 1","Latitude":"48,592001","Longitude":"8,007663","MunicipalityCode":"00000000","Municipality":"-","DistrictCode":"-","District":"-","Description":"","Authority":"NVBW","DelfiName":"-","THID":"-","TariffProvider":"-","LastOperationDate":"","SEV":"nein","geojson_lng":8.007663,"geojson_lat":48.592001},"geometry":{"type":"Point","coordinates":[8.007663,48.592001]}},{"type":"Feature","properties":{"SeqNo":"62415","Type":"Q","DHID":"de:08317:13554:2:2","Parent":"de:08317:13554:2","Name":"Steig 2","Latitude":"48,591805","Longitude":"8,006531","MunicipalityCode":"00000000","Municipality":"-","DistrictCode":"-","District":"-","Description":"","Authority":"NVBW","DelfiName":"-","THID":"-","TariffProvider":"-","LastOperationDate":"","SEV":"nein","geojson_lng":8.006531,"geojson_lat":48.591805},"geometry":{"type":"Point","coordinates":[8.006531,48.591805]}}]}