{"type":"FeatureCollection","features":[{"type":"Feature","properties":{"SeqNo":"59536","Type":"S","DHID":"de:08317:13554","Parent":"de:08317:13554","Name":"Renchen Bahnhof","MunicipalityCode":"08317110","Municipality":"Renchen","DistrictCode":"","District":"","Description":"","Authority":"NVBW","DelfiName":"-","THID":"D9207D0034F2","LastOperationDate":"2025-04-13T00:00:00","SEV":"nein","longitude":"8,007097","latitude":"48,592572","geojson_lng":8.007097,"geojson_lat":48.592572},"geometry":{"type":"Point","coordinates":[8.007097,48.592572]}},{"type":"Feature","properties":{"SeqNo":"59537","Type":"A","DHID":"de:08317:13554:1","Parent":"de:08317:13554","Name":"Zug","MunicipalityCode":"00000000","Municipality":"-","DistrictCode":"-","District":"-","Description":"","Authority":"NVBW","DelfiName":"-","THID":"-","LastOperationDate":"","SEV":"nein","longitude":"8,007304","latitude":"48,592881","geojson_lng":8.007304,"geojson_lat":48.592881},"geometry":{"type":"Point","coordinates":[8.007304,48.592881]}},{"type":"Feature","properties":{"SeqNo":"59538","Type":"A","DHID":"de:08317:13554:2","Parent":"de:08317:13554","Name":"Bus","MunicipalityCode":"00000000","Municipality":"-","DistrictCode":"-","District":"-","Description":"","Authority":"NVBW","DelfiName":"-","THID":"-","LastOperationDate":"","SEV":"nein","longitude":"8,008166","latitude":"48,592631","geojson_lng":8.008166,"geojson_lat":48.592631},"geometry":{"type":"Point","coordinates":[8.008166,48.592631]}},{"type":"Feature","properties":{"SeqNo":"59539","Type":"A","DHID":"de:08317:13554:3","Parent":"de:08317:13554","Name":"Zugang1","MunicipalityCode":"00000000","Municipality":"-","DistrictCode":"-","District":"-","Description":"","Authority":"NVBW","DelfiName":"-","THID":"-","LastOperationDate":"","SEV":"nein","longitude":"8,007457","latitude":"48,592631","geojson_lng":8.007457,"geojson_lat":48.592631},"geometry":{"type":"Point","coordinates":[8.007457,48.592631]}},{"type":"Feature","properties":{"SeqNo":"59540","Type":"Q","DHID":"de:08317:13554:1:1","Parent":"de:08317:13554:1","Name":"Gleis 1","MunicipalityCode":"00000000","Municipality":"-","DistrictCode":"-","District":"-","Description":"","Authority":"NVBW","DelfiName":"-","THID":"-","LastOperationDate":"","SEV":"nein","longitude":"8,007313","latitude":"48,592815","geojson_lng":8.007313,"geojson_lat":48.592815},"geometry":{"type":"Point","coordinates":[8.007313,48.592815]}},{"type":"Feature","properties":{"SeqNo":"59541","Type":"Q","DHID":"de:08317:13554:1:2","Parent":"de:08317:13554:1","Name":"Gleis 2","MunicipalityCode":"00000000","Municipality":"-","DistrictCode":"-","District":"-","Description":"","Authority":"NVBW","DelfiName":"-","THID":"-","LastOperationDate":"","SEV":"nein","longitude":"8,007223","latitude":"48,592857","geojson_lng":8.007223,"geojson_lat":48.592857},"geometry":{"type":"Point","coordinates":[8.007223,48.592857]}},{"type":"Feature","properties":{"SeqNo":"59542","Type":"Q","DHID":"de:08317:13554:2:1","Parent":"de:08317:13554:2","Name":"Steig 1","MunicipalityCode":"00000000","Municipality":"-","DistrictCode":"-","District":"-","Description":"","Authority":"NVBW","DelfiName":"-","THID":"-","LastOperationDate":"","SEV":"nein","longitude":"8,008229","latitude":"48,593101","geojson_lng":8.008229,"geojson_lat":48.593101},"geometry":{"type":"Point","coordinates":[8.008229,48.593101]}},{"type":"Feature","properties":{"SeqNo":"59543","Type":"Q","DHID":"de:08317:13554:2:2","Parent":"de:08317:13554:2","Name":"Steig 2","MunicipalityCode":"00000000","Municipality":"-","DistrictCode":"-","District":"-","Description":"","Authority":"NVBW","DelfiName":"-","THID":"-","LastOperationDate":"","SEV":"nein","longitude":"8,006531","latitude":"48,591805","geojson_lng":8.006531,"geojson_lat":48.591805},"geometry":{"type":"Point","coordinates":[8.006531,48.591805]}}]}