{"type":"FeatureCollection","features":[{"type":"Feature","properties":{"SeqNo":"845221","Type":"S","DHID":"de:14625:6090","Parent":"de:14625:6090","Name":"Laußnitz Bahnhof","MunicipalityCode":"14625300","Municipality":"Laußnitz","DistrictCode":"","District":"","Description":"","Authority":"VVO","DelfiName":"Laußnitz (Sachs), Bahnhof","THID":"D939210017CA","LastOperationDate":"2025-02-28T00:00:00","SEV":"ja","longitude":"13,879519","latitude":"51,248074","geojson_lng":13.879519,"geojson_lat":51.248074},"geometry":{"type":"Point","coordinates":[13.879519,51.248074]}},{"type":"Feature","properties":{"SeqNo":"845222","Type":"A","DHID":"de:14625:6090:1","Parent":"de:14625:6090","Name":"DB-Bahnsteig","MunicipalityCode":"00000000","Municipality":"-","DistrictCode":"-","District":"-","Description":"","Authority":"VVO","DelfiName":"-","THID":"-","LastOperationDate":"","SEV":"nein","longitude":"13,879582","latitude":"51,248119","geojson_lng":13.879582,"geojson_lat":51.248119},"geometry":{"type":"Point","coordinates":[13.879582,51.248119]}},{"type":"Feature","properties":{"SeqNo":"845223","Type":"A","DHID":"de:14625:6090:2","Parent":"de:14625:6090","Name":"Zugang","MunicipalityCode":"00000000","Municipality":"-","DistrictCode":"-","District":"-","Description":"","Authority":"VVO","DelfiName":"-","THID":"-","LastOperationDate":"","SEV":"nein","longitude":"13,87969","latitude":"51,248108","geojson_lng":13.87969,"geojson_lat":51.248108},"geometry":{"type":"Point","coordinates":[13.87969,51.248108]}},{"type":"Feature","properties":{"SeqNo":"845224","Type":"A","DHID":"de:14625:6090:3","Parent":"de:14625:6090","Name":"Bus","MunicipalityCode":"00000000","Municipality":"-","DistrictCode":"-","District":"-","Description":"","Authority":"VVO","DelfiName":"-","THID":"-","LastOperationDate":"","SEV":"ja","longitude":"13,879295","latitude":"51,248231","geojson_lng":13.879295,"geojson_lat":51.248231},"geometry":{"type":"Point","coordinates":[13.879295,51.248231]}},{"type":"Feature","properties":{"SeqNo":"845227","Type":"Q","DHID":"de:14625:6090:3:2","Parent":"de:14625:6090:3","Name":"Ri. Höckendorf","MunicipalityCode":"00000000","Municipality":"-","DistrictCode":"-","District":"-","Description":"","Authority":"VVO","DelfiName":"-","THID":"-","LastOperationDate":"","SEV":"ja","longitude":"13,879079","latitude":"51,248119","geojson_lng":13.879079,"geojson_lat":51.248119},"geometry":{"type":"Point","coordinates":[13.879079,51.248119]}},{"type":"Feature","properties":{"SeqNo":"845228","Type":"S","DHID":"de:14625:6091","Parent":"de:14625:6091","Name":"Laußnitz Schule","MunicipalityCode":"14625300","Municipality":"Laußnitz","DistrictCode":"","District":"","Description":"","Authority":"VVO","DelfiName":"Laußnitz (Sachs), Schule","THID":"D939210017CB","LastOperationDate":"2025-02-28T00:00:00","SEV":"nein","longitude":"13,880399","latitude":"51,246904","geojson_lng":13.880399,"geojson_lat":51.246904},"geometry":{"type":"Point","coordinates":[13.880399,51.246904]}},{"type":"Feature","properties":{"SeqNo":"845229","Type":"A","DHID":"de:14625:6091:1","Parent":"de:14625:6091","Name":"Haltestelle","MunicipalityCode":"00000000","Municipality":"-","DistrictCode":"-","District":"-","Description":"","Authority":"VVO","DelfiName":"-","THID":"-","LastOperationDate":"","SEV":"nein","longitude":"13,880399","latitude":"51,246893","geojson_lng":13.880399,"geojson_lat":51.246893},"geometry":{"type":"Point","coordinates":[13.880399,51.246893]}},{"type":"Feature","properties":{"SeqNo":"845230","Type":"Q","DHID":"de:14625:6091:1:1","Parent":"de:14625:6091:1","Name":"Ri. Königsbrück","MunicipalityCode":"00000000","Municipality":"-","DistrictCode":"-","District":"-","Description":"","Authority":"VVO","DelfiName":"-","THID":"-","LastOperationDate":"","SEV":"nein","longitude":"13,88031","latitude":"51,247067","geojson_lng":13.88031,"geojson_lat":51.247067},"geometry":{"type":"Point","coordinates":[13.88031,51.247067]}},{"type":"Feature","properties":{"SeqNo":"845231","Type":"Q","DHID":"de:14625:6091:1:2","Parent":"de:14625:6091:1","Name":"Ri. Höckendorf","MunicipalityCode":"00000000","Municipality":"-","DistrictCode":"-","District":"-","Description":"","Authority":"VVO","DelfiName":"-","THID":"-","LastOperationDate":"","SEV":"nein","longitude":"13,880534","latitude":"51,246955","geojson_lng":13.880534,"geojson_lat":51.246955},"geometry":{"type":"Point","coordinates":[13.880534,51.246955]}},{"type":"Feature","properties":{"SeqNo":"845232","Type":"Q","DHID":"de:14625:6091:1:91","Parent":"de:14625:6091:1","Name":"91","MunicipalityCode":"00000000","Municipality":"-","DistrictCode":"-","District":"-","Description":"","Authority":"VVO","DelfiName":"-","THID":"-","LastOperationDate":"","SEV":"nein","longitude":"13,882394","latitude":"51,246359","geojson_lng":13.882394,"geojson_lat":51.246359},"geometry":{"type":"Point","coordinates":[13.882394,51.246359]}},{"type":"Feature","properties":{"SeqNo":"845233","Type":"Q","DHID":"de:14625:6091:1:92","Parent":"de:14625:6091:1","Name":"92","MunicipalityCode":"00000000","Municipality":"-","DistrictCode":"-","District":"-","Description":"","Authority":"VVO","DelfiName":"-","THID":"-","LastOperationDate":"","SEV":"nein","longitude":"13,88243","latitude":"51,246308","geojson_lng":13.88243,"geojson_lat":51.246308},"geometry":{"type":"Point","coordinates":[13.88243,51.246308]}}]}