{"type":"FeatureCollection","features":[{"type":"Feature","properties":{"highway":"bus_stop","public_transport":"platform","name":"Centrum","ref:IFOPT":"NL:Q:18730100","_quaycode":"NL:Q:18730100","_town":"Ter Apel","_status":"available","_mode":"bus","_direction":70,"_visuallyAccessible":false,"_disabledAccessible":true,"geojson_lng":7.062686957923631,"geojson_lat":52.875356425345025},"geometry":{"type":"Point","coordinates":[7.062686957923631,52.875356425345025]}},{"type":"Feature","properties":{"highway":"bus_stop","public_transport":"platform","name":"Schotslaan","ref:IFOPT":"NL:Q:18730220","_quaycode":"NL:Q:18730220","_town":"Ter Apel","_status":"available","_mode":"bus","_direction":139,"_visuallyAccessible":false,"_disabledAccessible":true,"geojson_lng":7.073422718006772,"geojson_lat":52.87253566890404},"geometry":{"type":"Point","coordinates":[7.073422718006772,52.87253566890404]}},{"type":"Feature","properties":{"highway":"bus_stop","public_transport":"platform","name":"Schotslaan","ref:IFOPT":"NL:Q:18730210","_quaycode":"NL:Q:18730210","_town":"Ter Apel","_status":"available","_mode":"bus","_direction":319,"_visuallyAccessible":false,"_disabledAccessible":true,"geojson_lng":7.073052025297266,"geojson_lat":52.873322882257455},"geometry":{"type":"Point","coordinates":[7.073052025297266,52.873322882257455]}},{"type":"Feature","properties":{"highway":"bus_stop","public_transport":"platform","name":"Stationsstraat","ref:IFOPT":"NL:Q:18733320","_quaycode":"NL:Q:18733320","_town":"Ter Apel","_status":"available","_mode":"bus","_direction":195,"_visuallyAccessible":false,"_disabledAccessible":true,"geojson_lng":7.065362282292443,"geojson_lat":52.877323187879604},"geometry":{"type":"Point","coordinates":[7.065362282292443,52.877323187879604]}},{"type":"Feature","properties":{"highway":"bus_stop","public_transport":"platform","name":"Kloosterheerd","ref:IFOPT":"NL:Q:18733010","_quaycode":"NL:Q:18733010","_town":"Ter Apel","_status":"available","_mode":"bus","_direction":180,"_visuallyAccessible":false,"_disabledAccessible":true,"geojson_lng":7.059114090246455,"geojson_lat":52.87826478845162},"geometry":{"type":"Point","coordinates":[7.059114090246455,52.87826478845162]}},{"type":"Feature","properties":{"highway":"bus_stop","public_transport":"platform","name":"Heemborg","ref:IFOPT":"NL:Q:18733410","_quaycode":"NL:Q:18733410","_town":"Ter Apel","_status":"available","_mode":"bus","_direction":350,"_visuallyAccessible":false,"_disabledAccessible":true,"geojson_lng":7.065629193768945,"geojson_lat":52.88117536188702},"geometry":{"type":"Point","coordinates":[7.065629193768945,52.88117536188702]}},{"type":"Feature","properties":{"highway":"bus_stop","public_transport":"platform","name":"Kloosterheerd","ref:IFOPT":"NL:Q:18733020","_quaycode":"NL:Q:18733020","_town":"Ter Apel","_status":"available","_mode":"bus","_direction":0,"_visuallyAccessible":false,"_disabledAccessible":true,"geojson_lng":7.059450450270932,"geojson_lat":52.878125251835215},"geometry":{"type":"Point","coordinates":[7.059450450270932,52.878125251835215]}},{"type":"Feature","properties":{"highway":"bus_stop","public_transport":"platform","name":"Ds. Fleischerstraat","ref:IFOPT":"NL:Q:18732910","_quaycode":"NL:Q:18732910","_town":"Ter Apel","_status":"available","_mode":"bus","_direction":80,"_visuallyAccessible":false,"_disabledAccessible":true,"geojson_lng":7.052898978977254,"geojson_lat":52.879690957305215},"geometry":{"type":"Point","coordinates":[7.052898978977254,52.879690957305215]}},{"type":"Feature","properties":{"highway":"bus_stop","public_transport":"platform","name":"Centrum","ref:IFOPT":"NL:Q:18730110","_quaycode":"NL:Q:18730110","_town":"Ter Apel","_status":"available","_mode":"bus","_direction":0,"_visuallyAccessible":false,"_disabledAccessible":true,"geojson_lng":7.062355828999861,"geojson_lat":52.87524422896477},"geometry":{"type":"Point","coordinates":[7.062355828999861,52.87524422896477]}},{"type":"Feature","properties":{"highway":"bus_stop","public_transport":"platform","name":"Centrum","ref:IFOPT":"NL:Q:18730120","_quaycode":"NL:Q:18730120","_town":"Ter Apel","_status":"available","_mode":"bus","_direction":250,"_visuallyAccessible":false,"_disabledAccessible":true,"geojson_lng":7.0623893147798045,"geojson_lat":52.875342628772565},"geometry":{"type":"Point","coordinates":[7.0623893147798045,52.875342628772565]}},{"type":"Feature","properties":{"highway":"bus_stop","public_transport":"platform","name":"Heemborg","ref:IFOPT":"NL:Q:18733420","_quaycode":"NL:Q:18733420","_town":"Ter Apel","_status":"available","_mode":"bus","_direction":170,"_visuallyAccessible":false,"_disabledAccessible":true,"geojson_lng":7.065300429810044,"geojson_lat":52.88112605729141},"geometry":{"type":"Point","coordinates":[7.065300429810044,52.88112605729141]}},{"type":"Feature","properties":{"highway":"bus_stop","public_transport":"platform","name":"Stationsstraat","ref:IFOPT":"NL:Q:18733310","_quaycode":"NL:Q:18733310","_town":"Ter Apel","_status":"available","_mode":"bus","_direction":0,"_visuallyAccessible":false,"_disabledAccessible":true,"geojson_lng":7.065694470532315,"geojson_lat":52.87746232573178},"geometry":{"type":"Point","coordinates":[7.065694470532315,52.87746232573178]}},{"type":"Feature","properties":{"highway":"bus_stop","public_transport":"platform","name":"Korenakker","ref:IFOPT":"NL:Q:18733120","_quaycode":"NL:Q:18733120","_town":"Ter Apel","_status":"available","_mode":"bus","_direction":0,"_visuallyAccessible":false,"_disabledAccessible":true,"geojson_lng":7.059612339291224,"geojson_lat":52.87614558482334},"geometry":{"type":"Point","coordinates":[7.059612339291224,52.87614558482334]}},{"type":"Feature","properties":{"highway":"bus_stop","public_transport":"platform","name":"Korenakker","ref:IFOPT":"NL:Q:18733110","_quaycode":"NL:Q:18733110","_town":"Ter Apel","_status":"available","_mode":"bus","_direction":180,"_visuallyAccessible":false,"_disabledAccessible":true,"geojson_lng":7.059282931945632,"geojson_lat":52.87607829669313},"geometry":{"type":"Point","coordinates":[7.059282931945632,52.87607829669313]}}]}