{"type":"FeatureCollection","features":[{"type":"Feature","properties":{"SeqNo":"657450","Type":"S","DHID":"de:05774:8919","Parent":"de:05774:8919","Name":"Sk-Holsen, Winkhauser Str","MunicipalityCode":"05774036","Municipality":"Salzkotten","DistrictCode":"-","District":"-","Description":"","Authority":"VRR","DelfiName":"-","THID":"D9168E0022D7","LastOperationDate":"2025-06-13T00:00:00","SEV":"nein","longitude":"8,540652","latitude":"51,700889","geojson_lng":8.540652,"geojson_lat":51.700889},"geometry":{"type":"Point","coordinates":[8.540652,51.700889]}},{"type":"Feature","properties":{"SeqNo":"657451","Type":"Q","DHID":"de:05774:8919:0:1","Parent":"de:05774:8919","Name":"Ri Südwest","MunicipalityCode":"00000000","Municipality":"-","DistrictCode":"-","District":"-","Description":"Ri Gsrfeln","Authority":"VRR","DelfiName":"-","THID":"-","LastOperationDate":"","SEV":"nein","longitude":"8,540706","latitude":"51,700922","geojson_lng":8.540706,"geojson_lat":51.700922},"geometry":{"type":"Point","coordinates":[8.540706,51.700922]}},{"type":"Feature","properties":{"SeqNo":"657452","Type":"Q","DHID":"de:05774:8919:0:2","Parent":"de:05774:8919","Name":"Ri Nordost","MunicipalityCode":"00000000","Municipality":"-","DistrictCode":"-","District":"-","Description":"Ri Salzkotten","Authority":"VRR","DelfiName":"-","THID":"-","LastOperationDate":"","SEV":"nein","longitude":"8,540616","latitude":"51,700867","geojson_lng":8.540616,"geojson_lat":51.700867},"geometry":{"type":"Point","coordinates":[8.540616,51.700867]}},{"type":"Feature","properties":{"SeqNo":"657462","Type":"S","DHID":"de:05774:8923","Parent":"de:05774:8923","Name":"Sk-Winkhausen, Fretter","MunicipalityCode":"05774036","Municipality":"Salzkotten","DistrictCode":"-","District":"-","Description":"","Authority":"VRR","DelfiName":"-","THID":"D9168E0022DB","LastOperationDate":"2025-06-13T00:00:00","SEV":"nein","longitude":"8,542709","latitude":"51,706545","geojson_lng":8.542709,"geojson_lat":51.706545},"geometry":{"type":"Point","coordinates":[8.542709,51.706545]}},{"type":"Feature","properties":{"SeqNo":"657463","Type":"Q","DHID":"de:05774:8923:0:1","Parent":"de:05774:8923","Name":"1","MunicipalityCode":"00000000","Municipality":"-","DistrictCode":"-","District":"-","Description":"Ri gsrfeln","Authority":"VRR","DelfiName":"-","THID":"-","LastOperationDate":"","SEV":"nein","longitude":"8,543005","latitude":"51,706573","geojson_lng":8.543005,"geojson_lat":51.706573},"geometry":{"type":"Point","coordinates":[8.543005,51.706573]}},{"type":"Feature","properties":{"SeqNo":"657464","Type":"Q","DHID":"de:05774:8923:0:2","Parent":"de:05774:8923","Name":"2","MunicipalityCode":"00000000","Municipality":"-","DistrictCode":"-","District":"-","Description":"Ri Salzkotten","Authority":"VRR","DelfiName":"-","THID":"-","LastOperationDate":"","SEV":"nein","longitude":"8,542341","latitude":"51,706506","geojson_lng":8.542341,"geojson_lat":51.706506},"geometry":{"type":"Point","coordinates":[8.542341,51.706506]}},{"type":"Feature","properties":{"SeqNo":"657468","Type":"S","DHID":"de:05774:8925","Parent":"de:05774:8925","Name":"Sk-Winkhausen, Am Rott","MunicipalityCode":"05774036","Municipality":"Salzkotten","DistrictCode":"-","District":"-","Description":"","Authority":"VRR","DelfiName":"-","THID":"D9168E0022DD","LastOperationDate":"2025-06-13T00:00:00","SEV":"nein","longitude":"8,546203","latitude":"51,704764","geojson_lng":8.546203,"geojson_lat":51.704764},"geometry":{"type":"Point","coordinates":[8.546203,51.704764]}},{"type":"Feature","properties":{"SeqNo":"657469","Type":"Q","DHID":"de:05774:8925:0:1","Parent":"de:05774:8925","Name":"Ri Süd","MunicipalityCode":"00000000","Municipality":"-","DistrictCode":"-","District":"-","Description":"Ri Garfeln","Authority":"VRR","DelfiName":"-","THID":"-","LastOperationDate":"","SEV":"nein","longitude":"8,546176","latitude":"51,704803","geojson_lng":8.546176,"geojson_lat":51.704803},"geometry":{"type":"Point","coordinates":[8.546176,51.704803]}},{"type":"Feature","properties":{"SeqNo":"657470","Type":"Q","DHID":"de:05774:8925:0:2","Parent":"de:05774:8925","Name":"Ri Nord","MunicipalityCode":"00000000","Municipality":"-","DistrictCode":"-","District":"-","Description":"Ri Salzkotten","Authority":"VRR","DelfiName":"-","THID":"-","LastOperationDate":"","SEV":"nein","longitude":"8,546212","latitude":"51,704742","geojson_lng":8.546212,"geojson_lat":51.704742},"geometry":{"type":"Point","coordinates":[8.546212,51.704742]}}]}