{"type":"FeatureCollection","features":[{"type":"Feature","properties":{"SeqNo":"817825","Type":"S","DHID":"de:14511:20167","Parent":"de:14511:20167","Name":"Grüna, Pleißaer Str","MunicipalityCode":"14511000","Municipality":"Chemnitz","DistrictCode":"-","District":"-","Description":"","Authority":"VVO","DelfiName":"-","THID":"D938AF004EC7","LastOperationDate":"2025-02-28T00:00:00","SEV":"nein","longitude":"12,792881","latitude":"50,812024","geojson_lng":12.792881,"geojson_lat":50.812024},"geometry":{"type":"Point","coordinates":[12.792881,50.812024]}},{"type":"Feature","properties":{"SeqNo":"817826","Type":"Q","DHID":"de:14511:20167:0:BO","Parent":"de:14511:20167","Name":"Bus Ost","MunicipalityCode":"00000000","Municipality":"-","DistrictCode":"-","District":"-","Description":"Bus Ost","Authority":"VVO","DelfiName":"-","THID":"-","LastOperationDate":"","SEV":"nein","longitude":"12,793124","latitude":"50,812012","geojson_lng":12.793124,"geojson_lat":50.812012},"geometry":{"type":"Point","coordinates":[12.793124,50.812012]}},{"type":"Feature","properties":{"SeqNo":"817827","Type":"Q","DHID":"de:14511:20167:0:BW","Parent":"de:14511:20167","Name":"Bus West","MunicipalityCode":"00000000","Municipality":"-","DistrictCode":"-","District":"-","Description":"Bus West","Authority":"VVO","DelfiName":"-","THID":"-","LastOperationDate":"","SEV":"nein","longitude":"12,792638","latitude":"50,812024","geojson_lng":12.792638,"geojson_lat":50.812024},"geometry":{"type":"Point","coordinates":[12.792638,50.812024]}},{"type":"Feature","properties":{"SeqNo":"818173","Type":"S","DHID":"de:14511:30056","Parent":"de:14511:30056","Name":"Grüna, Karl-Liebknecht-Str","MunicipalityCode":"14511000","Municipality":"Chemnitz","DistrictCode":"","District":"","Description":"","Authority":"VVO","DelfiName":"-","THID":"D938AF007568","LastOperationDate":"2025-02-28T00:00:00","SEV":"nein","longitude":"12,789692","latitude":"50,812495","geojson_lng":12.789692,"geojson_lat":50.812495},"geometry":{"type":"Point","coordinates":[12.789692,50.812495]}},{"type":"Feature","properties":{"SeqNo":"818174","Type":"Q","DHID":"de:14511:30056:0:BO","Parent":"de:14511:30056","Name":"Bus Ost","MunicipalityCode":"00000000","Municipality":"-","DistrictCode":"-","District":"-","Description":"","Authority":"VVO","DelfiName":"-","THID":"-","LastOperationDate":"","SEV":"nein","longitude":"12,789863","latitude":"50,812512","geojson_lng":12.789863,"geojson_lat":50.812512},"geometry":{"type":"Point","coordinates":[12.789863,50.812512]}},{"type":"Feature","properties":{"SeqNo":"818175","Type":"Q","DHID":"de:14511:30056:0:BW","Parent":"de:14511:30056","Name":"Bus West","MunicipalityCode":"00000000","Municipality":"-","DistrictCode":"-","District":"-","Description":"","Authority":"VVO","DelfiName":"-","THID":"-","LastOperationDate":"","SEV":"nein","longitude":"12,789521","latitude":"50,812472","geojson_lng":12.789521,"geojson_lat":50.812472},"geometry":{"type":"Point","coordinates":[12.789521,50.812472]}},{"type":"Feature","properties":{"SeqNo":"819411","Type":"S","DHID":"de:14511:30353","Parent":"de:14511:30353","Name":"Grüna, Poststr","MunicipalityCode":"14511000","Municipality":"Chemnitz","DistrictCode":"","District":"","Description":"","Authority":"VVO","DelfiName":"-","THID":"D938AF007691","LastOperationDate":"2025-02-28T00:00:00","SEV":"nein","longitude":"12,798244","latitude":"50,812472","geojson_lng":12.798244,"geojson_lat":50.812472},"geometry":{"type":"Point","coordinates":[12.798244,50.812472]}},{"type":"Feature","properties":{"SeqNo":"819412","Type":"Q","DHID":"de:14511:30353:0:BO","Parent":"de:14511:30353","Name":"Bus Ost","MunicipalityCode":"00000000","Municipality":"-","DistrictCode":"-","District":"-","Description":"","Authority":"VVO","DelfiName":"-","THID":"-","LastOperationDate":"","SEV":"nein","longitude":"12,798235","latitude":"50,812472","geojson_lng":12.798235,"geojson_lat":50.812472},"geometry":{"type":"Point","coordinates":[12.798235,50.812472]}},{"type":"Feature","properties":{"SeqNo":"819413","Type":"Q","DHID":"de:14511:30353:0:BW","Parent":"de:14511:30353","Name":"Bus West","MunicipalityCode":"00000000","Municipality":"-","DistrictCode":"-","District":"-","Description":"","Authority":"VVO","DelfiName":"-","THID":"-","LastOperationDate":"","SEV":"nein","longitude":"12,798253","latitude":"50,812535","geojson_lng":12.798253,"geojson_lat":50.812535},"geometry":{"type":"Point","coordinates":[12.798253,50.812535]}},{"type":"Feature","properties":{"SeqNo":"820348","Type":"A","DHID":"de:14511:55770:1","Parent":"de:14511:55770","Name":"Gleis 1","MunicipalityCode":"00000000","Municipality":"-","DistrictCode":"-","District":"-","Description":"","Authority":"VVO","DelfiName":"-","THID":"-","LastOperationDate":"","SEV":"nein","longitude":"12,798531","latitude":"50,811439","geojson_lng":12.798531,"geojson_lat":50.811439},"geometry":{"type":"Point","coordinates":[12.798531,50.811439]}},{"type":"Feature","properties":{"SeqNo":"820349","Type":"A","DHID":"de:14511:55770:2","Parent":"de:14511:55770","Name":"Gleis 2","MunicipalityCode":"00000000","Municipality":"-","DistrictCode":"-","District":"-","Description":"","Authority":"VVO","DelfiName":"-","THID":"-","LastOperationDate":"","SEV":"nein","longitude":"12,79846","latitude":"50,811331","geojson_lng":12.79846,"geojson_lat":50.811331},"geometry":{"type":"Point","coordinates":[12.79846,50.811331]}},{"type":"Feature","properties":{"SeqNo":"820351","Type":"A","DHID":"de:14511:55770:70","Parent":"de:14511:55770","Name":"Zwischengeschoss 1","MunicipalityCode":"00000000","Municipality":"-","DistrictCode":"-","District":"-","Description":"","Authority":"VVO","DelfiName":"-","THID":"-","LastOperationDate":"","SEV":"nein","longitude":"12,798433","latitude":"50,811428","geojson_lng":12.798433,"geojson_lat":50.811428},"geometry":{"type":"Point","coordinates":[12.798433,50.811428]}},{"type":"Feature","properties":{"SeqNo":"820352","Type":"A","DHID":"de:14511:55770:71","Parent":"de:14511:55770","Name":"Zwischengeschoss 2","MunicipalityCode":"00000000","Municipality":"-","DistrictCode":"-","District":"-","Description":"","Authority":"VVO","DelfiName":"-","THID":"-","LastOperationDate":"","SEV":"nein","longitude":"12,79846","latitude":"50,811314","geojson_lng":12.79846,"geojson_lat":50.811314},"geometry":{"type":"Point","coordinates":[12.79846,50.811314]}},{"type":"Feature","properties":{"SeqNo":"820353","Type":"A","DHID":"de:14511:55770:72","Parent":"de:14511:55770","Name":"Zwischeng Unterführg","MunicipalityCode":"00000000","Municipality":"-","DistrictCode":"-","District":"-","Description":"","Authority":"VVO","DelfiName":"-","THID":"-","LastOperationDate":"","SEV":"nein","longitude":"12,798567","latitude":"50,811382","geojson_lng":12.798567,"geojson_lat":50.811382},"geometry":{"type":"Point","coordinates":[12.798567,50.811382]}},{"type":"Feature","properties":{"SeqNo":"820354","Type":"A","DHID":"de:14511:55770:90","Parent":"de:14511:55770","Name":"Eingang 1","MunicipalityCode":"00000000","Municipality":"-","DistrictCode":"-","District":"-","Description":"","Authority":"VVO","DelfiName":"-","THID":"-","LastOperationDate":"","SEV":"nein","longitude":"12,798415","latitude":"50,81145","geojson_lng":12.798415,"geojson_lat":50.81145},"geometry":{"type":"Point","coordinates":[12.798415,50.81145]}},{"type":"Feature","properties":{"SeqNo":"820355","Type":"A","DHID":"de:14511:55770:91","Parent":"de:14511:55770","Name":"Eingang 2","MunicipalityCode":"00000000","Municipality":"-","DistrictCode":"-","District":"-","Description":"","Authority":"VVO","DelfiName":"-","THID":"-","LastOperationDate":"","SEV":"nein","longitude":"12,79846","latitude":"50,811303","geojson_lng":12.79846,"geojson_lat":50.811303},"geometry":{"type":"Point","coordinates":[12.79846,50.811303]}},{"type":"Feature","properties":{"SeqNo":"820356","Type":"Q","DHID":"de:14511:55770:1:1","Parent":"de:14511:55770:1","Name":"Gleis 1","MunicipalityCode":"00000000","Municipality":"-","DistrictCode":"-","District":"-","Description":"","Authority":"VVO","DelfiName":"-","THID":"-","LastOperationDate":"","SEV":"nein","longitude":"12,798531","latitude":"50,811439","geojson_lng":12.798531,"geojson_lat":50.811439},"geometry":{"type":"Point","coordinates":[12.798531,50.811439]}},{"type":"Feature","properties":{"SeqNo":"820357","Type":"Q","DHID":"de:14511:55770:2:2","Parent":"de:14511:55770:2","Name":"Gleis 2","MunicipalityCode":"00000000","Municipality":"-","DistrictCode":"-","District":"-","Description":"","Authority":"VVO","DelfiName":"-","THID":"-","LastOperationDate":"","SEV":"nein","longitude":"12,79846","latitude":"50,811331","geojson_lng":12.79846,"geojson_lat":50.811331},"geometry":{"type":"Point","coordinates":[12.79846,50.811331]}}]}