{"type":"FeatureCollection","features":[{"type":"Feature","properties":{"SeqNo":"522764","Type":"S","DHID":"de:05114:21522","Parent":"de:05114:21522","Name":"Krefeld, Outokumpu Nirosta","MunicipalityCode":"05114000","Municipality":"Krefeld","DistrictCode":"","District":"","Description":"","Authority":"VRR","DelfiName":"-","THID":"D913FA005412","LastOperationDate":"2025-01-06T00:00:00","SEV":"nein","longitude":"6,554522","latitude":"51,303158","geojson_lng":6.554522,"geojson_lat":51.303158},"geometry":{"type":"Point","coordinates":[6.554522,51.303158]}},{"type":"Feature","properties":{"SeqNo":"522768","Type":"A","DHID":"de:05114:21522:4","Parent":"de:05114:21522","Name":"B4","MunicipalityCode":"00000000","Municipality":"-","DistrictCode":"-","District":"-","Description":"","Authority":"VRR","DelfiName":"-","THID":"-","LastOperationDate":"","SEV":"nein","longitude":"6,554584","latitude":"51,302882","geojson_lng":6.554584,"geojson_lat":51.302882},"geometry":{"type":"Point","coordinates":[6.554584,51.302882]}},{"type":"Feature","properties":{"SeqNo":"522772","Type":"Q","DHID":"de:05114:21522:2:4","Parent":"de:05114:21522:4","Name":"Bus Rück","MunicipalityCode":"00000000","Municipality":"-","DistrictCode":"-","District":"-","Description":"","Authority":"VRR","DelfiName":"-","THID":"-","LastOperationDate":"","SEV":"nein","longitude":"6,554647","latitude":"51,302832","geojson_lng":6.554647,"geojson_lat":51.302832},"geometry":{"type":"Point","coordinates":[6.554647,51.302832]}},{"type":"Feature","properties":{"SeqNo":"522773","Type":"S","DHID":"de:05114:21523","Parent":"de:05114:21523","Name":"Krefeld Edelstahlwerk Tor 3","MunicipalityCode":"05114000","Municipality":"Krefeld","DistrictCode":"","District":"","Description":"","Authority":"VRR","DelfiName":"-","THID":"D913FA005413","LastOperationDate":"2025-01-06T00:00:00","SEV":"nein","longitude":"6,55436","latitude":"51,299282","geojson_lng":6.55436,"geojson_lat":51.299282},"geometry":{"type":"Point","coordinates":[6.55436,51.299282]}},{"type":"Feature","properties":{"SeqNo":"522774","Type":"A","DHID":"de:05114:21523:1","Parent":"de:05114:21523","Name":"B1","MunicipalityCode":"00000000","Municipality":"-","DistrictCode":"-","District":"-","Description":"","Authority":"VRR","DelfiName":"-","THID":"-","LastOperationDate":"","SEV":"nein","longitude":"6,554522","latitude":"51,299265","geojson_lng":6.554522,"geojson_lat":51.299265},"geometry":{"type":"Point","coordinates":[6.554522,51.299265]}},{"type":"Feature","properties":{"SeqNo":"522775","Type":"A","DHID":"de:05114:21523:2","Parent":"de:05114:21523","Name":"B2","MunicipalityCode":"00000000","Municipality":"-","DistrictCode":"-","District":"-","Description":"","Authority":"VRR","DelfiName":"-","THID":"-","LastOperationDate":"","SEV":"nein","longitude":"6,554423","latitude":"51,299271","geojson_lng":6.554423,"geojson_lat":51.299271},"geometry":{"type":"Point","coordinates":[6.554423,51.299271]}},{"type":"Feature","properties":{"SeqNo":"522776","Type":"A","DHID":"de:05114:21523:3","Parent":"de:05114:21523","Name":"B3","MunicipalityCode":"00000000","Municipality":"-","DistrictCode":"-","District":"-","Description":"","Authority":"VRR","DelfiName":"-","THID":"-","LastOperationDate":"","SEV":"nein","longitude":"6,554782","latitude":"51,300024","geojson_lng":6.554782,"geojson_lat":51.300024},"geometry":{"type":"Point","coordinates":[6.554782,51.300024]}},{"type":"Feature","properties":{"SeqNo":"522777","Type":"A","DHID":"de:05114:21523:4","Parent":"de:05114:21523","Name":"B4","MunicipalityCode":"00000000","Municipality":"-","DistrictCode":"-","District":"-","Description":"","Authority":"VRR","DelfiName":"-","THID":"-","LastOperationDate":"","SEV":"nein","longitude":"6,554513","latitude":"51,298973","geojson_lng":6.554513,"geojson_lat":51.298973},"geometry":{"type":"Point","coordinates":[6.554513,51.298973]}},{"type":"Feature","properties":{"SeqNo":"522778","Type":"A","DHID":"de:05114:21523:5","Parent":"de:05114:21523","Name":"B5","MunicipalityCode":"00000000","Municipality":"-","DistrictCode":"-","District":"-","Description":"","Authority":"VRR","DelfiName":"-","THID":"-","LastOperationDate":"","SEV":"nein","longitude":"6,555312","latitude":"51,299355","geojson_lng":6.555312,"geojson_lat":51.299355},"geometry":{"type":"Point","coordinates":[6.555312,51.299355]}},{"type":"Feature","properties":{"SeqNo":"522779","Type":"Q","DHID":"de:05114:21523:1:1","Parent":"de:05114:21523:1","Name":"Strab Hin","MunicipalityCode":"00000000","Municipality":"-","DistrictCode":"-","District":"-","Description":"","Authority":"VRR","DelfiName":"-","THID":"-","LastOperationDate":"","SEV":"nein","longitude":"6,554468","latitude":"51,299395","geojson_lng":6.554468,"geojson_lat":51.299395},"geometry":{"type":"Point","coordinates":[6.554468,51.299395]}},{"type":"Feature","properties":{"SeqNo":"522780","Type":"Q","DHID":"de:05114:21523:1:2","Parent":"de:05114:21523:2","Name":"Strab Rück","MunicipalityCode":"00000000","Municipality":"-","DistrictCode":"-","District":"-","Description":"","Authority":"VRR","DelfiName":"-","THID":"-","LastOperationDate":"","SEV":"nein","longitude":"6,554441","latitude":"51,299147","geojson_lng":6.554441,"geojson_lat":51.299147},"geometry":{"type":"Point","coordinates":[6.554441,51.299147]}},{"type":"Feature","properties":{"SeqNo":"522781","Type":"Q","DHID":"de:05114:21523:2:3","Parent":"de:05114:21523:3","Name":"Bus Hin","MunicipalityCode":"00000000","Municipality":"-","DistrictCode":"-","District":"-","Description":"","Authority":"VRR","DelfiName":"-","THID":"-","LastOperationDate":"","SEV":"nein","longitude":"6,554701","latitude":"51,300085","geojson_lng":6.554701,"geojson_lat":51.300085},"geometry":{"type":"Point","coordinates":[6.554701,51.300085]}},{"type":"Feature","properties":{"SeqNo":"522782","Type":"Q","DHID":"de:05114:21523:2:4","Parent":"de:05114:21523:4","Name":"Bus Rück","MunicipalityCode":"00000000","Municipality":"-","DistrictCode":"-","District":"-","Description":"","Authority":"VRR","DelfiName":"-","THID":"-","LastOperationDate":"","SEV":"nein","longitude":"6,554593","latitude":"51,298833","geojson_lng":6.554593,"geojson_lat":51.298833},"geometry":{"type":"Point","coordinates":[6.554593,51.298833]}},{"type":"Feature","properties":{"SeqNo":"522783","Type":"Q","DHID":"de:05114:21523:2:11","Parent":"de:05114:21523:5","Name":"SEV-Hst. in Wendeschleife","MunicipalityCode":"00000000","Municipality":"-","DistrictCode":"-","District":"-","Description":"","Authority":"VRR","DelfiName":"-","THID":"-","LastOperationDate":"","SEV":"nein","longitude":"6,555258","latitude":"51,299344","geojson_lng":6.555258,"geojson_lat":51.299344},"geometry":{"type":"Point","coordinates":[6.555258,51.299344]}},{"type":"Feature","properties":{"SeqNo":"522785","Type":"A","DHID":"de:05114:21524:1","Parent":"de:05114:21524","Name":"B1","MunicipalityCode":"00000000","Municipality":"-","DistrictCode":"-","District":"-","Description":"","Authority":"VRR","DelfiName":"-","THID":"-","LastOperationDate":"","SEV":"nein","longitude":"6,554953","latitude":"51,296536","geojson_lng":6.554953,"geojson_lat":51.296536},"geometry":{"type":"Point","coordinates":[6.554953,51.296536]}},{"type":"Feature","properties":{"SeqNo":"522787","Type":"Q","DHID":"de:05114:21524:0:1","Parent":"de:05114:21524:1","Name":"Bus Hin","MunicipalityCode":"00000000","Municipality":"-","DistrictCode":"-","District":"-","Description":"","Authority":"VRR","DelfiName":"-","THID":"-","LastOperationDate":"","SEV":"nein","longitude":"6,554719","latitude":"51,296502","geojson_lng":6.554719,"geojson_lat":51.296502},"geometry":{"type":"Point","coordinates":[6.554719,51.296502]}},{"type":"Feature","properties":{"SeqNo":"523123","Type":"S","DHID":"de:05114:21736","Parent":"de:05114:21736","Name":"Krefeld Europark Nord","MunicipalityCode":"05114000","Municipality":"Krefeld","DistrictCode":"","District":"","Description":"","Authority":"VRR","DelfiName":"-","THID":"D913FA0054E8","LastOperationDate":"1999-12-31T00:00:00","SEV":"nein","longitude":"6,55842","latitude":"51,299451","geojson_lng":6.55842,"geojson_lat":51.299451},"geometry":{"type":"Point","coordinates":[6.55842,51.299451]}},{"type":"Feature","properties":{"SeqNo":"523124","Type":"Q","DHID":"de:05114:21736:0:1","Parent":"de:05114:21736","Name":"Wendeschleife","MunicipalityCode":"00000000","Municipality":"-","DistrictCode":"-","District":"-","Description":"","Authority":"VRR","DelfiName":"-","THID":"-","LastOperationDate":"","SEV":"nein","longitude":"6,558438","latitude":"51,299406","geojson_lng":6.558438,"geojson_lat":51.299406},"geometry":{"type":"Point","coordinates":[6.558438,51.299406]}}]}