{"type":"FeatureCollection","features":[{"type":"Feature","properties":{"SeqNo":"458254","Type":"S","DHID":"de:06532:19349","Parent":"de:06532:19349","Name":"Wetzlar-Hermannstein An der Dillbrücke","MunicipalityCode":"06532023","Municipality":"Wetzlar","DistrictCode":"-","District":"-","Description":"","Authority":"rms","DelfiName":"-","THID":"D91984004B95","LastOperationDate":"2025-06-14T00:00:00","SEV":"nein","longitude":"8,488352","latitude":"50,578702","geojson_lng":8.488352,"geojson_lat":50.578702},"geometry":{"type":"Point","coordinates":[8.488352,50.578702]}},{"type":"Feature","properties":{"SeqNo":"458255","Type":"A","DHID":"de:06532:19349:1","Parent":"de:06532:19349","Name":"Hermannstein An der Dillbrücke | NAßlar","MunicipalityCode":"00000000","Municipality":"-","DistrictCode":"-","District":"-","Description":"","Authority":"rms","DelfiName":"-","THID":"-","LastOperationDate":"","SEV":"nein","longitude":"8,488435","latitude":"50,578864","geojson_lng":8.488435,"geojson_lat":50.578864},"geometry":{"type":"Point","coordinates":[8.488435,50.578864]}},{"type":"Feature","properties":{"SeqNo":"458256","Type":"A","DHID":"de:06532:19349:2","Parent":"de:06532:19349","Name":"Hermannstein An der Dillbrücke | NWetzlar","MunicipalityCode":"00000000","Municipality":"-","DistrictCode":"-","District":"-","Description":"","Authority":"rms","DelfiName":"-","THID":"-","LastOperationDate":"","SEV":"nein","longitude":"8,48834","latitude":"50,578522","geojson_lng":8.48834,"geojson_lat":50.578522},"geometry":{"type":"Point","coordinates":[8.48834,50.578522]}},{"type":"Feature","properties":{"SeqNo":"458257","Type":"Q","DHID":"de:06532:19349:1:1","Parent":"de:06532:19349:1","Name":"NAßlar","MunicipalityCode":"00000000","Municipality":"-","DistrictCode":"-","District":"-","Description":"","Authority":"rms","DelfiName":"-","THID":"-","LastOperationDate":"","SEV":"nein","longitude":"8,488435","latitude":"50,578864","geojson_lng":8.488435,"geojson_lat":50.578864},"geometry":{"type":"Point","coordinates":[8.488435,50.578864]}},{"type":"Feature","properties":{"SeqNo":"458258","Type":"Q","DHID":"de:06532:19349:2:2","Parent":"de:06532:19349:2","Name":"NWetzlar","MunicipalityCode":"00000000","Municipality":"-","DistrictCode":"-","District":"-","Description":"","Authority":"rms","DelfiName":"-","THID":"-","LastOperationDate":"","SEV":"nein","longitude":"8,48834","latitude":"50,578522","geojson_lng":8.48834,"geojson_lat":50.578522},"geometry":{"type":"Point","coordinates":[8.48834,50.578522]}},{"type":"Feature","properties":{"SeqNo":"460017","Type":"S","DHID":"de:06532:21662","Parent":"de:06532:21662","Name":"Wetzlar-Hermannstein Philippstraße","MunicipalityCode":"06532023","Municipality":"Wetzlar","DistrictCode":"-","District":"-","Description":"","Authority":"rms","DelfiName":"-","THID":"D9198400549E","LastOperationDate":"2025-06-13T00:00:00","SEV":"nein","longitude":"8,485101","latitude":"50,582949","geojson_lng":8.485101,"geojson_lat":50.582949},"geometry":{"type":"Point","coordinates":[8.485101,50.582949]}},{"type":"Feature","properties":{"SeqNo":"460018","Type":"A","DHID":"de:06532:21662:1","Parent":"de:06532:21662","Name":"Hermannstein Philippstraße | NWetzlar","MunicipalityCode":"00000000","Municipality":"-","DistrictCode":"-","District":"-","Description":"","Authority":"rms","DelfiName":"-","THID":"-","LastOperationDate":"","SEV":"nein","longitude":"8,485059","latitude":"50,582903","geojson_lng":8.485059,"geojson_lat":50.582903},"geometry":{"type":"Point","coordinates":[8.485059,50.582903]}},{"type":"Feature","properties":{"SeqNo":"460019","Type":"Q","DHID":"de:06532:21662:1:1","Parent":"de:06532:21662:1","Name":"NWetzlar","MunicipalityCode":"00000000","Municipality":"-","DistrictCode":"-","District":"-","Description":"","Authority":"rms","DelfiName":"-","THID":"-","LastOperationDate":"","SEV":"nein","longitude":"8,485059","latitude":"50,582903","geojson_lng":8.485059,"geojson_lat":50.582903},"geometry":{"type":"Point","coordinates":[8.485059,50.582903]}},{"type":"Feature","properties":{"SeqNo":"461125","Type":"S","DHID":"de:06532:22529","Parent":"de:06532:22529","Name":"Wetzlar-Hermannstein Kirche","MunicipalityCode":"06532023","Municipality":"Wetzlar","DistrictCode":"-","District":"-","Description":"","Authority":"rms","DelfiName":"-","THID":"D91984005801","LastOperationDate":"2025-06-14T00:00:00","SEV":"nein","longitude":"8,491065","latitude":"50,579774","geojson_lng":8.491065,"geojson_lat":50.579774},"geometry":{"type":"Point","coordinates":[8.491065,50.579774]}},{"type":"Feature","properties":{"SeqNo":"461126","Type":"A","DHID":"de:06532:22529:1","Parent":"de:06532:22529","Name":"Hermannstein Kirche | NBlasbach","MunicipalityCode":"00000000","Municipality":"-","DistrictCode":"-","District":"-","Description":"","Authority":"rms","DelfiName":"-","THID":"-","LastOperationDate":"","SEV":"nein","longitude":"8,491193","latitude":"50,579757","geojson_lng":8.491193,"geojson_lat":50.579757},"geometry":{"type":"Point","coordinates":[8.491193,50.579757]}},{"type":"Feature","properties":{"SeqNo":"461127","Type":"Q","DHID":"de:06532:22529:1:1","Parent":"de:06532:22529:1","Name":"NBlasbach","MunicipalityCode":"00000000","Municipality":"-","DistrictCode":"-","District":"-","Description":"","Authority":"rms","DelfiName":"-","THID":"-","LastOperationDate":"","SEV":"nein","longitude":"8,491193","latitude":"50,579757","geojson_lng":8.491193,"geojson_lat":50.579757},"geometry":{"type":"Point","coordinates":[8.491193,50.579757]}},{"type":"Feature","properties":{"SeqNo":"461158","Type":"S","DHID":"de:06532:22539","Parent":"de:06532:22539","Name":"Wetzlar-Hermannstein Gartenstraße","MunicipalityCode":"06532023","Municipality":"Wetzlar","DistrictCode":"-","District":"-","Description":"","Authority":"rms","DelfiName":"-","THID":"D9198400580B","LastOperationDate":"2025-06-14T00:00:00","SEV":"nein","longitude":"8,491916","latitude":"50,58074","geojson_lng":8.491916,"geojson_lat":50.58074},"geometry":{"type":"Point","coordinates":[8.491916,50.58074]}},{"type":"Feature","properties":{"SeqNo":"461159","Type":"A","DHID":"de:06532:22539:1","Parent":"de:06532:22539","Name":"Hermannstein Gartenstraße | NWetzlar","MunicipalityCode":"00000000","Municipality":"-","DistrictCode":"-","District":"-","Description":"","Authority":"rms","DelfiName":"-","THID":"-","LastOperationDate":"","SEV":"nein","longitude":"8,491761","latitude":"50,580775","geojson_lng":8.491761,"geojson_lat":50.580775},"geometry":{"type":"Point","coordinates":[8.491761,50.580775]}},{"type":"Feature","properties":{"SeqNo":"461160","Type":"Q","DHID":"de:06532:22539:1:1","Parent":"de:06532:22539:1","Name":"NWetzlar","MunicipalityCode":"00000000","Municipality":"-","DistrictCode":"-","District":"-","Description":"","Authority":"rms","DelfiName":"-","THID":"-","LastOperationDate":"","SEV":"nein","longitude":"8,491761","latitude":"50,580775","geojson_lng":8.491761,"geojson_lat":50.580775},"geometry":{"type":"Point","coordinates":[8.491761,50.580775]}},{"type":"Feature","properties":{"SeqNo":"461161","Type":"S","DHID":"de:06532:22540","Parent":"de:06532:22540","Name":"Wetzlar-Hermannstein Dillstraße","MunicipalityCode":"06532023","Municipality":"Wetzlar","DistrictCode":"-","District":"-","Description":"","Authority":"rms","DelfiName":"-","THID":"D9198400580C","LastOperationDate":"2025-06-14T00:00:00","SEV":"nein","longitude":"8,490535","latitude":"50,579179","geojson_lng":8.490535,"geojson_lat":50.579179},"geometry":{"type":"Point","coordinates":[8.490535,50.579179]}},{"type":"Feature","properties":{"SeqNo":"461162","Type":"A","DHID":"de:06532:22540:1","Parent":"de:06532:22540","Name":"Hermannstein Dillstraße | NWetzlar","MunicipalityCode":"00000000","Municipality":"-","DistrictCode":"-","District":"-","Description":"","Authority":"rms","DelfiName":"-","THID":"-","LastOperationDate":"","SEV":"nein","longitude":"8,49045","latitude":"50,579196","geojson_lng":8.49045,"geojson_lat":50.579196},"geometry":{"type":"Point","coordinates":[8.49045,50.579196]}},{"type":"Feature","properties":{"SeqNo":"461163","Type":"Q","DHID":"de:06532:22540:1:1","Parent":"de:06532:22540:1","Name":"NWetzlar","MunicipalityCode":"00000000","Municipality":"-","DistrictCode":"-","District":"-","Description":"","Authority":"rms","DelfiName":"-","THID":"-","LastOperationDate":"","SEV":"nein","longitude":"8,49045","latitude":"50,579196","geojson_lng":8.49045,"geojson_lat":50.579196},"geometry":{"type":"Point","coordinates":[8.49045,50.579196]}}]}