{"type":"FeatureCollection","features":[{"type":"Feature","properties":{"highway":"bus_stop","public_transport":"platform","name":"Raaigras","ref:IFOPT":"NL:Q:53511570","_quaycode":"NL:Q:53511570","_town":"Gouda","_status":"available","_mode":"bus","_direction":134,"_visuallyAccessible":true,"_disabledAccessible":true,"geojson_lng":4.712170027646292,"geojson_lat":52.03134252810568},"geometry":{"type":"Point","coordinates":[4.712170027646292,52.03134252810568]}},{"type":"Feature","properties":{"highway":"bus_stop","public_transport":"platform","name":"Winkelcentrum Bloemendaal","ref:IFOPT":"NL:Q:53512010","_quaycode":"NL:Q:53512010","_town":"Gouda","_status":"available","_mode":"bus","_direction":273,"_visuallyAccessible":false,"_disabledAccessible":false,"geojson_lng":4.703786953321212,"geojson_lat":52.03063802156754},"geometry":{"type":"Point","coordinates":[4.703786953321212,52.03063802156754]}},{"type":"Feature","properties":{"highway":"bus_stop","public_transport":"platform","name":"Blommesteinsingel","ref:IFOPT":"NL:Q:53514170","_quaycode":"NL:Q:53514170","_town":"Gouda","_status":"available","_mode":"bus","_direction":167,"_visuallyAccessible":false,"_disabledAccessible":true,"geojson_lng":4.712998503245944,"geojson_lat":52.02954959896471},"geometry":{"type":"Point","coordinates":[4.712998503245944,52.02954959896471]}},{"type":"Feature","properties":{"highway":"bus_stop","public_transport":"platform","name":"Blommesteinsingel","ref:IFOPT":"NL:Q:53514180","_quaycode":"NL:Q:53514180","_town":"Gouda","_status":"available","_mode":"bus","_direction":352,"_visuallyAccessible":false,"_disabledAccessible":true,"geojson_lng":4.713110201073004,"geojson_lat":52.02987382006785},"geometry":{"type":"Point","coordinates":[4.713110201073004,52.02987382006785]}},{"type":"Feature","properties":{"highway":"bus_stop","public_transport":"platform","name":"Raaigras","ref:IFOPT":"NL:Q:53511580","_quaycode":"NL:Q:53511580","_town":"Gouda","_status":"available","_mode":"bus","_direction":313,"_visuallyAccessible":true,"_disabledAccessible":true,"geojson_lng":4.712196732772922,"geojson_lat":52.0315044719694},"geometry":{"type":"Point","coordinates":[4.712196732772922,52.0315044719694]}},{"type":"Feature","properties":{"highway":"bus_stop","public_transport":"platform","name":"Prinsenhof","ref:IFOPT":"NL:Q:53511550","_quaycode":"NL:Q:53511550","_town":"Gouda","_status":"available","_mode":"bus","_direction":330,"_visuallyAccessible":false,"_disabledAccessible":true,"geojson_lng":4.706424354775143,"geojson_lat":52.026815258555935},"geometry":{"type":"Point","coordinates":[4.706424354775143,52.026815258555935]}},{"type":"Feature","properties":{"highway":"bus_stop","public_transport":"platform","name":"Prinsenhof","ref:IFOPT":"NL:Q:53511560","_quaycode":"NL:Q:53511560","_town":"Gouda","_status":"available","_mode":"bus","_direction":156,"_visuallyAccessible":false,"_disabledAccessible":true,"geojson_lng":4.706680915389762,"geojson_lat":52.02623249643805},"geometry":{"type":"Point","coordinates":[4.706680915389762,52.02623249643805]}},{"type":"Feature","properties":{"highway":"bus_stop","public_transport":"platform","name":"Winkelcentrum Bloemendaal","ref:IFOPT":"NL:Q:53512020","_quaycode":"NL:Q:53512020","_town":"Gouda","_status":"available","_mode":"bus","_direction":94,"_visuallyAccessible":false,"_disabledAccessible":false,"geojson_lng":4.703146992645132,"geojson_lat":52.030553410284426},"geometry":{"type":"Point","coordinates":[4.703146992645132,52.030553410284426]}}]}