{"type":"FeatureCollection","features":[{"type":"Feature","properties":{"SeqNo":"476042","Type":"S","DHID":"de:13004:2010","Parent":"de:13004:2010","Name":"Schwerin Lankow-Siedlung","MunicipalityCode":"13004000","Municipality":"Schwerin","DistrictCode":"","District":"","Description":"","Authority":"VMV","DelfiName":"-","THID":"D932CC0007DA","LastOperationDate":"2025-06-14T00:00:00","SEV":"nein","longitude":"11,362242","latitude":"53,648072","geojson_lng":11.362242,"geojson_lat":53.648072},"geometry":{"type":"Point","coordinates":[11.362242,53.648072]}},{"type":"Feature","properties":{"SeqNo":"476043","Type":"A","DHID":"de:13004:2010:1","Parent":"de:13004:2010","Name":"Bus","MunicipalityCode":"00000000","Municipality":"-","DistrictCode":"-","District":"-","Description":"","Authority":"VMV","DelfiName":"-","THID":"-","LastOperationDate":"","SEV":"nein","longitude":"11,362125","latitude":"53,647534","geojson_lng":11.362125,"geojson_lat":53.647534},"geometry":{"type":"Point","coordinates":[11.362125,53.647534]}},{"type":"Feature","properties":{"SeqNo":"476044","Type":"A","DHID":"de:13004:2010:2","Parent":"de:13004:2010","Name":"Tram","MunicipalityCode":"00000000","Municipality":"-","DistrictCode":"-","District":"-","Description":"","Authority":"VMV","DelfiName":"-","THID":"-","LastOperationDate":"","SEV":"nein","longitude":"11,362494","latitude":"53,649099","geojson_lng":11.362494,"geojson_lat":53.649099},"geometry":{"type":"Point","coordinates":[11.362494,53.649099]}},{"type":"Feature","properties":{"SeqNo":"476045","Type":"Q","DHID":"de:13004:2010:1:1","Parent":"de:13004:2010:1","Name":"Li.14","MunicipalityCode":"00000000","Municipality":"-","DistrictCode":"-","District":"-","Description":"","Authority":"VMV","DelfiName":"-","THID":"-","LastOperationDate":"","SEV":"nein","longitude":"11,362287","latitude":"53,647459","geojson_lng":11.362287,"geojson_lat":53.647459},"geometry":{"type":"Point","coordinates":[11.362287,53.647459]}},{"type":"Feature","properties":{"SeqNo":"476046","Type":"Q","DHID":"de:13004:2010:1:2","Parent":"de:13004:2010:1","Name":"Li.13","MunicipalityCode":"00000000","Municipality":"-","DistrictCode":"-","District":"-","Description":"","Authority":"VMV","DelfiName":"-","THID":"-","LastOperationDate":"","SEV":"nein","longitude":"11,361928","latitude":"53,647422","geojson_lng":11.361928,"geojson_lat":53.647422},"geometry":{"type":"Point","coordinates":[11.361928,53.647422]}},{"type":"Feature","properties":{"SeqNo":"476047","Type":"Q","DHID":"de:13004:2010:1:3","Parent":"de:13004:2010:1","Name":"landwärts","MunicipalityCode":"00000000","Municipality":"-","DistrictCode":"-","District":"-","Description":"","Authority":"VMV","DelfiName":"-","THID":"-","LastOperationDate":"","SEV":"nein","longitude":"11,36155","latitude":"53,647315","geojson_lng":11.36155,"geojson_lat":53.647315},"geometry":{"type":"Point","coordinates":[11.36155,53.647315]}},{"type":"Feature","properties":{"SeqNo":"476048","Type":"Q","DHID":"de:13004:2010:1:4","Parent":"de:13004:2010:1","Name":"stadtwärts","MunicipalityCode":"00000000","Municipality":"-","DistrictCode":"-","District":"-","Description":"","Authority":"VMV","DelfiName":"-","THID":"-","LastOperationDate":"","SEV":"nein","longitude":"11,361532","latitude":"53,647246","geojson_lng":11.361532,"geojson_lat":53.647246},"geometry":{"type":"Point","coordinates":[11.361532,53.647246]}},{"type":"Feature","properties":{"SeqNo":"476049","Type":"Q","DHID":"de:13004:2010:2:5","Parent":"de:13004:2010:2","Name":"Ankunft Tram","MunicipalityCode":"00000000","Municipality":"-","DistrictCode":"-","District":"-","Description":"","Authority":"VMV","DelfiName":"-","THID":"-","LastOperationDate":"","SEV":"nein","longitude":"11,362359","latitude":"53,648679","geojson_lng":11.362359,"geojson_lat":53.648679},"geometry":{"type":"Point","coordinates":[11.362359,53.648679]}},{"type":"Feature","properties":{"SeqNo":"476050","Type":"Q","DHID":"de:13004:2010:2:6","Parent":"de:13004:2010:2","Name":"Abfahrt Tram","MunicipalityCode":"00000000","Municipality":"-","DistrictCode":"-","District":"-","Description":"","Authority":"VMV","DelfiName":"-","THID":"-","LastOperationDate":"","SEV":"nein","longitude":"11,362763","latitude":"53,648987","geojson_lng":11.362763,"geojson_lat":53.648987},"geometry":{"type":"Point","coordinates":[11.362763,53.648987]}},{"type":"Feature","properties":{"SeqNo":"476051","Type":"S","DHID":"de:13004:2011","Parent":"de:13004:2011","Name":"Schwerin Rahlstedter Straße","MunicipalityCode":"13004000","Municipality":"Schwerin","DistrictCode":"","District":"","Description":"","Authority":"VMV","DelfiName":"-","THID":"D932CC0007DB","LastOperationDate":"2025-06-14T00:00:00","SEV":"nein","longitude":"11,366608","latitude":"53,650718","geojson_lng":11.366608,"geojson_lat":53.650718},"geometry":{"type":"Point","coordinates":[11.366608,53.650718]}},{"type":"Feature","properties":{"SeqNo":"476052","Type":"A","DHID":"de:13004:2011:1","Parent":"de:13004:2011","Name":"Straßenbahn","MunicipalityCode":"00000000","Municipality":"-","DistrictCode":"-","District":"-","Description":"","Authority":"VMV","DelfiName":"-","THID":"-","LastOperationDate":"","SEV":"nein","longitude":"11,366698","latitude":"53,650665","geojson_lng":11.366698,"geojson_lat":53.650665},"geometry":{"type":"Point","coordinates":[11.366698,53.650665]}},{"type":"Feature","properties":{"SeqNo":"476053","Type":"Q","DHID":"de:13004:2011:1:1","Parent":"de:13004:2011:1","Name":"landwärts","MunicipalityCode":"00000000","Municipality":"-","DistrictCode":"-","District":"-","Description":"","Authority":"VMV","DelfiName":"-","THID":"-","LastOperationDate":"","SEV":"nein","longitude":"11,366743","latitude":"53,650718","geojson_lng":11.366743,"geojson_lat":53.650718},"geometry":{"type":"Point","coordinates":[11.366743,53.650718]}},{"type":"Feature","properties":{"SeqNo":"476054","Type":"Q","DHID":"de:13004:2011:1:2","Parent":"de:13004:2011:1","Name":"stadtwärts","MunicipalityCode":"00000000","Municipality":"-","DistrictCode":"-","District":"-","Description":"","Authority":"VMV","DelfiName":"-","THID":"-","LastOperationDate":"","SEV":"nein","longitude":"11,366527","latitude":"53,650697","geojson_lng":11.366527,"geojson_lat":53.650697},"geometry":{"type":"Point","coordinates":[11.366527,53.650697]}},{"type":"Feature","properties":{"SeqNo":"476662","Type":"S","DHID":"de:13004:2164","Parent":"de:13004:2164","Name":"Schwerin Rahlst/Kieler Str","MunicipalityCode":"13004000","Municipality":"Schwerin","DistrictCode":"","District":"","Description":"","Authority":"VMV","DelfiName":"-","THID":"D932CC000874","LastOperationDate":"2025-06-14T00:00:00","SEV":"nein","longitude":"11,366177","latitude":"53,648316","geojson_lng":11.366177,"geojson_lat":53.648316},"geometry":{"type":"Point","coordinates":[11.366177,53.648316]}},{"type":"Feature","properties":{"SeqNo":"476663","Type":"A","DHID":"de:13004:2164:1","Parent":"de:13004:2164","Name":"Bus","MunicipalityCode":"00000000","Municipality":"-","DistrictCode":"-","District":"-","Description":"","Authority":"VMV","DelfiName":"-","THID":"-","LastOperationDate":"","SEV":"nein","longitude":"11,366267","latitude":"53,648263","geojson_lng":11.366267,"geojson_lat":53.648263},"geometry":{"type":"Point","coordinates":[11.366267,53.648263]}},{"type":"Feature","properties":{"SeqNo":"476664","Type":"Q","DHID":"de:13004:2164:1:1","Parent":"de:13004:2164:1","Name":"stadtwärts","MunicipalityCode":"00000000","Municipality":"-","DistrictCode":"-","District":"-","Description":"","Authority":"VMV","DelfiName":"-","THID":"-","LastOperationDate":"","SEV":"nein","longitude":"11,366536","latitude":"53,648247","geojson_lng":11.366536,"geojson_lat":53.648247},"geometry":{"type":"Point","coordinates":[11.366536,53.648247]}},{"type":"Feature","properties":{"SeqNo":"476665","Type":"S","DHID":"de:13004:2165","Parent":"de:13004:2165","Name":"Schwerin Eutiner/Kieler Straße","MunicipalityCode":"13004000","Municipality":"Schwerin","DistrictCode":"","District":"","Description":"","Authority":"VMV","DelfiName":"-","THID":"D932CC000875","LastOperationDate":"2025-06-14T00:00:00","SEV":"nein","longitude":"11,370578","latitude":"53,64805","geojson_lng":11.370578,"geojson_lat":53.64805},"geometry":{"type":"Point","coordinates":[11.370578,53.64805]}},{"type":"Feature","properties":{"SeqNo":"476666","Type":"A","DHID":"de:13004:2165:1","Parent":"de:13004:2165","Name":"Bus","MunicipalityCode":"00000000","Municipality":"-","DistrictCode":"-","District":"-","Description":"","Authority":"VMV","DelfiName":"-","THID":"-","LastOperationDate":"","SEV":"nein","longitude":"11,370668","latitude":"53,647997","geojson_lng":11.370668,"geojson_lat":53.647997},"geometry":{"type":"Point","coordinates":[11.370668,53.647997]}},{"type":"Feature","properties":{"SeqNo":"476667","Type":"Q","DHID":"de:13004:2165:1:1","Parent":"de:13004:2165:1","Name":"stadtwärts","MunicipalityCode":"00000000","Municipality":"-","DistrictCode":"-","District":"-","Description":"","Authority":"VMV","DelfiName":"-","THID":"-","LastOperationDate":"","SEV":"nein","longitude":"11,370273","latitude":"53,647992","geojson_lng":11.370273,"geojson_lat":53.647992},"geometry":{"type":"Point","coordinates":[11.370273,53.647992]}},{"type":"Feature","properties":{"SeqNo":"476685","Type":"S","DHID":"de:13004:2173","Parent":"de:13004:2173","Name":"SN Rahlstedter/Gadebuscher","MunicipalityCode":"13004000","Municipality":"Schwerin","DistrictCode":"","District":"","Description":"","Authority":"VMV","DelfiName":"-","THID":"D932CC00087D","LastOperationDate":"2025-06-14T00:00:00","SEV":"nein","longitude":"11,365961","latitude":"53,646975","geojson_lng":11.365961,"geojson_lat":53.646975},"geometry":{"type":"Point","coordinates":[11.365961,53.646975]}},{"type":"Feature","properties":{"SeqNo":"476686","Type":"A","DHID":"de:13004:2173:1","Parent":"de:13004:2173","Name":"Bus","MunicipalityCode":"00000000","Municipality":"-","DistrictCode":"-","District":"-","Description":"","Authority":"VMV","DelfiName":"-","THID":"-","LastOperationDate":"","SEV":"nein","longitude":"11,366051","latitude":"53,646921","geojson_lng":11.366051,"geojson_lat":53.646921},"geometry":{"type":"Point","coordinates":[11.366051,53.646921]}},{"type":"Feature","properties":{"SeqNo":"476687","Type":"Q","DHID":"de:13004:2173:1:1","Parent":"de:13004:2173:1","Name":"4000201","MunicipalityCode":"00000000","Municipality":"-","DistrictCode":"-","District":"-","Description":"","Authority":"VMV","DelfiName":"-","THID":"-","LastOperationDate":"","SEV":"nein","longitude":"11,365907","latitude":"53,647017","geojson_lng":11.365907,"geojson_lat":53.647017},"geometry":{"type":"Point","coordinates":[11.365907,53.647017]}},{"type":"Feature","properties":{"SeqNo":"476688","Type":"Q","DHID":"de:13004:2173:1:2","Parent":"de:13004:2173:1","Name":"4000206","MunicipalityCode":"00000000","Municipality":"-","DistrictCode":"-","District":"-","Description":"","Authority":"VMV","DelfiName":"-","THID":"-","LastOperationDate":"","SEV":"nein","longitude":"11,366006","latitude":"53,646927","geojson_lng":11.366006,"geojson_lat":53.646927},"geometry":{"type":"Point","coordinates":[11.366006,53.646927]}}]}