{"type":"FeatureCollection","features":[{"type":"Feature","properties":{"SeqNo":"115779","Type":"S","DHID":"de:09174:6880","Parent":"de:09174:6880","Name":"Schwabhausen","MunicipalityCode":"09174143","Municipality":"Schwabhausen","DistrictCode":"","District":"","Description":"","Authority":"BEG","DelfiName":"-","THID":"D923D6001AE0","LastOperationDate":"2025-06-14T00:00:00","SEV":"nein","longitude":"11,364587","latitude":"48,301326","geojson_lng":11.364587,"geojson_lat":48.301326},"geometry":{"type":"Point","coordinates":[11.364587,48.301326]}},{"type":"Feature","properties":{"SeqNo":"115780","Type":"A","DHID":"de:09174:6880:1","Parent":"de:09174:6880","Name":"Bus Ri West","MunicipalityCode":"00000000","Municipality":"-","DistrictCode":"-","District":"-","Description":"","Authority":"BEG","DelfiName":"-","THID":"-","LastOperationDate":"","SEV":"nein","longitude":"11,364434","latitude":"48,301446","geojson_lng":11.364434,"geojson_lat":48.301446},"geometry":{"type":"Point","coordinates":[11.364434,48.301446]}},{"type":"Feature","properties":{"SeqNo":"115781","Type":"A","DHID":"de:09174:6880:2","Parent":"de:09174:6880","Name":"Bus Ri Ost","MunicipalityCode":"00000000","Municipality":"-","DistrictCode":"-","District":"-","Description":"","Authority":"BEG","DelfiName":"-","THID":"-","LastOperationDate":"","SEV":"nein","longitude":"11,364712","latitude":"48,301261","geojson_lng":11.364712,"geojson_lat":48.301261},"geometry":{"type":"Point","coordinates":[11.364712,48.301261]}},{"type":"Feature","properties":{"SeqNo":"115782","Type":"A","DHID":"de:09174:6880:21","Parent":"de:09174:6880","Name":"S-Bahn Ri Dachau","MunicipalityCode":"00000000","Municipality":"-","DistrictCode":"-","District":"-","Description":"","Authority":"BEG","DelfiName":"-","THID":"-","LastOperationDate":"","SEV":"nein","longitude":"11,364659","latitude":"48,300484","geojson_lng":11.364659,"geojson_lat":48.300484},"geometry":{"type":"Point","coordinates":[11.364659,48.300484]}},{"type":"Feature","properties":{"SeqNo":"115783","Type":"A","DHID":"de:09174:6880:22","Parent":"de:09174:6880","Name":"S-Bahn RiAltomüns","MunicipalityCode":"00000000","Municipality":"-","DistrictCode":"-","District":"-","Description":"","Authority":"BEG","DelfiName":"-","THID":"-","LastOperationDate":"","SEV":"nein","longitude":"11,364865","latitude":"48,300621","geojson_lng":11.364865,"geojson_lat":48.300621},"geometry":{"type":"Point","coordinates":[11.364865,48.300621]}},{"type":"Feature","properties":{"SeqNo":"115784","Type":"A","DHID":"de:09174:6880:60","Parent":"de:09174:6880","Name":"SEV","MunicipalityCode":"00000000","Municipality":"-","DistrictCode":"-","District":"-","Description":"","Authority":"BEG","DelfiName":"-","THID":"-","LastOperationDate":"","SEV":"nein","longitude":"11,364901","latitude":"48,301278","geojson_lng":11.364901,"geojson_lat":48.301278},"geometry":{"type":"Point","coordinates":[11.364901,48.301278]}},{"type":"Feature","properties":{"SeqNo":"115785","Type":"A","DHID":"de:09174:6880:80","Parent":"de:09174:6880","Name":"B+R Ost","MunicipalityCode":"00000000","Municipality":"-","DistrictCode":"-","District":"-","Description":"","Authority":"BEG","DelfiName":"-","THID":"-","LastOperationDate":"","SEV":"nein","longitude":"11,365","latitude":"48,300645","geojson_lng":11.365,"geojson_lat":48.300645},"geometry":{"type":"Point","coordinates":[11.365,48.300645]}},{"type":"Feature","properties":{"SeqNo":"115786","Type":"A","DHID":"de:09174:6880:81","Parent":"de:09174:6880","Name":"B+R Süd","MunicipalityCode":"00000000","Municipality":"-","DistrictCode":"-","District":"-","Description":"","Authority":"BEG","DelfiName":"-","THID":"-","LastOperationDate":"","SEV":"nein","longitude":"11,363922","latitude":"48,299653","geojson_lng":11.363922,"geojson_lat":48.299653},"geometry":{"type":"Point","coordinates":[11.363922,48.299653]}},{"type":"Feature","properties":{"SeqNo":"115787","Type":"A","DHID":"de:09174:6880:82","Parent":"de:09174:6880","Name":"B+R West","MunicipalityCode":"00000000","Municipality":"-","DistrictCode":"-","District":"-","Description":"","Authority":"BEG","DelfiName":"-","THID":"-","LastOperationDate":"","SEV":"nein","longitude":"11,364784","latitude":"48,300854","geojson_lng":11.364784,"geojson_lat":48.300854},"geometry":{"type":"Point","coordinates":[11.364784,48.300854]}},{"type":"Feature","properties":{"SeqNo":"115788","Type":"A","DHID":"de:09174:6880:83","Parent":"de:09174:6880","Name":"Zu Ost Altomünste","MunicipalityCode":"00000000","Municipality":"-","DistrictCode":"-","District":"-","Description":"","Authority":"BEG","DelfiName":"-","THID":"-","LastOperationDate":"","SEV":"nein","longitude":"11,364991","latitude":"48,300741","geojson_lng":11.364991,"geojson_lat":48.300741},"geometry":{"type":"Point","coordinates":[11.364991,48.300741]}},{"type":"Feature","properties":{"SeqNo":"115789","Type":"A","DHID":"de:09174:6880:84","Parent":"de:09174:6880","Name":"Zugang Dachau Süd","MunicipalityCode":"00000000","Municipality":"-","DistrictCode":"-","District":"-","Description":"","Authority":"BEG","DelfiName":"-","THID":"-","LastOperationDate":"","SEV":"nein","longitude":"11,363913","latitude":"48,299617","geojson_lng":11.363913,"geojson_lat":48.299617},"geometry":{"type":"Point","coordinates":[11.363913,48.299617]}},{"type":"Feature","properties":{"SeqNo":"115790","Type":"A","DHID":"de:09174:6880:85","Parent":"de:09174:6880","Name":"Zugang Dachau Wes","MunicipalityCode":"00000000","Municipality":"-","DistrictCode":"-","District":"-","Description":"","Authority":"BEG","DelfiName":"-","THID":"-","LastOperationDate":"","SEV":"nein","longitude":"11,36465","latitude":"48,300663","geojson_lng":11.36465,"geojson_lat":48.300663},"geometry":{"type":"Point","coordinates":[11.36465,48.300663]}},{"type":"Feature","properties":{"SeqNo":"115791","Type":"A","DHID":"de:09174:6880:90","Parent":"de:09174:6880","Name":"P+R Ost","MunicipalityCode":"00000000","Municipality":"-","DistrictCode":"-","District":"-","Description":"","Authority":"BEG","DelfiName":"-","THID":"-","LastOperationDate":"","SEV":"nein","longitude":"11,365296","latitude":"48,301087","geojson_lng":11.365296,"geojson_lat":48.301087},"geometry":{"type":"Point","coordinates":[11.365296,48.301087]}},{"type":"Feature","properties":{"SeqNo":"115792","Type":"A","DHID":"de:09174:6880:91","Parent":"de:09174:6880","Name":"P+R West","MunicipalityCode":"00000000","Municipality":"-","DistrictCode":"-","District":"-","Description":"","Authority":"BEG","DelfiName":"-","THID":"-","LastOperationDate":"","SEV":"nein","longitude":"11,364757","latitude":"48,300914","geojson_lng":11.364757,"geojson_lat":48.300914},"geometry":{"type":"Point","coordinates":[11.364757,48.300914]}},{"type":"Feature","properties":{"SeqNo":"115793","Type":"Q","DHID":"de:09174:6880:2:1","Parent":"de:09174:6880:1","Name":"Ri. West / Münchner Str. / SEV-DAH","MunicipalityCode":"00000000","Municipality":"-","DistrictCode":"-","District":"-","Description":"","Authority":"BEG","DelfiName":"-","THID":"-","LastOperationDate":"","SEV":"nein","longitude":"11,364443","latitude":"48,301446","geojson_lng":11.364443,"geojson_lat":48.301446},"geometry":{"type":"Point","coordinates":[11.364443,48.301446]}},{"type":"Feature","properties":{"SeqNo":"115794","Type":"Q","DHID":"de:09174:6880:60:61","Parent":"de:09174:6880:1","Name":"Deakt. SEV Ri DAH","MunicipalityCode":"00000000","Municipality":"-","DistrictCode":"-","District":"-","Description":"","Authority":"BEG","DelfiName":"-","THID":"-","LastOperationDate":"","SEV":"nein","longitude":"11,364928","latitude":"48,301314","geojson_lng":11.364928,"geojson_lat":48.301314},"geometry":{"type":"Point","coordinates":[11.364928,48.301314]}},{"type":"Feature","properties":{"SeqNo":"115795","Type":"Q","DHID":"de:09174:6880:2:2","Parent":"de:09174:6880:2","Name":"Ri. Ost / StettenDachauerStr. / SEV-Alto","MunicipalityCode":"00000000","Municipality":"-","DistrictCode":"-","District":"-","Description":"","Authority":"BEG","DelfiName":"-","THID":"-","LastOperationDate":"","SEV":"nein","longitude":"11,364712","latitude":"48,301261","geojson_lng":11.364712,"geojson_lat":48.301261},"geometry":{"type":"Point","coordinates":[11.364712,48.301261]}},{"type":"Feature","properties":{"SeqNo":"115796","Type":"Q","DHID":"de:09174:6880:60:62","Parent":"de:09174:6880:2","Name":"Deakt. SEV Ri Altomünster","MunicipalityCode":"00000000","Municipality":"-","DistrictCode":"-","District":"-","Description":"","Authority":"BEG","DelfiName":"-","THID":"-","LastOperationDate":"","SEV":"nein","longitude":"11,364883","latitude":"48,301249","geojson_lng":11.364883,"geojson_lat":48.301249},"geometry":{"type":"Point","coordinates":[11.364883,48.301249]}},{"type":"Feature","properties":{"SeqNo":"115797","Type":"Q","DHID":"de:09174:6880:21:21","Parent":"de:09174:6880:21","Name":"Gleis 2","MunicipalityCode":"00000000","Municipality":"-","DistrictCode":"-","District":"-","Description":"","Authority":"BEG","DelfiName":"-","THID":"-","LastOperationDate":"","SEV":"nein","longitude":"11,364685","latitude":"48,300478","geojson_lng":11.364685,"geojson_lat":48.300478},"geometry":{"type":"Point","coordinates":[11.364685,48.300478]}},{"type":"Feature","properties":{"SeqNo":"115798","Type":"Q","DHID":"de:09174:6880:22:22","Parent":"de:09174:6880:22","Name":"Gleis 1","MunicipalityCode":"00000000","Municipality":"-","DistrictCode":"-","District":"-","Description":"","Authority":"BEG","DelfiName":"-","THID":"-","LastOperationDate":"","SEV":"nein","longitude":"11,364838","latitude":"48,300627","geojson_lng":11.364838,"geojson_lat":48.300627},"geometry":{"type":"Point","coordinates":[11.364838,48.300627]}},{"type":"Feature","properties":{"SeqNo":"117284","Type":"S","DHID":"de:09174:9202","Parent":"de:09174:9202","Name":"Schwabhausen, Gewerbegebiet","MunicipalityCode":"09174143","Municipality":"Schwabhausen","DistrictCode":"","District":"","Description":"","Authority":"BEG","DelfiName":"-","THID":"D923D60023F2","LastOperationDate":"1999-12-31T00:00:00","SEV":"nein","longitude":"11,368216","latitude":"48,300532","geojson_lng":11.368216,"geojson_lat":48.300532},"geometry":{"type":"Point","coordinates":[11.368216,48.300532]}},{"type":"Feature","properties":{"SeqNo":"117285","Type":"Q","DHID":"de:09174:9202:0:1","Parent":"de:09174:9202","Name":"Ri. Arnbach","MunicipalityCode":"00000000","Municipality":"-","DistrictCode":"-","District":"-","Description":"","Authority":"BEG","DelfiName":"-","THID":"-","LastOperationDate":"","SEV":"nein","longitude":"11,368045","latitude":"48,300687","geojson_lng":11.368045,"geojson_lat":48.300687},"geometry":{"type":"Point","coordinates":[11.368045,48.300687]}}]}