{"type":"FeatureCollection","features":[{"type":"Feature","properties":{"SeqNo":"22238","Type":"S","DHID":"de:08125:2005","Parent":"de:08125:2005","Name":"Sülzbach Schule","MunicipalityCode":"08125110","Municipality":"Obersulm","DistrictCode":"","District":"","Description":"","Authority":"NVBW","DelfiName":"-","THID":"D91FBD0007D5","LastOperationDate":"2025-06-14T00:00:00","SEV":"nein","longitude":"9,35122","latitude":"49,144972","geojson_lng":9.35122,"geojson_lat":49.144972},"geometry":{"type":"Point","coordinates":[9.35122,49.144972]}},{"type":"Feature","properties":{"SeqNo":"22239","Type":"A","DHID":"de:08125:2005:1","Parent":"de:08125:2005","Name":"Bahnsteig Ri. TOE","MunicipalityCode":"00000000","Municipality":"-","DistrictCode":"-","District":"-","Description":"","Authority":"NVBW","DelfiName":"-","THID":"-","LastOperationDate":"","SEV":"nein","longitude":"9,3513","latitude":"49,145107","geojson_lng":9.3513,"geojson_lat":49.145107},"geometry":{"type":"Point","coordinates":[9.3513,49.145107]}},{"type":"Feature","properties":{"SeqNo":"22240","Type":"A","DHID":"de:08125:2005:2","Parent":"de:08125:2005","Name":"Bahnsteig Ri. TH","MunicipalityCode":"00000000","Municipality":"-","DistrictCode":"-","District":"-","Description":"","Authority":"NVBW","DelfiName":"-","THID":"-","LastOperationDate":"","SEV":"nein","longitude":"9,351327","latitude":"49,145107","geojson_lng":9.351327,"geojson_lat":49.145107},"geometry":{"type":"Point","coordinates":[9.351327,49.145107]}},{"type":"Feature","properties":{"SeqNo":"22241","Type":"A","DHID":"de:08125:2005:3","Parent":"de:08125:2005","Name":"Zugang Beheim-Str","MunicipalityCode":"00000000","Municipality":"-","DistrictCode":"-","District":"-","Description":"","Authority":"NVBW","DelfiName":"-","THID":"-","LastOperationDate":"","SEV":"nein","longitude":"9,350914","latitude":"49,144478","geojson_lng":9.350914,"geojson_lat":49.144478},"geometry":{"type":"Point","coordinates":[9.350914,49.144478]}},{"type":"Feature","properties":{"SeqNo":"22242","Type":"Q","DHID":"de:08125:2005:1:1","Parent":"de:08125:2005:1","Name":"Ri. TOE","MunicipalityCode":"00000000","Municipality":"-","DistrictCode":"-","District":"-","Description":"","Authority":"NVBW","DelfiName":"-","THID":"-","LastOperationDate":"","SEV":"nein","longitude":"9,351417","latitude":"49,145072","geojson_lng":9.351417,"geojson_lat":49.145072},"geometry":{"type":"Point","coordinates":[9.351417,49.145072]}},{"type":"Feature","properties":{"SeqNo":"22243","Type":"Q","DHID":"de:08125:2005:2:2","Parent":"de:08125:2005:2","Name":"Ri. TH","MunicipalityCode":"00000000","Municipality":"-","DistrictCode":"-","District":"-","Description":"","Authority":"NVBW","DelfiName":"-","THID":"-","LastOperationDate":"","SEV":"nein","longitude":"9,351633","latitude":"49,144995","geojson_lng":9.351633,"geojson_lat":49.144995},"geometry":{"type":"Point","coordinates":[9.351633,49.144995]}},{"type":"Feature","properties":{"SeqNo":"22244","Type":"S","DHID":"de:08125:2006","Parent":"de:08125:2006","Name":"Sülzbach M.-Beheim-Schule","MunicipalityCode":"08125110","Municipality":"Obersulm","DistrictCode":"","District":"","Description":"","Authority":"NVBW","DelfiName":"-","THID":"D91FBD0007D6","LastOperationDate":"2025-02-28T00:00:00","SEV":"nein","longitude":"9,351588","latitude":"49,143127","geojson_lng":9.351588,"geojson_lat":49.143127},"geometry":{"type":"Point","coordinates":[9.351588,49.143127]}},{"type":"Feature","properties":{"SeqNo":"22245","Type":"Q","DHID":"de:08125:2006:0:1","Parent":"de:08125:2006","Name":"1 Ri. NordWest (Ri. Sülzbach)","MunicipalityCode":"00000000","Municipality":"-","DistrictCode":"-","District":"-","Description":"","Authority":"NVBW","DelfiName":"-","THID":"-","LastOperationDate":"","SEV":"nein","longitude":"9,351866","latitude":"49,143268","geojson_lng":9.351866,"geojson_lat":49.143268},"geometry":{"type":"Point","coordinates":[9.351866,49.143268]}},{"type":"Feature","properties":{"SeqNo":"22246","Type":"Q","DHID":"de:08125:2006:0:2","Parent":"de:08125:2006","Name":"2 Ri. SüdOst (Ri. Willsbach)","MunicipalityCode":"00000000","Municipality":"-","DistrictCode":"-","District":"-","Description":"","Authority":"NVBW","DelfiName":"-","THID":"-","LastOperationDate":"","SEV":"nein","longitude":"9,351426","latitude":"49,143003","geojson_lng":9.351426,"geojson_lat":49.143003},"geometry":{"type":"Point","coordinates":[9.351426,49.143003]}},{"type":"Feature","properties":{"SeqNo":"22247","Type":"Q","DHID":"de:08125:2006:0:nix","Parent":"de:08125:2006","Name":"nix","MunicipalityCode":"00000000","Municipality":"-","DistrictCode":"-","District":"-","Description":"","Authority":"NVBW","DelfiName":"-","THID":"-","LastOperationDate":"","SEV":"nein","longitude":"9,351561","latitude":"49,143115","geojson_lng":9.351561,"geojson_lat":49.143115},"geometry":{"type":"Point","coordinates":[9.351561,49.143115]}},{"type":"Feature","properties":{"SeqNo":"22248","Type":"S","DHID":"de:08125:2017","Parent":"de:08125:2017","Name":"Willsbach","MunicipalityCode":"08125110","Municipality":"Obersulm","DistrictCode":"","District":"","Description":"","Authority":"NVBW","DelfiName":"-","THID":"D91FBD0007E1","LastOperationDate":"2025-02-28T00:00:00","SEV":"nein","longitude":"9,357984","latitude":"49,142604","geojson_lng":9.357984,"geojson_lat":49.142604},"geometry":{"type":"Point","coordinates":[9.357984,49.142604]}},{"type":"Feature","properties":{"SeqNo":"22249","Type":"A","DHID":"de:08125:2017:1","Parent":"de:08125:2017","Name":"Zug->Heilbronn","MunicipalityCode":"00000000","Municipality":"-","DistrictCode":"-","District":"-","Description":"","Authority":"NVBW","DelfiName":"-","THID":"-","LastOperationDate":"","SEV":"nein","longitude":"9,357786","latitude":"49,142945","geojson_lng":9.357786,"geojson_lat":49.142945},"geometry":{"type":"Point","coordinates":[9.357786,49.142945]}},{"type":"Feature","properties":{"SeqNo":"22250","Type":"A","DHID":"de:08125:2017:2","Parent":"de:08125:2017","Name":"Zug->SHAHessental","MunicipalityCode":"00000000","Municipality":"-","DistrictCode":"-","District":"-","Description":"","Authority":"NVBW","DelfiName":"-","THID":"-","LastOperationDate":"","SEV":"nein","longitude":"9,357687","latitude":"49,142804","geojson_lng":9.357687,"geojson_lat":49.142804},"geometry":{"type":"Point","coordinates":[9.357687,49.142804]}},{"type":"Feature","properties":{"SeqNo":"22251","Type":"A","DHID":"de:08125:2017:3","Parent":"de:08125:2017","Name":"Bus","MunicipalityCode":"00000000","Municipality":"-","DistrictCode":"-","District":"-","Description":"","Authority":"NVBW","DelfiName":"-","THID":"-","LastOperationDate":"","SEV":"nein","longitude":"9,357804","latitude":"49,142063","geojson_lng":9.357804,"geojson_lat":49.142063},"geometry":{"type":"Point","coordinates":[9.357804,49.142063]}},{"type":"Feature","properties":{"SeqNo":"22252","Type":"A","DHID":"de:08125:2017:70","Parent":"de:08125:2017","Name":"Unterführung","MunicipalityCode":"00000000","Municipality":"-","DistrictCode":"-","District":"-","Description":"","Authority":"NVBW","DelfiName":"-","THID":"-","LastOperationDate":"","SEV":"nein","longitude":"9,358235","latitude":"49,142516","geojson_lng":9.358235,"geojson_lat":49.142516},"geometry":{"type":"Point","coordinates":[9.358235,49.142516]}},{"type":"Feature","properties":{"SeqNo":"22253","Type":"A","DHID":"de:08125:2017:80","Parent":"de:08125:2017","Name":"P+R","MunicipalityCode":"00000000","Municipality":"-","DistrictCode":"-","District":"-","Description":"","Authority":"NVBW","DelfiName":"-","THID":"-","LastOperationDate":"","SEV":"nein","longitude":"9,357445","latitude":"49,142715","geojson_lng":9.357445,"geojson_lat":49.142715},"geometry":{"type":"Point","coordinates":[9.357445,49.142715]}},{"type":"Feature","properties":{"SeqNo":"22254","Type":"A","DHID":"de:08125:2017:90","Parent":"de:08125:2017","Name":"Eingang Süd","MunicipalityCode":"00000000","Municipality":"-","DistrictCode":"-","District":"-","Description":"","Authority":"NVBW","DelfiName":"-","THID":"-","LastOperationDate":"","SEV":"nein","longitude":"9,357867","latitude":"49,14248","geojson_lng":9.357867,"geojson_lat":49.14248},"geometry":{"type":"Point","coordinates":[9.357867,49.14248]}},{"type":"Feature","properties":{"SeqNo":"22255","Type":"A","DHID":"de:08125:2017:91","Parent":"de:08125:2017","Name":"Eingang Nord","MunicipalityCode":"00000000","Municipality":"-","DistrictCode":"-","District":"-","Description":"","Authority":"NVBW","DelfiName":"-","THID":"-","LastOperationDate":"","SEV":"nein","longitude":"9,358164","latitude":"49,142821","geojson_lng":9.358164,"geojson_lat":49.142821},"geometry":{"type":"Point","coordinates":[9.358164,49.142821]}},{"type":"Feature","properties":{"SeqNo":"22256","Type":"Q","DHID":"de:08125:2017:1:1","Parent":"de:08125:2017:1","Name":"Gleis 1","MunicipalityCode":"00000000","Municipality":"-","DistrictCode":"-","District":"-","Description":"","Authority":"NVBW","DelfiName":"-","THID":"-","LastOperationDate":"","SEV":"nein","longitude":"9,357598","latitude":"49,142945","geojson_lng":9.357598,"geojson_lat":49.142945},"geometry":{"type":"Point","coordinates":[9.357598,49.142945]}},{"type":"Feature","properties":{"SeqNo":"22257","Type":"Q","DHID":"de:08125:2017:2:2","Parent":"de:08125:2017:2","Name":"Gleis 2","MunicipalityCode":"00000000","Municipality":"-","DistrictCode":"-","District":"-","Description":"","Authority":"NVBW","DelfiName":"-","THID":"-","LastOperationDate":"","SEV":"nein","longitude":"9,357535","latitude":"49,142903","geojson_lng":9.357535,"geojson_lat":49.142903},"geometry":{"type":"Point","coordinates":[9.357535,49.142903]}},{"type":"Feature","properties":{"SeqNo":"22258","Type":"Q","DHID":"de:08125:2017:3:0","Parent":"de:08125:2017:3","Name":"Ri. Willsbach Waage","MunicipalityCode":"00000000","Municipality":"-","DistrictCode":"-","District":"-","Description":"","Authority":"NVBW","DelfiName":"-","THID":"-","LastOperationDate":"","SEV":"nein","longitude":"9,357903","latitude":"49,142045","geojson_lng":9.357903,"geojson_lat":49.142045},"geometry":{"type":"Point","coordinates":[9.357903,49.142045]}},{"type":"Feature","properties":{"SeqNo":"22259","Type":"Q","DHID":"de:08125:2017:3:1","Parent":"de:08125:2017:3","Name":"Stadteinwärts","MunicipalityCode":"00000000","Municipality":"-","DistrictCode":"-","District":"-","Description":"","Authority":"NVBW","DelfiName":"-","THID":"-","LastOperationDate":"","SEV":"nein","longitude":"9,357867","latitude":"49,142098","geojson_lng":9.357867,"geojson_lat":49.142098},"geometry":{"type":"Point","coordinates":[9.357867,49.142098]}},{"type":"Feature","properties":{"SeqNo":"24862","Type":"S","DHID":"de:08125:951","Parent":"de:08125:951","Name":"Willsbach, Sportplatz","MunicipalityCode":"08125110","Municipality":"Obersulm","DistrictCode":"","District":"","Description":"","Authority":"NVBW","DelfiName":"-","THID":"D91FBD0003B7","LastOperationDate":"2025-02-28T00:00:00","SEV":"nein","longitude":"9,359942","latitude":"49,138543","geojson_lng":9.359942,"geojson_lat":49.138543},"geometry":{"type":"Point","coordinates":[9.359942,49.138543]}},{"type":"Feature","properties":{"SeqNo":"24863","Type":"Q","DHID":"de:08125:951:0:1","Parent":"de:08125:951","Name":"1","MunicipalityCode":"00000000","Municipality":"-","DistrictCode":"-","District":"-","Description":"","Authority":"NVBW","DelfiName":"-","THID":"-","LastOperationDate":"","SEV":"nein","longitude":"9,359942","latitude":"49,138561","geojson_lng":9.359942,"geojson_lat":49.138561},"geometry":{"type":"Point","coordinates":[9.359942,49.138561]}},{"type":"Feature","properties":{"SeqNo":"24865","Type":"Q","DHID":"de:08125:951:0:3","Parent":"de:08125:951","Name":"3","MunicipalityCode":"00000000","Municipality":"-","DistrictCode":"-","District":"-","Description":"","Authority":"NVBW","DelfiName":"-","THID":"-","LastOperationDate":"","SEV":"nein","longitude":"9,359987","latitude":"49,138613","geojson_lng":9.359987,"geojson_lat":49.138613},"geometry":{"type":"Point","coordinates":[9.359987,49.138613]}},{"type":"Feature","properties":{"SeqNo":"24866","Type":"Q","DHID":"de:08125:951:0:ohne","Parent":"de:08125:951","Name":"ohne Angabe","MunicipalityCode":"00000000","Municipality":"-","DistrictCode":"-","District":"-","Description":"","Authority":"NVBW","DelfiName":"-","THID":"-","LastOperationDate":"","SEV":"nein","longitude":"9,359987","latitude":"49,138596","geojson_lng":9.359987,"geojson_lat":49.138596},"geometry":{"type":"Point","coordinates":[9.359987,49.138596]}},{"type":"Feature","properties":{"SeqNo":"24867","Type":"S","DHID":"de:08125:952","Parent":"de:08125:952","Name":"Willsbach Hauptschule","MunicipalityCode":"08125110","Municipality":"Obersulm","DistrictCode":"","District":"","Description":"","Authority":"NVBW","DelfiName":"-","THID":"D91FBD0003B8","LastOperationDate":"1999-12-31T00:00:00","SEV":"nein","longitude":"9,354498","latitude":"49,142169","geojson_lng":9.354498,"geojson_lat":49.142169},"geometry":{"type":"Point","coordinates":[9.354498,49.142169]}},{"type":"Feature","properties":{"SeqNo":"24868","Type":"S","DHID":"de:08125:953","Parent":"de:08125:953","Name":"Willsbach, Realschule","MunicipalityCode":"08125110","Municipality":"Obersulm","DistrictCode":"","District":"","Description":"","Authority":"NVBW","DelfiName":"-","THID":"D91FBD0003B9","LastOperationDate":"2025-02-28T00:00:00","SEV":"nein","longitude":"9,352765","latitude":"49,138907","geojson_lng":9.352765,"geojson_lat":49.138907},"geometry":{"type":"Point","coordinates":[9.352765,49.138907]}},{"type":"Feature","properties":{"SeqNo":"24869","Type":"Q","DHID":"de:08125:953:0:1","Parent":"de:08125:953","Name":"1","MunicipalityCode":"00000000","Municipality":"-","DistrictCode":"-","District":"-","Description":"","Authority":"NVBW","DelfiName":"-","THID":"-","LastOperationDate":"","SEV":"nein","longitude":"9,352729","latitude":"49,138872","geojson_lng":9.352729,"geojson_lat":49.138872},"geometry":{"type":"Point","coordinates":[9.352729,49.138872]}},{"type":"Feature","properties":{"SeqNo":"24870","Type":"Q","DHID":"de:08125:953:0:2","Parent":"de:08125:953","Name":"2","MunicipalityCode":"00000000","Municipality":"-","DistrictCode":"-","District":"-","Description":"","Authority":"NVBW","DelfiName":"-","THID":"-","LastOperationDate":"","SEV":"nein","longitude":"9,352792","latitude":"49,13896","geojson_lng":9.352792,"geojson_lat":49.13896},"geometry":{"type":"Point","coordinates":[9.352792,49.13896]}},{"type":"Feature","properties":{"SeqNo":"24871","Type":"Q","DHID":"de:08125:953:0:ohne","Parent":"de:08125:953","Name":"ohne Angabe","MunicipalityCode":"00000000","Municipality":"-","DistrictCode":"-","District":"-","Description":"","Authority":"NVBW","DelfiName":"-","THID":"-","LastOperationDate":"","SEV":"nein","longitude":"9,352908","latitude":"49,138878","geojson_lng":9.352908,"geojson_lat":49.138878},"geometry":{"type":"Point","coordinates":[9.352908,49.138878]}}]}