{"type":"FeatureCollection","features":[{"type":"Feature","properties":{"highway":"bus_stop","public_transport":"platform","name":"Heiligenbergerweg","ref:IFOPT":"NL:Q:50450520","_quaycode":"NL:Q:50450520","_town":"Leusden","_status":"available","_mode":"bus","_direction":331,"_visuallyAccessible":false,"_disabledAccessible":false,"geojson_lng":5.410983495873497,"geojson_lat":52.13771529081661},"geometry":{"type":"Point","coordinates":[5.410983495873497,52.13771529081661]}},{"type":"Feature","properties":{"highway":"bus_stop","public_transport":"platform","name":"Plesmanstraat","ref:IFOPT":"NL:Q:50450785","_quaycode":"NL:Q:50450785","_town":"Leusden","_status":"available","_mode":"bus","_direction":95,"_visuallyAccessible":true,"_disabledAccessible":true,"geojson_lng":5.420686260803332,"geojson_lat":52.14276414998214},"geometry":{"type":"Point","coordinates":[5.420686260803332,52.14276414998214]}},{"type":"Feature","properties":{"highway":"bus_stop","public_transport":"platform","name":"Hamersveldweg","ref:IFOPT":"NL:Q:50450640","_quaycode":"NL:Q:50450640","_town":"Leusden","_status":"available","_mode":"bus","_direction":170,"_visuallyAccessible":false,"_disabledAccessible":false,"geojson_lng":5.4267624834670976,"geojson_lat":52.13676558587743},"geometry":{"type":"Point","coordinates":[5.4267624834670976,52.13676558587743]}},{"type":"Feature","properties":{"highway":"bus_stop","public_transport":"platform","name":"Storkstraat","ref:IFOPT":"NL:Q:50456019","_quaycode":"NL:Q:50456019","_town":"Leusden","_status":"available","_mode":"bus","_direction":78,"_visuallyAccessible":false,"_disabledAccessible":false,"geojson_lng":5.421886207759145,"geojson_lat":52.14538828151821},"geometry":{"type":"Point","coordinates":[5.421886207759145,52.14538828151821]}},{"type":"Feature","properties":{"highway":"bus_stop","public_transport":"platform","name":"Storkstraat","ref:IFOPT":"NL:Q:50456020","_quaycode":"NL:Q:50456020","_town":"Leusden","_status":"available","_mode":"bus","_direction":260,"_visuallyAccessible":false,"_disabledAccessible":false,"geojson_lng":5.421462549733817,"geojson_lat":52.14540638181756},"geometry":{"type":"Point","coordinates":[5.421462549733817,52.14540638181756]}},{"type":"Feature","properties":{"highway":"bus_stop","public_transport":"platform","name":"Ursulineweg","ref:IFOPT":"NL:Q:50450490","_quaycode":"NL:Q:50450490","_town":"Leusden","_status":"available","_mode":"bus","_direction":140,"_visuallyAccessible":true,"_disabledAccessible":true,"geojson_lng":5.40917350988839,"geojson_lat":52.14026822291385},"geometry":{"type":"Point","coordinates":[5.40917350988839,52.14026822291385]}},{"type":"Feature","properties":{"highway":"bus_stop","public_transport":"platform","name":"Heiligenbergerweg","ref:IFOPT":"NL:Q:50450510","_quaycode":"NL:Q:50450510","_town":"Leusden","_status":"available","_mode":"bus","_direction":170,"_visuallyAccessible":false,"_disabledAccessible":false,"geojson_lng":5.4112893174569185,"geojson_lat":52.13601650470475},"geometry":{"type":"Point","coordinates":[5.4112893174569185,52.13601650470475]}},{"type":"Feature","properties":{"highway":"bus_stop","public_transport":"platform","name":"Carpoolplaats","ref:IFOPT":"NL:Q:50450560","_quaycode":"NL:Q:50450560","_town":"Leusden","_status":"available","_mode":"bus","_direction":170,"_visuallyAccessible":true,"_disabledAccessible":true,"geojson_lng":5.413528044567661,"geojson_lat":52.14269407139581},"geometry":{"type":"Point","coordinates":[5.413528044567661,52.14269407139581]}},{"type":"Feature","properties":{"highway":"bus_stop","public_transport":"platform","name":"Groene Zoom","ref:IFOPT":"NL:Q:50450720","_quaycode":"NL:Q:50450720","_town":"Leusden","_status":"available","_mode":"bus","_direction":275,"_visuallyAccessible":true,"_disabledAccessible":true,"geojson_lng":5.415318979728758,"geojson_lat":52.13336415926272},"geometry":{"type":"Point","coordinates":[5.415318979728758,52.13336415926272]}},{"type":"Feature","properties":{"highway":"bus_stop","public_transport":"platform","name":"Groene Zoom","ref:IFOPT":"NL:Q:50450733","_quaycode":"NL:Q:50450733","_town":"Leusden","_status":"available","_mode":"bus","_direction":10,"_visuallyAccessible":true,"_disabledAccessible":true,"geojson_lng":5.416721215678559,"geojson_lat":52.133534585894274},"geometry":{"type":"Point","coordinates":[5.416721215678559,52.133534585894274]}},{"type":"Feature","properties":{"highway":"bus_stop","public_transport":"platform","name":"Hamersveldweg","ref:IFOPT":"NL:Q:50450650","_quaycode":"NL:Q:50450650","_town":"Leusden","_status":"available","_mode":"bus","_direction":350,"_visuallyAccessible":false,"_disabledAccessible":false,"geojson_lng":5.4268217546310415,"geojson_lat":52.136933174309284},"geometry":{"type":"Point","coordinates":[5.4268217546310415,52.136933174309284]}},{"type":"Feature","properties":{"highway":"bus_stop","public_transport":"platform","name":"Plesmanstraat","ref:IFOPT":"NL:Q:50450780","_quaycode":"NL:Q:50450780","_town":"Leusden","_status":"available","_mode":"bus","_direction":275,"_visuallyAccessible":true,"_disabledAccessible":true,"geojson_lng":5.42157750548425,"geojson_lat":52.14292567539048},"geometry":{"type":"Point","coordinates":[5.42157750548425,52.14292567539048]}},{"type":"Feature","properties":{"highway":"bus_stop","public_transport":"platform","name":"Ursulineweg","ref:IFOPT":"NL:Q:50450480","_quaycode":"NL:Q:50450480","_town":"Leusden","_status":"available","_mode":"bus","_direction":330,"_visuallyAccessible":true,"_disabledAccessible":true,"geojson_lng":5.408983870419978,"geojson_lat":52.14079854740845},"geometry":{"type":"Point","coordinates":[5.408983870419978,52.14079854740845]}},{"type":"Feature","properties":{"highway":"bus_stop","public_transport":"platform","name":"Bedrijventerrein De Horst","ref:IFOPT":"NL:Q:50450350","_quaycode":"NL:Q:50450350","_town":"Leusden","_status":"available","_mode":"bus","_direction":342,"_visuallyAccessible":true,"_disabledAccessible":true,"geojson_lng":5.4242226371945605,"geojson_lat":52.144102292029366},"geometry":{"type":"Point","coordinates":[5.4242226371945605,52.144102292029366]}},{"type":"Feature","properties":{"highway":"bus_stop","public_transport":"platform","name":"AFAS","ref:IFOPT":"NL:Q:50450340","_quaycode":"NL:Q:50450340","_town":"Leusden","_status":"available","_mode":"bus","_direction":246,"_visuallyAccessible":true,"_disabledAccessible":true,"geojson_lng":5.425516999999998,"geojson_lat":52.14143199999997},"geometry":{"type":"Point","coordinates":[5.425516999999998,52.14143199999997]}}]}