{"type":"FeatureCollection","features":[{"type":"Feature","properties":{"highway":"bus_stop","public_transport":"platform","name":"De Run 5300","ref:IFOPT":"NL:Q:64111360","_quaycode":"NL:Q:64111360","_town":"Veldhoven","_status":"available","_mode":"bus","_direction":286,"_visuallyAccessible":true,"_disabledAccessible":true,"geojson_lng":5.412684784016422,"geojson_lat":51.41040193589725},"geometry":{"type":"Point","coordinates":[5.412684784016422,51.41040193589725]}},{"type":"Feature","properties":{"highway":"bus_stop","public_transport":"platform","name":"MMC Veldhoven Hoofdingang","ref:IFOPT":"NL:Q:64111020","_quaycode":"NL:Q:64111020","_town":"Veldhoven","_status":"available","_mode":"bus","_direction":240,"_visuallyAccessible":true,"_disabledAccessible":true,"geojson_lng":5.419337182430023,"geojson_lat":51.406939635916395},"geometry":{"type":"Point","coordinates":[5.419337182430023,51.406939635916395]}},{"type":"Feature","properties":{"highway":"bus_stop","public_transport":"platform","name":"De Run 5300","ref:IFOPT":"NL:Q:64111350","_quaycode":"NL:Q:64111350","_town":"Veldhoven","_status":"available","_mode":"bus","_direction":107,"_visuallyAccessible":true,"_disabledAccessible":true,"geojson_lng":5.412727741959348,"geojson_lat":51.410114288276226},"geometry":{"type":"Point","coordinates":[5.412727741959348,51.410114288276226]}},{"type":"Feature","properties":{"highway":"bus_stop","public_transport":"platform","name":"MMC Veldhoven Kempenbaan","ref:IFOPT":"NL:Q:64112410","_quaycode":"NL:Q:64112410","_town":"Veldhoven","_status":"available","_mode":"bus","_direction":245,"_visuallyAccessible":true,"_disabledAccessible":true,"geojson_lng":5.4179576856480605,"geojson_lat":51.40729056897002},"geometry":{"type":"Point","coordinates":[5.4179576856480605,51.40729056897002]}},{"type":"Feature","properties":{"highway":"bus_stop","public_transport":"platform","name":"MMC Veldhoven Kempenbaan","ref:IFOPT":"NL:Q:64112400","_quaycode":"NL:Q:64112400","_town":"Veldhoven","_status":"available","_mode":"bus","_direction":64,"_visuallyAccessible":true,"_disabledAccessible":true,"geojson_lng":5.417311419400861,"geojson_lat":51.40802781147312},"geometry":{"type":"Point","coordinates":[5.417311419400861,51.40802781147312]}},{"type":"Feature","properties":{"highway":"bus_stop","public_transport":"platform","name":"Runstraat","ref:IFOPT":"NL:Q:64112890","_quaycode":"NL:Q:64112890","_town":"Veldhoven","_status":"available","_mode":"bus","_direction":245,"_visuallyAccessible":false,"_disabledAccessible":false,"geojson_lng":5.405266002945525,"geojson_lat":51.405037081420744},"geometry":{"type":"Point","coordinates":[5.405266002945525,51.405037081420744]}},{"type":"Feature","properties":{"highway":"bus_stop","public_transport":"platform","name":"ASML-gebouw 4","ref:IFOPT":"NL:Q:64112440","_quaycode":"NL:Q:64112440","_town":"Veldhoven","_status":"available","_mode":"bus","_direction":96,"_visuallyAccessible":true,"_disabledAccessible":true,"geojson_lng":5.414924274551965,"geojson_lat":51.4059070749241},"geometry":{"type":"Point","coordinates":[5.414924274551965,51.4059070749241]}},{"type":"Feature","properties":{"highway":"bus_stop","public_transport":"platform","name":"ASML-gebouw 4","ref:IFOPT":"NL:Q:64112430","_quaycode":"NL:Q:64112430","_town":"Veldhoven","_status":"available","_mode":"bus","_direction":270,"_visuallyAccessible":true,"_disabledAccessible":true,"geojson_lng":5.414421344092429,"geojson_lat":51.40605101324143},"geometry":{"type":"Point","coordinates":[5.414421344092429,51.40605101324143]}},{"type":"Feature","properties":{"highway":"bus_stop","public_transport":"platform","name":"ASML-gebouw 4","ref:IFOPT":"NL:Q:64112450","_quaycode":"NL:Q:64112450","_town":"Veldhoven","_status":"available","_mode":"bus","_direction":308,"_visuallyAccessible":true,"_disabledAccessible":true,"geojson_lng":5.415111563046374,"geojson_lat":51.406644102954324},"geometry":{"type":"Point","coordinates":[5.415111563046374,51.406644102954324]}},{"type":"Feature","properties":{"highway":"bus_stop","public_transport":"platform","name":"Veenstraat","ref:IFOPT":"NL:Q:64112520","_quaycode":"NL:Q:64112520","_town":"Veldhoven","_status":"available","_mode":"bus","_direction":27,"_visuallyAccessible":true,"_disabledAccessible":true,"geojson_lng":5.422891498059042,"geojson_lat":51.412502598325375},"geometry":{"type":"Point","coordinates":[5.422891498059042,51.412502598325375]}},{"type":"Feature","properties":{"highway":"bus_stop","public_transport":"platform","name":"Runstraat","ref:IFOPT":"NL:Q:64112900","_quaycode":"NL:Q:64112900","_town":"Veldhoven","_status":"available","_mode":"bus","_direction":31,"_visuallyAccessible":false,"_disabledAccessible":false,"geojson_lng":5.406344221826861,"geojson_lat":51.40585487911656},"geometry":{"type":"Point","coordinates":[5.406344221826861,51.40585487911656]}},{"type":"Feature","properties":{"highway":"bus_stop","public_transport":"platform","name":"Ontginningsweg","ref:IFOPT":"NL:Q:64111050","_quaycode":"NL:Q:64111050","_town":"Veldhoven","_status":"available","_mode":"bus","_direction":58,"_visuallyAccessible":false,"_disabledAccessible":true,"geojson_lng":5.4247991221584035,"geojson_lat":51.4075312488447},"geometry":{"type":"Point","coordinates":[5.4247991221584035,51.4075312488447]}},{"type":"Feature","properties":{"highway":"bus_stop","public_transport":"platform","name":"Ontginningsweg","ref:IFOPT":"NL:Q:64111060","_quaycode":"NL:Q:64111060","_town":"Veldhoven","_status":"available","_mode":"bus","_direction":238,"_visuallyAccessible":false,"_disabledAccessible":true,"geojson_lng":5.425144360632898,"geojson_lat":51.407890684307006},"geometry":{"type":"Point","coordinates":[5.425144360632898,51.407890684307006]}},{"type":"Feature","properties":{"highway":"bus_stop","public_transport":"platform","name":"De Run 6700","ref:IFOPT":"NL:Q:64112490","_quaycode":"NL:Q:64112490","_town":"Veldhoven","_status":"available","_mode":"bus","_direction":250,"_visuallyAccessible":false,"_disabledAccessible":true,"geojson_lng":5.410683251939727,"geojson_lat":51.403382188661205},"geometry":{"type":"Point","coordinates":[5.410683251939727,51.403382188661205]}},{"type":"Feature","properties":{"highway":"bus_stop","public_transport":"platform","name":"De Run 6700","ref:IFOPT":"NL:Q:64112500","_quaycode":"NL:Q:64112500","_town":"Veldhoven","_status":"available","_mode":"bus","_direction":70,"_visuallyAccessible":false,"_disabledAccessible":true,"geojson_lng":5.410424502765943,"geojson_lat":51.40324741040568},"geometry":{"type":"Point","coordinates":[5.410424502765943,51.40324741040568]}},{"type":"Feature","properties":{"highway":"bus_stop","public_transport":"platform","name":"Veenstraat","ref:IFOPT":"NL:Q:64112510","_quaycode":"NL:Q:64112510","_town":"Veldhoven","_status":"available","_mode":"bus","_direction":218,"_visuallyAccessible":true,"_disabledAccessible":true,"geojson_lng":5.422057282227597,"geojson_lat":51.41181971124129},"geometry":{"type":"Point","coordinates":[5.422057282227597,51.41181971124129]}}]}