{"type":"FeatureCollection","features":[{"type":"Feature","properties":{"SeqNo":"692376","Type":"A","DHID":"de:05970:10798:89","Parent":"de:05970:10798","Name":"SEV","MunicipalityCode":"00000000","Municipality":"-","DistrictCode":"-","District":"-","Description":"","Authority":"VRR","DelfiName":"-","THID":"-","LastOperationDate":"","SEV":"nein","longitude":"8,140515","latitude":"50,761064","geojson_lng":8.140515,"geojson_lat":50.761064},"geometry":{"type":"Point","coordinates":[8.140515,50.761064]}},{"type":"Feature","properties":{"SeqNo":"692380","Type":"Q","DHID":"de:05970:10798:89:89","Parent":"de:05970:10798:89","Name":"Hst. Wasserscheide","MunicipalityCode":"00000000","Municipality":"-","DistrictCode":"-","District":"-","Description":"","Authority":"VRR","DelfiName":"-","THID":"-","LastOperationDate":"","SEV":"nein","longitude":"8,140515","latitude":"50,761064","geojson_lng":8.140515,"geojson_lat":50.761064},"geometry":{"type":"Point","coordinates":[8.140515,50.761064]}},{"type":"Feature","properties":{"SeqNo":"692995","Type":"S","DHID":"de:05970:33633","Parent":"de:05970:33633","Name":"Würgendorf Wasserscheide","MunicipalityCode":"05970008","Municipality":"Burbach","DistrictCode":"-","District":"-","Description":"","Authority":"VRR","DelfiName":"-","THID":"D91752008361","LastOperationDate":"2025-01-06T00:00:00","SEV":"nein","longitude":"8,140291","latitude":"50,761047","geojson_lng":8.140291,"geojson_lat":50.761047},"geometry":{"type":"Point","coordinates":[8.140291,50.761047]}},{"type":"Feature","properties":{"SeqNo":"692996","Type":"A","DHID":"de:05970:33633:1","Parent":"de:05970:33633","Name":"ÖV","MunicipalityCode":"00000000","Municipality":"-","DistrictCode":"-","District":"-","Description":"ÖV","Authority":"VRR","DelfiName":"-","THID":"-","LastOperationDate":"","SEV":"nein","longitude":"8,140515","latitude":"50,761064","geojson_lng":8.140515,"geojson_lat":50.761064},"geometry":{"type":"Point","coordinates":[8.140515,50.761064]}},{"type":"Feature","properties":{"SeqNo":"692997","Type":"Q","DHID":"de:05970:33633:1:1","Parent":"de:05970:33633:1","Name":"Ri. Haiger - Siegen","MunicipalityCode":"00000000","Municipality":"-","DistrictCode":"-","District":"-","Description":"Ri. Haiger - Siegen","Authority":"VRR","DelfiName":"-","THID":"-","LastOperationDate":"","SEV":"nein","longitude":"8,139832","latitude":"50,760933","geojson_lng":8.139832,"geojson_lat":50.760933},"geometry":{"type":"Point","coordinates":[8.139832,50.760933]}},{"type":"Feature","properties":{"SeqNo":"693006","Type":"S","DHID":"de:05970:33636","Parent":"de:05970:33636","Name":"Würgendorf Sangstraße","MunicipalityCode":"05970008","Municipality":"Burbach","DistrictCode":"-","District":"-","Description":"","Authority":"VRR","DelfiName":"-","THID":"D91752008364","LastOperationDate":"2024-12-20T00:00:00","SEV":"nein","longitude":"8,139302","latitude":"50,760115","geojson_lng":8.139302,"geojson_lat":50.760115},"geometry":{"type":"Point","coordinates":[8.139302,50.760115]}},{"type":"Feature","properties":{"SeqNo":"693007","Type":"A","DHID":"de:05970:33636:1","Parent":"de:05970:33636","Name":"1","MunicipalityCode":"00000000","Municipality":"-","DistrictCode":"-","District":"-","Description":"ÖV","Authority":"VRR","DelfiName":"-","THID":"-","LastOperationDate":"","SEV":"nein","longitude":"8,139302","latitude":"50,76012","geojson_lng":8.139302,"geojson_lat":50.76012},"geometry":{"type":"Point","coordinates":[8.139302,50.76012]}},{"type":"Feature","properties":{"SeqNo":"693008","Type":"Q","DHID":"de:05970:33636:1:1","Parent":"de:05970:33636:1","Name":"1","MunicipalityCode":"00000000","Municipality":"-","DistrictCode":"-","District":"-","Description":"alle Richtungen","Authority":"VRR","DelfiName":"-","THID":"-","LastOperationDate":"","SEV":"nein","longitude":"8,139302","latitude":"50,76012","geojson_lng":8.139302,"geojson_lat":50.76012},"geometry":{"type":"Point","coordinates":[8.139302,50.76012]}}]}