{"type":"FeatureCollection","features":[{"type":"Feature","properties":{"SeqNo":"761071","Type":"S","DHID":"de:07316:3123","Parent":"de:07316:3123","Name":"Haardt, Winzer","MunicipalityCode":"07316000","Municipality":"Neustadt an der Weinstraße","DistrictCode":"","District":"","Description":"","Authority":"VRN","DelfiName":"-","THID":"D91C94000C33","LastOperationDate":"2025-06-14T00:00:00","SEV":"nein","longitude":"8,138889","latitude":"49,36052","geojson_lng":8.138889,"geojson_lat":49.36052},"geometry":{"type":"Point","coordinates":[8.138889,49.36052]}},{"type":"Feature","properties":{"SeqNo":"761072","Type":"Q","DHID":"de:07316:3123:0:1","Parent":"de:07316:3123","Name":"Ri Schloss","MunicipalityCode":"00000000","Municipality":"-","DistrictCode":"-","District":"-","Description":"","Authority":"VRN","DelfiName":"-","THID":"-","LastOperationDate":"","SEV":"nein","longitude":"8,13897","latitude":"49,360544","geojson_lng":8.13897,"geojson_lat":49.360544},"geometry":{"type":"Point","coordinates":[8.13897,49.360544]}},{"type":"Feature","properties":{"SeqNo":"761073","Type":"Q","DHID":"de:07316:3123:0:2","Parent":"de:07316:3123","Name":"Ri Wohnstift","MunicipalityCode":"00000000","Municipality":"-","DistrictCode":"-","District":"-","Description":"","Authority":"VRN","DelfiName":"-","THID":"-","LastOperationDate":"","SEV":"nein","longitude":"8,138799","latitude":"49,360491","geojson_lng":8.138799,"geojson_lat":49.360491},"geometry":{"type":"Point","coordinates":[8.138799,49.360491]}},{"type":"Feature","properties":{"SeqNo":"761235","Type":"S","DHID":"de:07316:3176","Parent":"de:07316:3176","Name":"Neustadt, Strohmarkt","MunicipalityCode":"07316000","Municipality":"Neustadt an der Weinstraße","DistrictCode":"","District":"","Description":"","Authority":"VRN","DelfiName":"-","THID":"D91C94000C68","LastOperationDate":"2025-06-14T00:00:00","SEV":"nein","longitude":"8,137497","latitude":"49,355582","geojson_lng":8.137497,"geojson_lat":49.355582},"geometry":{"type":"Point","coordinates":[8.137497,49.355582]}},{"type":"Feature","properties":{"SeqNo":"761236","Type":"Q","DHID":"de:07316:3176:0:1","Parent":"de:07316:3176","Name":"Ri Westschule/Talpost","MunicipalityCode":"00000000","Municipality":"-","DistrictCode":"-","District":"-","Description":"","Authority":"VRN","DelfiName":"-","THID":"-","LastOperationDate":"","SEV":"nein","longitude":"8,138027","latitude":"49,355687","geojson_lng":8.138027,"geojson_lat":49.355687},"geometry":{"type":"Point","coordinates":[8.138027,49.355687]}},{"type":"Feature","properties":{"SeqNo":"761237","Type":"Q","DHID":"de:07316:3176:0:2","Parent":"de:07316:3176","Name":"Ri Karl-Hefferich-Str.","MunicipalityCode":"00000000","Municipality":"-","DistrictCode":"-","District":"-","Description":"","Authority":"VRN","DelfiName":"-","THID":"-","LastOperationDate":"","SEV":"nein","longitude":"8,136913","latitude":"49,355529","geojson_lng":8.136913,"geojson_lat":49.355529},"geometry":{"type":"Point","coordinates":[8.136913,49.355529]}},{"type":"Feature","properties":{"SeqNo":"761306","Type":"S","DHID":"de:07316:3202","Parent":"de:07316:3202","Name":"Neustadt, Lindenstraße","MunicipalityCode":"07316000","Municipality":"Neustadt an der Weinstraße","DistrictCode":"","District":"","Description":"","Authority":"VRN","DelfiName":"-","THID":"D91C94000C82","LastOperationDate":"2025-06-14T00:00:00","SEV":"nein","longitude":"8,131487","latitude":"49,353873","geojson_lng":8.131487,"geojson_lat":49.353873},"geometry":{"type":"Point","coordinates":[8.131487,49.353873]}},{"type":"Feature","properties":{"SeqNo":"761307","Type":"Q","DHID":"de:07316:3202:0:1","Parent":"de:07316:3202","Name":"Ri Sauterstraße","MunicipalityCode":"00000000","Municipality":"-","DistrictCode":"-","District":"-","Description":"","Authority":"VRN","DelfiName":"-","THID":"-","LastOperationDate":"","SEV":"nein","longitude":"8,131514","latitude":"49,353885","geojson_lng":8.131514,"geojson_lat":49.353885},"geometry":{"type":"Point","coordinates":[8.131514,49.353885]}},{"type":"Feature","properties":{"SeqNo":"761308","Type":"Q","DHID":"de:07316:3202:0:2","Parent":"de:07316:3202","Name":"Ri Strohmarkt","MunicipalityCode":"00000000","Municipality":"-","DistrictCode":"-","District":"-","Description":"","Authority":"VRN","DelfiName":"-","THID":"-","LastOperationDate":"","SEV":"nein","longitude":"8,131469","latitude":"49,353856","geojson_lng":8.131469,"geojson_lat":49.353856},"geometry":{"type":"Point","coordinates":[8.131469,49.353856]}}]}