{"type":"FeatureCollection","features":[{"type":"Feature","properties":{"SeqNo":"777239","Type":"S","DHID":"de:08222:2311","Parent":"de:08222:2311","Name":"Feudenheim, A.-Damaschke-Ring","MunicipalityCode":"08222000","Municipality":"Mannheim","DistrictCode":"","District":"","Description":"","Authority":"VRN","DelfiName":"-","THID":"D9201E000907","LastOperationDate":"2025-06-14T00:00:00","SEV":"nein","longitude":"8,521015","latitude":"49,493531","geojson_lng":8.521015,"geojson_lat":49.493531},"geometry":{"type":"Point","coordinates":[8.521015,49.493531]}},{"type":"Feature","properties":{"SeqNo":"777240","Type":"A","DHID":"de:08222:2311:1","Parent":"de:08222:2311","Name":"TramRiN Talstr","MunicipalityCode":"00000000","Municipality":"-","DistrictCode":"-","District":"-","Description":"","Authority":"VRN","DelfiName":"-","THID":"-","LastOperationDate":"","SEV":"nein","longitude":"8,521015","latitude":"49,49363","geojson_lng":8.521015,"geojson_lat":49.49363},"geometry":{"type":"Point","coordinates":[8.521015,49.49363]}},{"type":"Feature","properties":{"SeqNo":"777241","Type":"A","DHID":"de:08222:2311:2","Parent":"de:08222:2311","Name":"BusRiN Talstr/Wac","MunicipalityCode":"00000000","Municipality":"-","DistrictCode":"-","District":"-","Description":"","Authority":"VRN","DelfiName":"-","THID":"-","LastOperationDate":"","SEV":"nein","longitude":"8,521194","latitude":"49,493239","geojson_lng":8.521194,"geojson_lat":49.493239},"geometry":{"type":"Point","coordinates":[8.521194,49.493239]}},{"type":"Feature","properties":{"SeqNo":"777242","Type":"A","DHID":"de:08222:2311:3","Parent":"de:08222:2311","Name":"TrRiS Ziethenstr","MunicipalityCode":"00000000","Municipality":"-","DistrictCode":"-","District":"-","Description":"","Authority":"VRN","DelfiName":"-","THID":"-","LastOperationDate":"","SEV":"nein","longitude":"8,52097","latitude":"49,49342","geojson_lng":8.52097,"geojson_lat":49.49342},"geometry":{"type":"Point","coordinates":[8.52097,49.49342]}},{"type":"Feature","properties":{"SeqNo":"777243","Type":"A","DHID":"de:08222:2311:4","Parent":"de:08222:2311","Name":"BusRiS Ziethenstr","MunicipalityCode":"00000000","Municipality":"-","DistrictCode":"-","District":"-","Description":"","Authority":"VRN","DelfiName":"-","THID":"-","LastOperationDate":"","SEV":"nein","longitude":"8,520934","latitude":"49,493204","geojson_lng":8.520934,"geojson_lat":49.493204},"geometry":{"type":"Point","coordinates":[8.520934,49.493204]}},{"type":"Feature","properties":{"SeqNo":"777244","Type":"Q","DHID":"de:08222:2311:1:Tram","Parent":"de:08222:2311:1","Name":"TramRiN Talstraße","MunicipalityCode":"00000000","Municipality":"-","DistrictCode":"-","District":"-","Description":"","Authority":"VRN","DelfiName":"-","THID":"-","LastOperationDate":"","SEV":"nein","longitude":"8,520988","latitude":"49,49363","geojson_lng":8.520988,"geojson_lat":49.49363},"geometry":{"type":"Point","coordinates":[8.520988,49.49363]}},{"type":"Feature","properties":{"SeqNo":"777245","Type":"Q","DHID":"de:08222:2311:2:Bus","Parent":"de:08222:2311:2","Name":"BusRiN Talstr/Wachenheimer Str","MunicipalityCode":"00000000","Municipality":"-","DistrictCode":"-","District":"-","Description":"","Authority":"VRN","DelfiName":"-","THID":"-","LastOperationDate":"","SEV":"nein","longitude":"8,521194","latitude":"49,493239","geojson_lng":8.521194,"geojson_lat":49.493239},"geometry":{"type":"Point","coordinates":[8.521194,49.493239]}},{"type":"Feature","properties":{"SeqNo":"777246","Type":"Q","DHID":"de:08222:2311:3:Tram","Parent":"de:08222:2311:3","Name":"TramRiS Ziethenstr","MunicipalityCode":"00000000","Municipality":"-","DistrictCode":"-","District":"-","Description":"","Authority":"VRN","DelfiName":"-","THID":"-","LastOperationDate":"","SEV":"nein","longitude":"8,520997","latitude":"49,49342","geojson_lng":8.520997,"geojson_lat":49.49342},"geometry":{"type":"Point","coordinates":[8.520997,49.49342]}},{"type":"Feature","properties":{"SeqNo":"777247","Type":"Q","DHID":"de:08222:2311:4:Bus","Parent":"de:08222:2311:4","Name":"BusRiS Ziethenstr/A-Hofer-Str","MunicipalityCode":"00000000","Municipality":"-","DistrictCode":"-","District":"-","Description":"","Authority":"VRN","DelfiName":"-","THID":"-","LastOperationDate":"","SEV":"nein","longitude":"8,520952","latitude":"49,493204","geojson_lng":8.520952,"geojson_lat":49.493204},"geometry":{"type":"Point","coordinates":[8.520952,49.493204]}},{"type":"Feature","properties":{"SeqNo":"777251","Type":"S","DHID":"de:08222:2313","Parent":"de:08222:2313","Name":"Feudenheim, Andreas-Hofer-Str.","MunicipalityCode":"08222000","Municipality":"Mannheim","DistrictCode":"","District":"","Description":"","Authority":"VRN","DelfiName":"-","THID":"D9201E000909","LastOperationDate":"2025-06-13T00:00:00","SEV":"nein","longitude":"8,525488","latitude":"49,490485","geojson_lng":8.525488,"geojson_lat":49.490485},"geometry":{"type":"Point","coordinates":[8.525488,49.490485]}},{"type":"Feature","properties":{"SeqNo":"777252","Type":"Q","DHID":"de:08222:2313:0:11","Parent":"de:08222:2313","Name":"Ri Adolf-Damaschke-Ring","MunicipalityCode":"00000000","Municipality":"-","DistrictCode":"-","District":"-","Description":"","Authority":"VRN","DelfiName":"-","THID":"-","LastOperationDate":"","SEV":"nein","longitude":"8,525524","latitude":"49,490427","geojson_lng":8.525524,"geojson_lat":49.490427},"geometry":{"type":"Point","coordinates":[8.525524,49.490427]}},{"type":"Feature","properties":{"SeqNo":"777253","Type":"Q","DHID":"de:08222:2313:0:12","Parent":"de:08222:2313","Name":"Ri Blücherstraße","MunicipalityCode":"00000000","Municipality":"-","DistrictCode":"-","District":"-","Description":"","Authority":"VRN","DelfiName":"-","THID":"-","LastOperationDate":"","SEV":"nein","longitude":"8,525407","latitude":"49,490491","geojson_lng":8.525407,"geojson_lat":49.490491},"geometry":{"type":"Point","coordinates":[8.525407,49.490491]}},{"type":"Feature","properties":{"SeqNo":"777254","Type":"Q","DHID":"de:08222:2313:0:13","Parent":"de:08222:2313","Name":"V1","MunicipalityCode":"00000000","Municipality":"-","DistrictCode":"-","District":"-","Description":"","Authority":"VRN","DelfiName":"-","THID":"-","LastOperationDate":"","SEV":"nein","longitude":"8,524823","latitude":"49,490637","geojson_lng":8.524823,"geojson_lat":49.490637},"geometry":{"type":"Point","coordinates":[8.524823,49.490637]}},{"type":"Feature","properties":{"SeqNo":"777308","Type":"S","DHID":"de:08222:2324","Parent":"de:08222:2324","Name":"Feudenheim, Talstraße","MunicipalityCode":"08222000","Municipality":"Mannheim","DistrictCode":"","District":"","Description":"","Authority":"VRN","DelfiName":"-","THID":"D9201E000914","LastOperationDate":"2025-06-14T00:00:00","SEV":"nein","longitude":"8,524832","latitude":"49,495299","geojson_lng":8.524832,"geojson_lat":49.495299},"geometry":{"type":"Point","coordinates":[8.524832,49.495299]}},{"type":"Feature","properties":{"SeqNo":"777309","Type":"A","DHID":"de:08222:2324:1","Parent":"de:08222:2324","Name":"TrRiO Hölderlinst","MunicipalityCode":"00000000","Municipality":"-","DistrictCode":"-","District":"-","Description":"","Authority":"VRN","DelfiName":"-","THID":"-","LastOperationDate":"","SEV":"nein","longitude":"8,525138","latitude":"49,495334","geojson_lng":8.525138,"geojson_lat":49.495334},"geometry":{"type":"Point","coordinates":[8.525138,49.495334]}},{"type":"Feature","properties":{"SeqNo":"777310","Type":"A","DHID":"de:08222:2324:2","Parent":"de:08222:2324","Name":"Bus","MunicipalityCode":"00000000","Municipality":"-","DistrictCode":"-","District":"-","Description":"","Authority":"VRN","DelfiName":"-","THID":"-","LastOperationDate":"","SEV":"nein","longitude":"8,524805","latitude":"49,4952","geojson_lng":8.524805,"geojson_lat":49.4952},"geometry":{"type":"Point","coordinates":[8.524805,49.4952]}},{"type":"Feature","properties":{"SeqNo":"777311","Type":"A","DHID":"de:08222:2324:3","Parent":"de:08222:2324","Name":"TrRiW Damaschke","MunicipalityCode":"00000000","Municipality":"-","DistrictCode":"-","District":"-","Description":"","Authority":"VRN","DelfiName":"-","THID":"-","LastOperationDate":"","SEV":"nein","longitude":"8,524734","latitude":"49,495363","geojson_lng":8.524734,"geojson_lat":49.495363},"geometry":{"type":"Point","coordinates":[8.524734,49.495363]}},{"type":"Feature","properties":{"SeqNo":"777312","Type":"Q","DHID":"de:08222:2324:1:TrRiO","Parent":"de:08222:2324:1","Name":"TrRiO Hölderlinstr","MunicipalityCode":"00000000","Municipality":"-","DistrictCode":"-","District":"-","Description":"","Authority":"VRN","DelfiName":"-","THID":"-","LastOperationDate":"","SEV":"nein","longitude":"8,525138","latitude":"49,495369","geojson_lng":8.525138,"geojson_lat":49.495369},"geometry":{"type":"Point","coordinates":[8.525138,49.495369]}},{"type":"Feature","properties":{"SeqNo":"777313","Type":"Q","DHID":"de:08222:2324:2:Bus","Parent":"de:08222:2324:2","Name":"Bus","MunicipalityCode":"00000000","Municipality":"-","DistrictCode":"-","District":"-","Description":"","Authority":"VRN","DelfiName":"-","THID":"-","LastOperationDate":"","SEV":"nein","longitude":"8,524707","latitude":"49,495229","geojson_lng":8.524707,"geojson_lat":49.495229},"geometry":{"type":"Point","coordinates":[8.524707,49.495229]}},{"type":"Feature","properties":{"SeqNo":"777314","Type":"Q","DHID":"de:08222:2324:2:Bus 1","Parent":"de:08222:2324:2","Name":"Ri Hölderlin","MunicipalityCode":"00000000","Municipality":"-","DistrictCode":"-","District":"-","Description":"","Authority":"VRN","DelfiName":"-","THID":"-","LastOperationDate":"","SEV":"nein","longitude":"8,524778","latitude":"49,495182","geojson_lng":8.524778,"geojson_lat":49.495182},"geometry":{"type":"Point","coordinates":[8.524778,49.495182]}},{"type":"Feature","properties":{"SeqNo":"777315","Type":"Q","DHID":"de:08222:2324:3:TrRiW","Parent":"de:08222:2324:3","Name":"TrRiW Damaschke","MunicipalityCode":"00000000","Municipality":"-","DistrictCode":"-","District":"-","Description":"","Authority":"VRN","DelfiName":"-","THID":"-","LastOperationDate":"","SEV":"nein","longitude":"8,524671","latitude":"49,495328","geojson_lng":8.524671,"geojson_lat":49.495328},"geometry":{"type":"Point","coordinates":[8.524671,49.495328]}},{"type":"Feature","properties":{"SeqNo":"777316","Type":"S","DHID":"de:08222:2325","Parent":"de:08222:2325","Name":"Feudenheim, Ziethenstraße","MunicipalityCode":"08222000","Municipality":"Mannheim","DistrictCode":"","District":"","Description":"","Authority":"VRN","DelfiName":"-","THID":"D9201E000915","LastOperationDate":"2025-06-14T00:00:00","SEV":"nein","longitude":"8,519182","latitude":"49,490421","geojson_lng":8.519182,"geojson_lat":49.490421},"geometry":{"type":"Point","coordinates":[8.519182,49.490421]}},{"type":"Feature","properties":{"SeqNo":"777317","Type":"A","DHID":"de:08222:2325:1","Parent":"de:08222:2325","Name":"TrRiN Damaschke","MunicipalityCode":"00000000","Municipality":"-","DistrictCode":"-","District":"-","Description":"","Authority":"VRN","DelfiName":"-","THID":"-","LastOperationDate":"","SEV":"nein","longitude":"8,519317","latitude":"49,490468","geojson_lng":8.519317,"geojson_lat":49.490468},"geometry":{"type":"Point","coordinates":[8.519317,49.490468]}},{"type":"Feature","properties":{"SeqNo":"777318","Type":"A","DHID":"de:08222:2325:2","Parent":"de:08222:2325","Name":"BusRiN Damaschke","MunicipalityCode":"00000000","Municipality":"-","DistrictCode":"-","District":"-","Description":"","Authority":"VRN","DelfiName":"-","THID":"-","LastOperationDate":"","SEV":"nein","longitude":"8,518886","latitude":"49,490123","geojson_lng":8.518886,"geojson_lat":49.490123},"geometry":{"type":"Point","coordinates":[8.518886,49.490123]}},{"type":"Feature","properties":{"SeqNo":"777319","Type":"A","DHID":"de:08222:2325:3","Parent":"de:08222:2325","Name":"TrRiS Neckarplatt","MunicipalityCode":"00000000","Municipality":"-","DistrictCode":"-","District":"-","Description":"","Authority":"VRN","DelfiName":"-","THID":"-","LastOperationDate":"","SEV":"nein","longitude":"8,519029","latitude":"49,490386","geojson_lng":8.519029,"geojson_lat":49.490386},"geometry":{"type":"Point","coordinates":[8.519029,49.490386]}},{"type":"Feature","properties":{"SeqNo":"777320","Type":"A","DHID":"de:08222:2325:4","Parent":"de:08222:2325","Name":"BusRiS Neuostheim","MunicipalityCode":"00000000","Municipality":"-","DistrictCode":"-","District":"-","Description":"","Authority":"VRN","DelfiName":"-","THID":"-","LastOperationDate":"","SEV":"nein","longitude":"8,518948","latitude":"49,490374","geojson_lng":8.518948,"geojson_lat":49.490374},"geometry":{"type":"Point","coordinates":[8.518948,49.490374]}},{"type":"Feature","properties":{"SeqNo":"777321","Type":"Q","DHID":"de:08222:2325:1:TrRiN","Parent":"de:08222:2325:1","Name":"TrRiN Damaschke","MunicipalityCode":"00000000","Municipality":"-","DistrictCode":"-","District":"-","Description":"","Authority":"VRN","DelfiName":"-","THID":"-","LastOperationDate":"","SEV":"nein","longitude":"8,519281","latitude":"49,490468","geojson_lng":8.519281,"geojson_lat":49.490468},"geometry":{"type":"Point","coordinates":[8.519281,49.490468]}},{"type":"Feature","properties":{"SeqNo":"777322","Type":"Q","DHID":"de:08222:2325:2:BuRiN","Parent":"de:08222:2325:2","Name":"BuRiN Damaschke","MunicipalityCode":"00000000","Municipality":"-","DistrictCode":"-","District":"-","Description":"","Authority":"VRN","DelfiName":"-","THID":"-","LastOperationDate":"","SEV":"nein","longitude":"8,518904","latitude":"49,490123","geojson_lng":8.518904,"geojson_lat":49.490123},"geometry":{"type":"Point","coordinates":[8.518904,49.490123]}},{"type":"Feature","properties":{"SeqNo":"777323","Type":"Q","DHID":"de:08222:2325:3:TrRiS","Parent":"de:08222:2325:3","Name":"TrRiS Neckarplatt","MunicipalityCode":"00000000","Municipality":"-","DistrictCode":"-","District":"-","Description":"","Authority":"VRN","DelfiName":"-","THID":"-","LastOperationDate":"","SEV":"nein","longitude":"8,519029","latitude":"49,490357","geojson_lng":8.519029,"geojson_lat":49.490357},"geometry":{"type":"Point","coordinates":[8.519029,49.490357]}},{"type":"Feature","properties":{"SeqNo":"777324","Type":"Q","DHID":"de:08222:2325:4:BuRiS","Parent":"de:08222:2325:4","Name":"BuRiS Neuostheim/Fahrlach","MunicipalityCode":"00000000","Municipality":"-","DistrictCode":"-","District":"-","Description":"","Authority":"VRN","DelfiName":"-","THID":"-","LastOperationDate":"","SEV":"nein","longitude":"8,518975","latitude":"49,490363","geojson_lng":8.518975,"geojson_lat":49.490363},"geometry":{"type":"Point","coordinates":[8.518975,49.490363]}},{"type":"Feature","properties":{"SeqNo":"778977","Type":"S","DHID":"de:08222:4046","Parent":"de:08222:4046","Name":"Feudenh., BUGA23Haupteing. Sp.","MunicipalityCode":"08222000","Municipality":"Mannheim","DistrictCode":"","District":"","Description":"","Authority":"VRN","DelfiName":"-","THID":"D9201E000FCE","LastOperationDate":"2023-10-08T00:00:00","SEV":"nein","longitude":"8,522084","latitude":"49,496005","geojson_lng":8.522084,"geojson_lat":49.496005},"geometry":{"type":"Point","coordinates":[8.522084,49.496005]}}]}