{"type":"FeatureCollection","features":[{"type":"Feature","properties":{"SeqNo":"65101","Type":"S","DHID":"de:08326:1887","Parent":"de:08326:1887","Name":"Schwenningen Rietenstraße","MunicipalityCode":"08326074","Municipality":"Villingen-Schwenningen","DistrictCode":"-","District":"-","Description":"","Authority":"NVBW","DelfiName":"-","THID":"D9208600075F","LastOperationDate":"1999-12-31T00:00:00","SEV":"nein","longitude":"8,524114","latitude":"48,055926","geojson_lng":8.524114,"geojson_lat":48.055926},"geometry":{"type":"Point","coordinates":[8.524114,48.055926]}},{"type":"Feature","properties":{"SeqNo":"65836","Type":"S","DHID":"de:08326:8126","Parent":"de:08326:8126","Name":"Schwenningen Kleines Eschle","MunicipalityCode":"08326074","Municipality":"Villingen-Schwenningen","DistrictCode":"","District":"","Description":"","Authority":"NVBW","DelfiName":"-","THID":"D92086001FBE","LastOperationDate":"2024-12-14T00:00:00","SEV":"nein","longitude":"8,515625","latitude":"48,052083","geojson_lng":8.515625,"geojson_lat":48.052083},"geometry":{"type":"Point","coordinates":[8.515625,48.052083]}},{"type":"Feature","properties":{"SeqNo":"65837","Type":"Q","DHID":"de:08326:8126:0:1","Parent":"de:08326:8126","Name":"","MunicipalityCode":"00000000","Municipality":"-","DistrictCode":"-","District":"-","Description":"","Authority":"NVBW","DelfiName":"-","THID":"-","LastOperationDate":"","SEV":"nein","longitude":"8,515625","latitude":"48,052083","geojson_lng":8.515625,"geojson_lat":48.052083},"geometry":{"type":"Point","coordinates":[8.515625,48.052083]}},{"type":"Feature","properties":{"SeqNo":"65925","Type":"S","DHID":"de:08326:8169","Parent":"de:08326:8169","Name":"Schwenningen Rietenzentrum","MunicipalityCode":"08326074","Municipality":"Villingen-Schwenningen","DistrictCode":"","District":"","Description":"","Authority":"NVBW","DelfiName":"-","THID":"D92086001FE9","LastOperationDate":"2024-12-14T00:00:00","SEV":"nein","longitude":"8,523072","latitude":"48,05571","geojson_lng":8.523072,"geojson_lat":48.05571},"geometry":{"type":"Point","coordinates":[8.523072,48.05571]}},{"type":"Feature","properties":{"SeqNo":"65926","Type":"Q","DHID":"de:08326:8169:0:1","Parent":"de:08326:8169","Name":"","MunicipalityCode":"00000000","Municipality":"-","DistrictCode":"-","District":"-","Description":"","Authority":"NVBW","DelfiName":"-","THID":"-","LastOperationDate":"","SEV":"nein","longitude":"8,523072","latitude":"48,05571","geojson_lng":8.523072,"geojson_lat":48.05571},"geometry":{"type":"Point","coordinates":[8.523072,48.05571]}},{"type":"Feature","properties":{"SeqNo":"65927","Type":"S","DHID":"de:08326:8170","Parent":"de:08326:8170","Name":"Schwenningen Dickenhardtstr.","MunicipalityCode":"08326074","Municipality":"Villingen-Schwenningen","DistrictCode":"","District":"","Description":"","Authority":"NVBW","DelfiName":"-","THID":"D92086001FEA","LastOperationDate":"2024-12-14T00:00:00","SEV":"nein","longitude":"8,518445","latitude":"48,05278","geojson_lng":8.518445,"geojson_lat":48.05278},"geometry":{"type":"Point","coordinates":[8.518445,48.05278]}},{"type":"Feature","properties":{"SeqNo":"65928","Type":"Q","DHID":"de:08326:8170:0:1","Parent":"de:08326:8170","Name":"","MunicipalityCode":"00000000","Municipality":"-","DistrictCode":"-","District":"-","Description":"","Authority":"NVBW","DelfiName":"-","THID":"-","LastOperationDate":"","SEV":"nein","longitude":"8,517754","latitude":"48,053026","geojson_lng":8.517754,"geojson_lat":48.053026},"geometry":{"type":"Point","coordinates":[8.517754,48.053026]}},{"type":"Feature","properties":{"SeqNo":"65929","Type":"Q","DHID":"de:08326:8170:0:2","Parent":"de:08326:8170","Name":"","MunicipalityCode":"00000000","Municipality":"-","DistrictCode":"-","District":"-","Description":"","Authority":"NVBW","DelfiName":"-","THID":"-","LastOperationDate":"","SEV":"nein","longitude":"8,518517","latitude":"48,05281","geojson_lng":8.518517,"geojson_lat":48.05281},"geometry":{"type":"Point","coordinates":[8.518517,48.05281]}},{"type":"Feature","properties":{"SeqNo":"65930","Type":"S","DHID":"de:08326:8171","Parent":"de:08326:8171","Name":"Schwenningen Schubertstr.","MunicipalityCode":"08326074","Municipality":"Villingen-Schwenningen","DistrictCode":"","District":"","Description":"","Authority":"NVBW","DelfiName":"-","THID":"D92086001FEB","LastOperationDate":"2024-12-14T00:00:00","SEV":"nein","longitude":"8,522057","latitude":"48,053638","geojson_lng":8.522057,"geojson_lat":48.053638},"geometry":{"type":"Point","coordinates":[8.522057,48.053638]}},{"type":"Feature","properties":{"SeqNo":"65931","Type":"Q","DHID":"de:08326:8171:0:1","Parent":"de:08326:8171","Name":"","MunicipalityCode":"00000000","Municipality":"-","DistrictCode":"-","District":"-","Description":"","Authority":"NVBW","DelfiName":"-","THID":"-","LastOperationDate":"","SEV":"nein","longitude":"8,522012","latitude":"48,053572","geojson_lng":8.522012,"geojson_lat":48.053572},"geometry":{"type":"Point","coordinates":[8.522012,48.053572]}},{"type":"Feature","properties":{"SeqNo":"65932","Type":"Q","DHID":"de:08326:8171:0:2","Parent":"de:08326:8171","Name":"","MunicipalityCode":"00000000","Municipality":"-","DistrictCode":"-","District":"-","Description":"","Authority":"NVBW","DelfiName":"-","THID":"-","LastOperationDate":"","SEV":"nein","longitude":"8,522003","latitude":"48,05347","geojson_lng":8.522003,"geojson_lat":48.05347},"geometry":{"type":"Point","coordinates":[8.522003,48.05347]}},{"type":"Feature","properties":{"SeqNo":"65963","Type":"S","DHID":"de:08326:8184","Parent":"de:08326:8184","Name":"Schwenningen Enzstraße","MunicipalityCode":"08326074","Municipality":"Villingen-Schwenningen","DistrictCode":"","District":"","Description":"","Authority":"NVBW","DelfiName":"-","THID":"D92086001FF8","LastOperationDate":"2024-12-14T00:00:00","SEV":"nein","longitude":"8,515499","latitude":"48,055086","geojson_lng":8.515499,"geojson_lat":48.055086},"geometry":{"type":"Point","coordinates":[8.515499,48.055086]}},{"type":"Feature","properties":{"SeqNo":"65964","Type":"Q","DHID":"de:08326:8184:0:1","Parent":"de:08326:8184","Name":"","MunicipalityCode":"00000000","Municipality":"-","DistrictCode":"-","District":"-","Description":"","Authority":"NVBW","DelfiName":"-","THID":"-","LastOperationDate":"","SEV":"nein","longitude":"8,515499","latitude":"48,055086","geojson_lng":8.515499,"geojson_lat":48.055086},"geometry":{"type":"Point","coordinates":[8.515499,48.055086]}},{"type":"Feature","properties":{"SeqNo":"66531","Type":"Q","DHID":"de:08326:8460:0:2","Parent":"de:08326:8460","Name":"","MunicipalityCode":"00000000","Municipality":"-","DistrictCode":"-","District":"-","Description":"","Authority":"NVBW","DelfiName":"-","THID":"-","LastOperationDate":"","SEV":"nein","longitude":"8,525362","latitude":"48,053915","geojson_lng":8.525362,"geojson_lat":48.053915},"geometry":{"type":"Point","coordinates":[8.525362,48.053915]}},{"type":"Feature","properties":{"SeqNo":"66611","Type":"S","DHID":"de:08326:8514","Parent":"de:08326:8514","Name":"Schwenningen Hirzwaldweg","MunicipalityCode":"08326074","Municipality":"Villingen-Schwenningen","DistrictCode":"","District":"","Description":"","Authority":"NVBW","DelfiName":"-","THID":"D92086002142","LastOperationDate":"2024-12-14T00:00:00","SEV":"nein","longitude":"8,521086","latitude":"48,054833","geojson_lng":8.521086,"geojson_lat":48.054833},"geometry":{"type":"Point","coordinates":[8.521086,48.054833]}},{"type":"Feature","properties":{"SeqNo":"66612","Type":"Q","DHID":"de:08326:8514:0:1","Parent":"de:08326:8514","Name":"","MunicipalityCode":"00000000","Municipality":"-","DistrictCode":"-","District":"-","Description":"","Authority":"NVBW","DelfiName":"-","THID":"-","LastOperationDate":"","SEV":"nein","longitude":"8,521086","latitude":"48,054833","geojson_lng":8.521086,"geojson_lat":48.054833},"geometry":{"type":"Point","coordinates":[8.521086,48.054833]}},{"type":"Feature","properties":{"SeqNo":"66613","Type":"Q","DHID":"de:08326:8514:0:2","Parent":"de:08326:8514","Name":"","MunicipalityCode":"00000000","Municipality":"-","DistrictCode":"-","District":"-","Description":"","Authority":"NVBW","DelfiName":"-","THID":"-","LastOperationDate":"","SEV":"nein","longitude":"8,521006","latitude":"48,054851","geojson_lng":8.521006,"geojson_lat":48.054851},"geometry":{"type":"Point","coordinates":[8.521006,48.054851]}}]}