{"type":"FeatureCollection","features":[{"type":"Feature","properties":{"highway":"bus_stop","public_transport":"platform","name":"Voermanstraat","ref:IFOPT":"NL:Q:10003160","_quaycode":"NL:Q:10003160","_town":"Groningen","_status":"available","_mode":"bus","_direction":79,"_visuallyAccessible":false,"_disabledAccessible":true,"geojson_lng":6.539244551157593,"geojson_lat":53.22800037079536},"geometry":{"type":"Point","coordinates":[6.539244551157593,53.22800037079536]}},{"type":"Feature","properties":{"highway":"bus_stop","public_transport":"platform","name":"De Trefkoel","ref:IFOPT":"NL:Q:10001100","_quaycode":"NL:Q:10001100","_town":"Groningen","_status":"available","_mode":"bus","_direction":305,"_visuallyAccessible":false,"_disabledAccessible":true,"geojson_lng":6.541799568598386,"geojson_lat":53.23114798806853},"geometry":{"type":"Point","coordinates":[6.541799568598386,53.23114798806853]}},{"type":"Feature","properties":{"highway":"bus_stop","public_transport":"platform","name":"Winkelc P'poel","ref:IFOPT":"NL:Q:10004510","_quaycode":"NL:Q:10004510","_town":"Groningen","_status":"available","_mode":"bus","_direction":160,"_visuallyAccessible":false,"_disabledAccessible":true,"geojson_lng":6.543087085391318,"geojson_lat":53.22833186152067},"geometry":{"type":"Point","coordinates":[6.543087085391318,53.22833186152067]}},{"type":"Feature","properties":{"highway":"bus_stop","public_transport":"platform","name":"Siersteenlaan","ref:IFOPT":"NL:Q:10002830","_quaycode":"NL:Q:10002830","_town":"Groningen","_status":"available","_mode":"bus","_direction":341,"_visuallyAccessible":false,"_disabledAccessible":true,"geojson_lng":6.531849324898197,"geojson_lat":53.226965818215874},"geometry":{"type":"Point","coordinates":[6.531849324898197,53.226965818215874]}},{"type":"Feature","properties":{"highway":"bus_stop","public_transport":"platform","name":"De Trefkoel","ref:IFOPT":"NL:Q:10001090","_quaycode":"NL:Q:10001090","_town":"Groningen","_status":"available","_mode":"bus","_direction":156,"_visuallyAccessible":false,"_disabledAccessible":true,"geojson_lng":6.542075007258673,"geojson_lat":53.23024670592371},"geometry":{"type":"Point","coordinates":[6.542075007258673,53.23024670592371]}},{"type":"Feature","properties":{"highway":"bus_stop","public_transport":"platform","name":"Barnsteenstraat","ref:IFOPT":"NL:Q:10002880","_quaycode":"NL:Q:10002880","_town":"Groningen","_status":"available","_mode":"bus","_direction":340,"_visuallyAccessible":false,"_disabledAccessible":true,"geojson_lng":6.525881291067978,"geojson_lat":53.227229279455415},"geometry":{"type":"Point","coordinates":[6.525881291067978,53.227229279455415]}},{"type":"Feature","properties":{"highway":"bus_stop","public_transport":"platform","name":"De Trefkoel","ref:IFOPT":"NL:Q:10001080","_quaycode":"NL:Q:10001080","_town":"Groningen","_status":"available","_mode":"bus","_direction":82,"_visuallyAccessible":false,"_disabledAccessible":true,"geojson_lng":6.54279599890603,"geojson_lat":53.230886780822594},"geometry":{"type":"Point","coordinates":[6.54279599890603,53.230886780822594]}},{"type":"Feature","properties":{"highway":"bus_stop","public_transport":"platform","name":"Voermanstraat","ref:IFOPT":"NL:Q:10003150","_quaycode":"NL:Q:10003150","_town":"Groningen","_status":"available","_mode":"bus","_direction":259,"_visuallyAccessible":false,"_disabledAccessible":false,"geojson_lng":6.53778777728182,"geojson_lat":53.22784360644512},"geometry":{"type":"Point","coordinates":[6.53778777728182,53.22784360644512]}},{"type":"Feature","properties":{"highway":"bus_stop","public_transport":"platform","name":"Grote Beerstraat","ref:IFOPT":"NL:Q:10005160","_quaycode":"NL:Q:10005160","_town":"Groningen","_status":"available","_mode":"bus","_direction":319,"_visuallyAccessible":false,"_disabledAccessible":true,"geojson_lng":6.544638694383276,"geojson_lat":53.22699591603276},"geometry":{"type":"Point","coordinates":[6.544638694383276,53.22699591603276]}},{"type":"Feature","properties":{"highway":"bus_stop","public_transport":"platform","name":"Edelsteenlaan","ref:IFOPT":"NL:Q:10003180","_quaycode":"NL:Q:10003180","_town":"Groningen","_status":"available","_mode":"bus","_direction":324,"_visuallyAccessible":false,"_disabledAccessible":true,"geojson_lng":6.529611214525704,"geojson_lat":53.23010539404471},"geometry":{"type":"Point","coordinates":[6.529611214525704,53.23010539404471]}},{"type":"Feature","properties":{"highway":"bus_stop","public_transport":"platform","name":"Barnsteenstraat","ref:IFOPT":"NL:Q:10002870","_quaycode":"NL:Q:10002870","_town":"Groningen","_status":"available","_mode":"bus","_direction":160,"_visuallyAccessible":false,"_disabledAccessible":true,"geojson_lng":6.526085260907251,"geojson_lat":53.226445535070546},"geometry":{"type":"Point","coordinates":[6.526085260907251,53.226445535070546]}},{"type":"Feature","properties":{"highway":"bus_stop","public_transport":"platform","name":"Winkelc P'poel","ref:IFOPT":"NL:Q:10004180","_quaycode":"NL:Q:10004180","_town":"Groningen","_status":"available","_mode":"bus","_direction":335,"_visuallyAccessible":false,"_disabledAccessible":true,"geojson_lng":6.54290343297247,"geojson_lat":53.22930415351791},"geometry":{"type":"Point","coordinates":[6.54290343297247,53.22930415351791]}},{"type":"Feature","properties":{"highway":"bus_stop","public_transport":"platform","name":"Winkelc P'poel","ref:IFOPT":"NL:Q:10004170","_quaycode":"NL:Q:10004170","_town":"Groningen","_status":"available","_mode":"bus","_direction":257,"_visuallyAccessible":false,"_disabledAccessible":true,"geojson_lng":6.54230392049547,"geojson_lat":53.22872581419442},"geometry":{"type":"Point","coordinates":[6.54230392049547,53.22872581419442]}},{"type":"Feature","properties":{"highway":"bus_stop","public_transport":"platform","name":"Kometenstraat","ref:IFOPT":"NL:Q:10004090","_quaycode":"NL:Q:10004090","_town":"Groningen","_status":"available","_mode":"bus","_direction":333,"_visuallyAccessible":false,"_disabledAccessible":false,"geojson_lng":6.539609764627537,"geojson_lat":53.234395120394396},"geometry":{"type":"Point","coordinates":[6.539609764627537,53.234395120394396]}},{"type":"Feature","properties":{"highway":"bus_stop","public_transport":"platform","name":"Diamantlaan","ref:IFOPT":"NL:Q:10002860","_quaycode":"NL:Q:10002860","_town":"Groningen","_status":"available","_mode":"bus","_direction":81,"_visuallyAccessible":false,"_disabledAccessible":true,"geojson_lng":6.525810224773616,"geojson_lat":53.22964726938272},"geometry":{"type":"Point","coordinates":[6.525810224773616,53.22964726938272]}},{"type":"Feature","properties":{"highway":"bus_stop","public_transport":"platform","name":"Grote Beerstraat","ref:IFOPT":"NL:Q:10005150","_quaycode":"NL:Q:10005150","_town":"Groningen","_status":"available","_mode":"bus","_direction":138,"_visuallyAccessible":false,"_disabledAccessible":true,"geojson_lng":6.5448891604685695,"geojson_lat":53.22628357954836},"geometry":{"type":"Point","coordinates":[6.5448891604685695,53.22628357954836]}},{"type":"Feature","properties":{"highway":"bus_stop","public_transport":"platform","name":"Crematoriumlaan","ref:IFOPT":"NL:Q:10004110","_quaycode":"NL:Q:10004110","_town":"Groningen","_status":"available","_mode":"bus","_direction":330,"_visuallyAccessible":false,"_disabledAccessible":false,"geojson_lng":6.537706307141672,"geojson_lat":53.23772033929963},"geometry":{"type":"Point","coordinates":[6.537706307141672,53.23772033929963]}},{"type":"Feature","properties":{"highway":"bus_stop","public_transport":"platform","name":"Kometenstraat","ref:IFOPT":"NL:Q:10004100","_quaycode":"NL:Q:10004100","_town":"Groningen","_status":"available","_mode":"bus","_direction":153,"_visuallyAccessible":false,"_disabledAccessible":false,"geojson_lng":6.539707745981532,"geojson_lat":53.23357642566142},"geometry":{"type":"Point","coordinates":[6.539707745981532,53.23357642566142]}},{"type":"Feature","properties":{"highway":"bus_stop","public_transport":"platform","name":"Edelsteenlaan","ref:IFOPT":"NL:Q:10003170","_quaycode":"NL:Q:10003170","_town":"Groningen","_status":"available","_mode":"bus","_direction":144,"_visuallyAccessible":false,"_disabledAccessible":true,"geojson_lng":6.529637596082421,"geojson_lat":53.229970348351344},"geometry":{"type":"Point","coordinates":[6.529637596082421,53.229970348351344]}},{"type":"Feature","properties":{"highway":"bus_stop","public_transport":"platform","name":"Siersteenlaan","ref:IFOPT":"NL:Q:10002840","_quaycode":"NL:Q:10002840","_town":"Groningen","_status":"available","_mode":"bus","_direction":78,"_visuallyAccessible":false,"_disabledAccessible":true,"geojson_lng":6.532583593082829,"geojson_lat":53.226419633245705},"geometry":{"type":"Point","coordinates":[6.532583593082829,53.226419633245705]}},{"type":"Feature","properties":{"highway":"bus_stop","public_transport":"platform","name":"Crematoriumlaan","ref:IFOPT":"NL:Q:10004120","_quaycode":"NL:Q:10004120","_town":"Groningen","_status":"available","_mode":"bus","_direction":162,"_visuallyAccessible":false,"_disabledAccessible":false,"geojson_lng":6.537084150984359,"geojson_lat":53.23854405370536},"geometry":{"type":"Point","coordinates":[6.537084150984359,53.23854405370536]}}]}