{"type":"FeatureCollection","features":[{"type":"Feature","properties":{"SeqNo":"1458","Type":"S","DHID":"de:08111:2506","Parent":"de:08111:2506","Name":"Luginsland","MunicipalityCode":"08111000","Municipality":"Stuttgart","DistrictCode":"-","District":"-","Description":"","Authority":"NVBW","DelfiName":"-","THID":"D91FAF0009CA","LastOperationDate":"2025-02-28T00:00:00","SEV":"nein","longitude":"9,260804","latitude":"48,792251","geojson_lng":9.260804,"geojson_lat":48.792251},"geometry":{"type":"Point","coordinates":[9.260804,48.792251]}},{"type":"Feature","properties":{"SeqNo":"1459","Type":"Q","DHID":"de:08111:2506:0:3","Parent":"de:08111:2506","Name":"Rtg Gehrenwald","MunicipalityCode":"00000000","Municipality":"-","DistrictCode":"-","District":"-","Description":"Rtg Gehrenwald","Authority":"NVBW","DelfiName":"-","THID":"-","LastOperationDate":"","SEV":"nein","longitude":"9,260705","latitude":"48,792062","geojson_lng":9.260705,"geojson_lat":48.792062},"geometry":{"type":"Point","coordinates":[9.260705,48.792062]}},{"type":"Feature","properties":{"SeqNo":"1460","Type":"Q","DHID":"de:08111:2506:0:4","Parent":"de:08111:2506","Name":"Rtg Fellbach Steigstr.","MunicipalityCode":"00000000","Municipality":"-","DistrictCode":"-","District":"-","Description":"Rtg Fellbach Steigstr.","Authority":"NVBW","DelfiName":"-","THID":"-","LastOperationDate":"","SEV":"nein","longitude":"9,260912","latitude":"48,792423","geojson_lng":9.260912,"geojson_lat":48.792423},"geometry":{"type":"Point","coordinates":[9.260912,48.792423]}},{"type":"Feature","properties":{"SeqNo":"1461","Type":"S","DHID":"de:08111:2507","Parent":"de:08111:2507","Name":"Im Hag","MunicipalityCode":"08111000","Municipality":"Stuttgart","DistrictCode":"-","District":"-","Description":"","Authority":"NVBW","DelfiName":"-","THID":"D91FAF0009CB","LastOperationDate":"2025-02-28T00:00:00","SEV":"nein","longitude":"9,255235","latitude":"48,786996","geojson_lng":9.255235,"geojson_lat":48.786996},"geometry":{"type":"Point","coordinates":[9.255235,48.786996]}},{"type":"Feature","properties":{"SeqNo":"1462","Type":"Q","DHID":"de:08111:2507:0:3","Parent":"de:08111:2507","Name":"Rtg Untert. Alter Friedhof","MunicipalityCode":"00000000","Municipality":"-","DistrictCode":"-","District":"-","Description":"Rtg Untert. Alter Friedhof","Authority":"NVBW","DelfiName":"-","THID":"-","LastOperationDate":"","SEV":"nein","longitude":"9,25483","latitude":"48,786895","geojson_lng":9.25483,"geojson_lat":48.786895},"geometry":{"type":"Point","coordinates":[9.25483,48.786895]}},{"type":"Feature","properties":{"SeqNo":"1463","Type":"Q","DHID":"de:08111:2507:0:4","Parent":"de:08111:2507","Name":"Rtg Gehrenwald","MunicipalityCode":"00000000","Municipality":"-","DistrictCode":"-","District":"-","Description":"Rtg Gehrenwald","Authority":"NVBW","DelfiName":"-","THID":"-","LastOperationDate":"","SEV":"nein","longitude":"9,255747","latitude":"48,787191","geojson_lng":9.255747,"geojson_lat":48.787191},"geometry":{"type":"Point","coordinates":[9.255747,48.787191]}},{"type":"Feature","properties":{"SeqNo":"2619","Type":"S","DHID":"de:08111:5868","Parent":"de:08111:5868","Name":"Gehrenwald","MunicipalityCode":"08111000","Municipality":"Stuttgart","DistrictCode":"-","District":"-","Description":"","Authority":"NVBW","DelfiName":"-","THID":"D91FAF0016EC","LastOperationDate":"2025-02-28T00:00:00","SEV":"nein","longitude":"9,259214","latitude":"48,789902","geojson_lng":9.259214,"geojson_lat":48.789902},"geometry":{"type":"Point","coordinates":[9.259214,48.789902]}},{"type":"Feature","properties":{"SeqNo":"2620","Type":"Q","DHID":"de:08111:5868:0:3","Parent":"de:08111:5868","Name":"Rtg Im Hag","MunicipalityCode":"00000000","Municipality":"-","DistrictCode":"-","District":"-","Description":"Rtg Im Hag","Authority":"NVBW","DelfiName":"-","THID":"-","LastOperationDate":"","SEV":"nein","longitude":"9,258954","latitude":"48,7896","geojson_lng":9.258954,"geojson_lat":48.7896},"geometry":{"type":"Point","coordinates":[9.258954,48.7896]}},{"type":"Feature","properties":{"SeqNo":"2621","Type":"Q","DHID":"de:08111:5868:0:4","Parent":"de:08111:5868","Name":"Rtg Luginsland","MunicipalityCode":"00000000","Municipality":"-","DistrictCode":"-","District":"-","Description":"Rtg Luginsland","Authority":"NVBW","DelfiName":"-","THID":"-","LastOperationDate":"","SEV":"nein","longitude":"9,259573","latitude":"48,790221","geojson_lng":9.259573,"geojson_lat":48.790221},"geometry":{"type":"Point","coordinates":[9.259573,48.790221]}}]}