{"type":"FeatureCollection","features":[{"type":"Feature","properties":{"highway":"bus_stop","public_transport":"platform","name":"Jonk","ref:IFOPT":"NL:Q:36570580","_quaycode":"NL:Q:36570580","_town":"Zuidoostbeemster","_status":"available","_mode":"bus","_direction":283,"_visuallyAccessible":false,"_disabledAccessible":false,"geojson_lng":4.921723837886669,"geojson_lat":52.52827937265106},"geometry":{"type":"Point","coordinates":[4.921723837886669,52.52827937265106]}},{"type":"Feature","properties":{"highway":"bus_stop","public_transport":"platform","name":"Jonk","ref:IFOPT":"NL:Q:36570550","_quaycode":"NL:Q:36570550","_town":"Zuidoostbeemster","_status":"available","_mode":"bus","_direction":103,"_visuallyAccessible":false,"_disabledAccessible":false,"geojson_lng":4.922463169183214,"geojson_lat":52.52803960990519},"geometry":{"type":"Point","coordinates":[4.922463169183214,52.52803960990519]}},{"type":"Feature","properties":{"highway":"bus_stop","public_transport":"platform","name":"Jisperdijkje Nr 3","ref:IFOPT":"NL:Q:37520150","_quaycode":"NL:Q:37520150","_town":"Jisp","_status":"available","_mode":"bus","_direction":81,"_visuallyAccessible":false,"_disabledAccessible":false,"geojson_lng":4.903209898003451,"geojson_lat":52.509942887794516},"geometry":{"type":"Point","coordinates":[4.903209898003451,52.509942887794516]}},{"type":"Feature","properties":{"highway":"bus_stop","public_transport":"platform","name":"Arbeid Adelt","ref:IFOPT":"NL:Q:36570530","_quaycode":"NL:Q:36570530","_town":"Zuidoostbeemster","_status":"available","_mode":"bus","_direction":103,"_visuallyAccessible":false,"_disabledAccessible":false,"geojson_lng":4.911664550674589,"geojson_lat":52.53050432438427},"geometry":{"type":"Point","coordinates":[4.911664550674589,52.53050432438427]}},{"type":"Feature","properties":{"highway":"bus_stop","public_transport":"platform","name":"Arbeid Adelt","ref:IFOPT":"NL:Q:36570600","_quaycode":"NL:Q:36570600","_town":"Zuidoostbeemster","_status":"available","_mode":"bus","_direction":283,"_visuallyAccessible":false,"_disabledAccessible":false,"geojson_lng":4.911501289730449,"geojson_lat":52.53061151898286},"geometry":{"type":"Point","coordinates":[4.911501289730449,52.53061151898286]}},{"type":"Feature","properties":{"highway":"bus_stop","public_transport":"platform","name":"Kleine Bijenkorf","ref:IFOPT":"NL:Q:36470020","_quaycode":"NL:Q:36470020","_town":"Zuidoostbeemster","_status":"available","_mode":"bus","_direction":31,"_visuallyAccessible":false,"_disabledAccessible":false,"geojson_lng":4.905791336614033,"geojson_lat":52.536637014090175},"geometry":{"type":"Point","coordinates":[4.905791336614033,52.536637014090175]}},{"type":"Feature","properties":{"highway":"bus_stop","public_transport":"platform","name":"Jisperdijkje Nr 3","ref:IFOPT":"NL:Q:37520040","_quaycode":"NL:Q:37520040","_town":"Jisp","_status":"available","_mode":"bus","_direction":261,"_visuallyAccessible":false,"_disabledAccessible":false,"geojson_lng":4.903209898003451,"geojson_lat":52.509942887794516},"geometry":{"type":"Point","coordinates":[4.903209898003451,52.509942887794516]}},{"type":"Feature","properties":{"highway":"bus_stop","public_transport":"platform","name":"Volgerweg","ref:IFOPT":"NL:Q:36570120","_quaycode":"NL:Q:36570120","_town":"Zuidoostbeemster","_status":"available","_mode":"bus","_direction":31,"_visuallyAccessible":false,"_disabledAccessible":false,"geojson_lng":4.903678625058598,"geojson_lat":52.53306043443639},"geometry":{"type":"Point","coordinates":[4.903678625058598,52.53306043443639]}},{"type":"Feature","properties":{"highway":"bus_stop","public_transport":"platform","name":"Kleine Bijenkorf","ref:IFOPT":"NL:Q:36570010","_quaycode":"NL:Q:36570010","_town":"Zuidoostbeemster","_status":"available","_mode":"bus","_direction":211,"_visuallyAccessible":false,"_disabledAccessible":false,"geojson_lng":4.905600915218589,"geojson_lat":52.53652839314939},"geometry":{"type":"Point","coordinates":[4.905600915218589,52.53652839314939]}},{"type":"Feature","properties":{"highway":"bus_stop","public_transport":"platform","name":"Volgerweg","ref:IFOPT":"NL:Q:36570510","_quaycode":"NL:Q:36570510","_town":"Zuidoostbeemster","_status":"available","_mode":"bus","_direction":103,"_visuallyAccessible":false,"_disabledAccessible":false,"geojson_lng":4.9042185998720615,"geojson_lat":52.5321998427595},"geometry":{"type":"Point","coordinates":[4.9042185998720615,52.5321998427595]}}]}