{"type":"FeatureCollection","features":[{"type":"Feature","properties":{"highway":"bus_stop","public_transport":"platform","name":"Station","ref:IFOPT":"NL:Q:35261130","_quaycode":"NL:Q:35261130","_town":"Heerhugowaard","_status":"available","_mode":"bus","_direction":315,"_visuallyAccessible":true,"_disabledAccessible":true,"geojson_lng":4.824296046662885,"geojson_lat":52.66974890544626},"geometry":{"type":"Point","coordinates":[4.824296046662885,52.66974890544626]}},{"type":"Feature","properties":{"highway":"bus_stop","public_transport":"platform","name":"Broekerweg","ref:IFOPT":"NL:Q:35260050","_quaycode":"NL:Q:35260050","_town":"Heerhugowaard","_status":"available","_mode":"bus","_direction":63,"_visuallyAccessible":true,"_disabledAccessible":false,"geojson_lng":4.81902560461535,"geojson_lat":52.67032599064513},"geometry":{"type":"Point","coordinates":[4.81902560461535,52.67032599064513]}},{"type":"Feature","properties":{"highway":"bus_stop","public_transport":"platform","name":"Titanialaan","ref:IFOPT":"NL:Q:35261110","_quaycode":"NL:Q:35261110","_town":"Heerhugowaard","_status":"available","_mode":"bus","_direction":302,"_visuallyAccessible":false,"_disabledAccessible":true,"geojson_lng":4.828459013790092,"geojson_lat":52.67138621652487},"geometry":{"type":"Point","coordinates":[4.828459013790092,52.67138621652487]}},{"type":"Feature","properties":{"highway":"bus_stop","public_transport":"platform","name":"Edisonstraat","ref:IFOPT":"NL:Q:35261680","_quaycode":"NL:Q:35261680","_town":"Heerhugowaard","_status":"available","_mode":"bus","_direction":25,"_visuallyAccessible":false,"_disabledAccessible":true,"geojson_lng":4.831819721260492,"geojson_lat":52.67686613205027},"geometry":{"type":"Point","coordinates":[4.831819721260492,52.67686613205027]}},{"type":"Feature","properties":{"highway":"bus_stop","public_transport":"platform","name":"Edisonstraat","ref:IFOPT":"NL:Q:35261690","_quaycode":"NL:Q:35261690","_town":"Heerhugowaard","_status":"available","_mode":"bus","_direction":205,"_visuallyAccessible":false,"_disabledAccessible":true,"geojson_lng":4.831584067215993,"geojson_lat":52.67679313478588},"geometry":{"type":"Point","coordinates":[4.831584067215993,52.67679313478588]}},{"type":"Feature","properties":{"highway":"bus_stop","public_transport":"platform","name":"Broekerweg","ref:IFOPT":"NL:Q:35260060","_quaycode":"NL:Q:35260060","_town":"Heerhugowaard","_status":"available","_mode":"bus","_direction":241,"_visuallyAccessible":false,"_disabledAccessible":false,"geojson_lng":4.8171566766210026,"geojson_lat":52.66966098782335},"geometry":{"type":"Point","coordinates":[4.8171566766210026,52.66966098782335]}},{"type":"Feature","properties":{"highway":"bus_stop","public_transport":"platform","name":"Titanialaan","ref:IFOPT":"NL:Q:35261120","_quaycode":"NL:Q:35261120","_town":"Heerhugowaard","_status":"available","_mode":"bus","_direction":124,"_visuallyAccessible":false,"_disabledAccessible":true,"geojson_lng":4.82880302525982,"geojson_lat":52.671073281540885},"geometry":{"type":"Point","coordinates":[4.82880302525982,52.671073281540885]}},{"type":"Feature","properties":{"highway":"bus_stop","public_transport":"platform","name":"Station","ref:IFOPT":"NL:Q:35261601","_quaycode":"NL:Q:35261601","_town":"Heerhugowaard","_status":"available","_mode":"bus","_direction":315,"_visuallyAccessible":true,"_disabledAccessible":true,"geojson_lng":4.82423726081609,"geojson_lat":52.669721665825264},"geometry":{"type":"Point","coordinates":[4.82423726081609,52.669721665825264]}}]}