{"type":"FeatureCollection","features":[{"type":"Feature","properties":{"highway":"bus_stop","public_transport":"platform","name":"De Krom","ref:IFOPT":"NL:Q:53840140","_quaycode":"NL:Q:53840140","_town":"Groot-Ammers","_status":"available","_mode":"bus","_direction":50,"_visuallyAccessible":false,"_disabledAccessible":false,"geojson_lng":4.828700855936784,"geojson_lat":51.927723850303835},"geometry":{"type":"Point","coordinates":[4.828700855936784,51.927723850303835]}},{"type":"Feature","properties":{"highway":"bus_stop","public_transport":"platform","name":"Fortuynplein","ref:IFOPT":"NL:Q:53840070","_quaycode":"NL:Q:53840070","_town":"Groot-Ammers","_status":"available","_mode":"bus","_direction":253,"_visuallyAccessible":false,"_disabledAccessible":true,"geojson_lng":4.819331522644172,"geojson_lat":51.92361619810886},"geometry":{"type":"Point","coordinates":[4.819331522644172,51.92361619810886]}},{"type":"Feature","properties":{"highway":"bus_stop","public_transport":"platform","name":"Kade","ref:IFOPT":"NL:Q:53840080","_quaycode":"NL:Q:53840080","_town":"Groot-Ammers","_status":"available","_mode":"bus","_direction":90,"_visuallyAccessible":false,"_disabledAccessible":false,"geojson_lng":4.81232539553191,"geojson_lat":51.92240466151371},"geometry":{"type":"Point","coordinates":[4.81232539553191,51.92240466151371]}},{"type":"Feature","properties":{"highway":"bus_stop","public_transport":"platform","name":"Beatrixstraat","ref:IFOPT":"NL:Q:53840090","_quaycode":"NL:Q:53840090","_town":"Groot-Ammers","_status":"available","_mode":"bus","_direction":169,"_visuallyAccessible":true,"_disabledAccessible":true,"geojson_lng":4.822065793294846,"geojson_lat":51.924681019976845},"geometry":{"type":"Point","coordinates":[4.822065793294846,51.924681019976845]}},{"type":"Feature","properties":{"highway":"bus_stop","public_transport":"platform","name":"Fortuynplein","ref:IFOPT":"NL:Q:53840100","_quaycode":"NL:Q:53840100","_town":"Groot-Ammers","_status":"available","_mode":"bus","_direction":68,"_visuallyAccessible":false,"_disabledAccessible":true,"geojson_lng":4.819549300841263,"geojson_lat":51.92364421465495},"geometry":{"type":"Point","coordinates":[4.819549300841263,51.92364421465495]}},{"type":"Feature","properties":{"highway":"bus_stop","public_transport":"platform","name":"Beatrixstraat","ref:IFOPT":"NL:Q:53840120","_quaycode":"NL:Q:53840120","_town":"Groot-Ammers","_status":"available","_mode":"bus","_direction":357,"_visuallyAccessible":true,"_disabledAccessible":true,"geojson_lng":4.82213486193996,"geojson_lat":51.924968981818786},"geometry":{"type":"Point","coordinates":[4.82213486193996,51.924968981818786]}},{"type":"Feature","properties":{"highway":"bus_stop","public_transport":"platform","name":"Kade","ref:IFOPT":"NL:Q:53840050","_quaycode":"NL:Q:53840050","_town":"Groot-Ammers","_status":"available","_mode":"bus","_direction":267,"_visuallyAccessible":false,"_disabledAccessible":true,"geojson_lng":4.812310353690359,"geojson_lat":51.92244952963768},"geometry":{"type":"Point","coordinates":[4.812310353690359,51.92244952963768]}},{"type":"Feature","properties":{"highway":"bus_stop","public_transport":"platform","name":"De Krom","ref:IFOPT":"NL:Q:53840110","_quaycode":"NL:Q:53840110","_town":"Groot-Ammers","_status":"available","_mode":"bus","_direction":228,"_visuallyAccessible":true,"_disabledAccessible":false,"geojson_lng":4.828511638697665,"geojson_lat":51.92774092816183},"geometry":{"type":"Point","coordinates":[4.828511638697665,51.92774092816183]}}]}