{"type":"FeatureCollection","features":[{"type":"Feature","properties":{"SeqNo":"522559","Type":"S","DHID":"de:05114:21222","Parent":"de:05114:21222","Name":"Krefeld Reepenweg","MunicipalityCode":"05114000","Municipality":"Krefeld","DistrictCode":"","District":"","Description":"","Authority":"VRR","DelfiName":"-","THID":"D913FA0052E6","LastOperationDate":"2025-01-06T00:00:00","SEV":"nein","longitude":"6,498512","latitude":"51,371569","geojson_lng":6.498512,"geojson_lat":51.371569},"geometry":{"type":"Point","coordinates":[6.498512,51.371569]}},{"type":"Feature","properties":{"SeqNo":"522560","Type":"A","DHID":"de:05114:21222:1","Parent":"de:05114:21222","Name":"B1","MunicipalityCode":"00000000","Municipality":"-","DistrictCode":"-","District":"-","Description":"","Authority":"VRR","DelfiName":"-","THID":"-","LastOperationDate":"","SEV":"nein","longitude":"6,498592","latitude":"51,37167","geojson_lng":6.498592,"geojson_lat":51.37167},"geometry":{"type":"Point","coordinates":[6.498592,51.37167]}},{"type":"Feature","properties":{"SeqNo":"522561","Type":"A","DHID":"de:05114:21222:2","Parent":"de:05114:21222","Name":"B2","MunicipalityCode":"00000000","Municipality":"-","DistrictCode":"-","District":"-","Description":"","Authority":"VRR","DelfiName":"-","THID":"-","LastOperationDate":"","SEV":"nein","longitude":"6,498395","latitude":"51,371591","geojson_lng":6.498395,"geojson_lat":51.371591},"geometry":{"type":"Point","coordinates":[6.498395,51.371591]}},{"type":"Feature","properties":{"SeqNo":"522562","Type":"Q","DHID":"de:05114:21222:1:1","Parent":"de:05114:21222:1","Name":"Hin Ri. Am Mariengraben/Kempen","MunicipalityCode":"00000000","Municipality":"-","DistrictCode":"-","District":"-","Description":"","Authority":"VRR","DelfiName":"-","THID":"-","LastOperationDate":"","SEV":"nein","longitude":"6,498503","latitude":"51,371743","geojson_lng":6.498503,"geojson_lat":51.371743},"geometry":{"type":"Point","coordinates":[6.498503,51.371743]}},{"type":"Feature","properties":{"SeqNo":"522563","Type":"Q","DHID":"de:05114:21222:1:2","Parent":"de:05114:21222:2","Name":"Rück Ri. R. Schulzentrum/Feldblumenstr","MunicipalityCode":"00000000","Municipality":"-","DistrictCode":"-","District":"-","Description":"","Authority":"VRR","DelfiName":"-","THID":"-","LastOperationDate":"","SEV":"nein","longitude":"6,498485","latitude":"51,371507","geojson_lng":6.498485,"geojson_lat":51.371507},"geometry":{"type":"Point","coordinates":[6.498485,51.371507]}},{"type":"Feature","properties":{"SeqNo":"522645","Type":"S","DHID":"de:05114:21332","Parent":"de:05114:21332","Name":"Krefeld Reepenweg S`zentrum","MunicipalityCode":"05114000","Municipality":"Krefeld","DistrictCode":"","District":"","Description":"","Authority":"VRR","DelfiName":"-","THID":"D913FA005354","LastOperationDate":"2025-01-06T00:00:00","SEV":"nein","longitude":"6,496841","latitude":"51,370313","geojson_lng":6.496841,"geojson_lat":51.370313},"geometry":{"type":"Point","coordinates":[6.496841,51.370313]}},{"type":"Feature","properties":{"SeqNo":"522646","Type":"A","DHID":"de:05114:21332:1","Parent":"de:05114:21332","Name":"Schule","MunicipalityCode":"00000000","Municipality":"-","DistrictCode":"-","District":"-","Description":"","Authority":"VRR","DelfiName":"-","THID":"-","LastOperationDate":"","SEV":"nein","longitude":"6,496841","latitude":"51,370313","geojson_lng":6.496841,"geojson_lat":51.370313},"geometry":{"type":"Point","coordinates":[6.496841,51.370313]}},{"type":"Feature","properties":{"SeqNo":"522647","Type":"Q","DHID":"de:05114:21332:1:1","Parent":"de:05114:21332:1","Name":"Hin+Rück alle Linien (Wendeschleife)","MunicipalityCode":"00000000","Municipality":"-","DistrictCode":"-","District":"-","Description":"","Authority":"VRR","DelfiName":"-","THID":"-","LastOperationDate":"","SEV":"nein","longitude":"6,497092","latitude":"51,370318","geojson_lng":6.497092,"geojson_lat":51.370318},"geometry":{"type":"Point","coordinates":[6.497092,51.370318]}}]}