{"type":"FeatureCollection","features":[{"type":"Feature","properties":{"SeqNo":"860028","Type":"S","DHID":"de:14628:1500","Parent":"de:14628:1500","Name":"Obercarsdorf Bahnhof","MunicipalityCode":"14628060","Municipality":"Dippoldiswalde","DistrictCode":"","District":"","Description":"","Authority":"VVO","DelfiName":"Obercarsdorf, Bahnhof","THID":"D939240005DC","LastOperationDate":"2025-02-28T00:00:00","SEV":"ja","longitude":"13,665415","latitude":"50,860388","geojson_lng":13.665415,"geojson_lat":50.860388},"geometry":{"type":"Point","coordinates":[13.665415,50.860388]}},{"type":"Feature","properties":{"SeqNo":"860029","Type":"A","DHID":"de:14628:1500:1","Parent":"de:14628:1500","Name":"Bahn","MunicipalityCode":"00000000","Municipality":"-","DistrictCode":"-","District":"-","Description":"","Authority":"VVO","DelfiName":"-","THID":"-","LastOperationDate":"","SEV":"nein","longitude":"13,6651","latitude":"50,860195","geojson_lng":13.6651,"geojson_lat":50.860195},"geometry":{"type":"Point","coordinates":[13.6651,50.860195]}},{"type":"Feature","properties":{"SeqNo":"860030","Type":"A","DHID":"de:14628:1500:2","Parent":"de:14628:1500","Name":"Zugang","MunicipalityCode":"00000000","Municipality":"-","DistrictCode":"-","District":"-","Description":"","Authority":"VVO","DelfiName":"-","THID":"-","LastOperationDate":"","SEV":"nein","longitude":"13,665343","latitude":"50,860184","geojson_lng":13.665343,"geojson_lat":50.860184},"geometry":{"type":"Point","coordinates":[13.665343,50.860184]}},{"type":"Feature","properties":{"SeqNo":"860032","Type":"A","DHID":"de:14628:1500:4","Parent":"de:14628:1500","Name":"Bus Ri. Altenberg","MunicipalityCode":"00000000","Municipality":"-","DistrictCode":"-","District":"-","Description":"","Authority":"VVO","DelfiName":"-","THID":"-","LastOperationDate":"","SEV":"ja","longitude":"13,665127","latitude":"50,858148","geojson_lng":13.665127,"geojson_lat":50.858148},"geometry":{"type":"Point","coordinates":[13.665127,50.858148]}},{"type":"Feature","properties":{"SeqNo":"860034","Type":"Q","DHID":"de:14628:1500:4:1","Parent":"de:14628:1500:4","Name":"Ri. Altenberg","MunicipalityCode":"00000000","Municipality":"-","DistrictCode":"-","District":"-","Description":"","Authority":"VVO","DelfiName":"-","THID":"-","LastOperationDate":"","SEV":"ja","longitude":"13,665082","latitude":"50,858454","geojson_lng":13.665082,"geojson_lat":50.858454},"geometry":{"type":"Point","coordinates":[13.665082,50.858454]}},{"type":"Feature","properties":{"SeqNo":"860040","Type":"Q","DHID":"de:14628:1502:0:2","Parent":"de:14628:1502","Name":"nicht bedient","MunicipalityCode":"00000000","Municipality":"-","DistrictCode":"-","District":"-","Description":"","Authority":"VVO","DelfiName":"-","THID":"-","LastOperationDate":"","SEV":"nein","longitude":"13,660968","latitude":"50,861539","geojson_lng":13.660968,"geojson_lat":50.861539},"geometry":{"type":"Point","coordinates":[13.660968,50.861539]}}]}