{"type":"FeatureCollection","features":[{"type":"Feature","properties":{"SeqNo":"443494","Type":"S","DHID":"de:06437:23161","Parent":"de:06437:23161","Name":"Erbach (Odw.)-Günterfürst Altenwohnanlage","MunicipalityCode":"06437006","Municipality":"Erbach","DistrictCode":"-","District":"-","Description":"","Authority":"rms","DelfiName":"-","THID":"D91925005A79","LastOperationDate":"2025-06-14T00:00:00","SEV":"nein","longitude":"8,980045","latitude":"49,634276","geojson_lng":8.980045,"geojson_lat":49.634276},"geometry":{"type":"Point","coordinates":[8.980045,49.634276]}},{"type":"Feature","properties":{"SeqNo":"443495","Type":"A","DHID":"de:06437:23161:1","Parent":"de:06437:23161","Name":"Günterfürst Altenwohnanlage | NHaisterbach","MunicipalityCode":"00000000","Municipality":"-","DistrictCode":"-","District":"-","Description":"","Authority":"rms","DelfiName":"-","THID":"-","LastOperationDate":"","SEV":"nein","longitude":"8,980087","latitude":"49,634186","geojson_lng":8.980087,"geojson_lat":49.634186},"geometry":{"type":"Point","coordinates":[8.980087,49.634186]}},{"type":"Feature","properties":{"SeqNo":"443496","Type":"A","DHID":"de:06437:23161:2","Parent":"de:06437:23161","Name":"Günterfürst Altenwohnanlage | NSchönnen","MunicipalityCode":"00000000","Municipality":"-","DistrictCode":"-","District":"-","Description":"","Authority":"rms","DelfiName":"-","THID":"-","LastOperationDate":"","SEV":"nein","longitude":"8,979948","latitude":"49,634375","geojson_lng":8.979948,"geojson_lat":49.634375},"geometry":{"type":"Point","coordinates":[8.979948,49.634375]}},{"type":"Feature","properties":{"SeqNo":"443497","Type":"Q","DHID":"de:06437:23161:1:1","Parent":"de:06437:23161:1","Name":"NHaisterbach","MunicipalityCode":"00000000","Municipality":"-","DistrictCode":"-","District":"-","Description":"","Authority":"rms","DelfiName":"-","THID":"-","LastOperationDate":"","SEV":"nein","longitude":"8,980087","latitude":"49,634186","geojson_lng":8.980087,"geojson_lat":49.634186},"geometry":{"type":"Point","coordinates":[8.980087,49.634186]}},{"type":"Feature","properties":{"SeqNo":"443498","Type":"Q","DHID":"de:06437:23161:2:2","Parent":"de:06437:23161:2","Name":"NSchönnen","MunicipalityCode":"00000000","Municipality":"-","DistrictCode":"-","District":"-","Description":"","Authority":"rms","DelfiName":"-","THID":"-","LastOperationDate":"","SEV":"nein","longitude":"8,979948","latitude":"49,634375","geojson_lng":8.979948,"geojson_lat":49.634375},"geometry":{"type":"Point","coordinates":[8.979948,49.634375]}},{"type":"Feature","properties":{"SeqNo":"443499","Type":"S","DHID":"de:06437:23162","Parent":"de:06437:23162","Name":"Erbach (Odw.)-Günterfürst Mitte","MunicipalityCode":"06437006","Municipality":"Erbach","DistrictCode":"-","District":"-","Description":"","Authority":"rms","DelfiName":"-","THID":"D91925005A7A","LastOperationDate":"2025-06-14T00:00:00","SEV":"nein","longitude":"8,977594","latitude":"49,635705","geojson_lng":8.977594,"geojson_lat":49.635705},"geometry":{"type":"Point","coordinates":[8.977594,49.635705]}},{"type":"Feature","properties":{"SeqNo":"443500","Type":"A","DHID":"de:06437:23162:1","Parent":"de:06437:23162","Name":"Günterfürst Mitte | NHaisterbach","MunicipalityCode":"00000000","Municipality":"-","DistrictCode":"-","District":"-","Description":"","Authority":"rms","DelfiName":"-","THID":"-","LastOperationDate":"","SEV":"nein","longitude":"8,97765","latitude":"49,635588","geojson_lng":8.97765,"geojson_lat":49.635588},"geometry":{"type":"Point","coordinates":[8.97765,49.635588]}},{"type":"Feature","properties":{"SeqNo":"443501","Type":"A","DHID":"de:06437:23162:2","Parent":"de:06437:23162","Name":"Günterfürst Mitte | NSchönnen","MunicipalityCode":"00000000","Municipality":"-","DistrictCode":"-","District":"-","Description":"","Authority":"rms","DelfiName":"-","THID":"-","LastOperationDate":"","SEV":"nein","longitude":"8,977442","latitude":"49,635831","geojson_lng":8.977442,"geojson_lat":49.635831},"geometry":{"type":"Point","coordinates":[8.977442,49.635831]}},{"type":"Feature","properties":{"SeqNo":"443502","Type":"Q","DHID":"de:06437:23162:1:1","Parent":"de:06437:23162:1","Name":"NHaisterbach","MunicipalityCode":"00000000","Municipality":"-","DistrictCode":"-","District":"-","Description":"","Authority":"rms","DelfiName":"-","THID":"-","LastOperationDate":"","SEV":"nein","longitude":"8,97765","latitude":"49,635588","geojson_lng":8.97765,"geojson_lat":49.635588},"geometry":{"type":"Point","coordinates":[8.97765,49.635588]}},{"type":"Feature","properties":{"SeqNo":"443503","Type":"Q","DHID":"de:06437:23162:2:2","Parent":"de:06437:23162:2","Name":"NSchönnen","MunicipalityCode":"00000000","Municipality":"-","DistrictCode":"-","District":"-","Description":"","Authority":"rms","DelfiName":"-","THID":"-","LastOperationDate":"","SEV":"nein","longitude":"8,977442","latitude":"49,635831","geojson_lng":8.977442,"geojson_lat":49.635831},"geometry":{"type":"Point","coordinates":[8.977442,49.635831]}},{"type":"Feature","properties":{"SeqNo":"443504","Type":"S","DHID":"de:06437:23163","Parent":"de:06437:23163","Name":"Erbach (Odw.)-Günterfürst Post","MunicipalityCode":"06437006","Municipality":"Erbach","DistrictCode":"-","District":"-","Description":"","Authority":"rms","DelfiName":"-","THID":"D91925005A7B","LastOperationDate":"2025-06-14T00:00:00","SEV":"nein","longitude":"8,983395","latitude":"49,635346","geojson_lng":8.983395,"geojson_lat":49.635346},"geometry":{"type":"Point","coordinates":[8.983395,49.635346]}},{"type":"Feature","properties":{"SeqNo":"443505","Type":"A","DHID":"de:06437:23163:1","Parent":"de:06437:23163","Name":"Günterfürst Post | NHaisterbach","MunicipalityCode":"00000000","Municipality":"-","DistrictCode":"-","District":"-","Description":"","Authority":"rms","DelfiName":"-","THID":"-","LastOperationDate":"","SEV":"nein","longitude":"8,983782","latitude":"49,6354","geojson_lng":8.983782,"geojson_lat":49.6354},"geometry":{"type":"Point","coordinates":[8.983782,49.6354]}},{"type":"Feature","properties":{"SeqNo":"443506","Type":"A","DHID":"de:06437:23163:2","Parent":"de:06437:23163","Name":"Günterfürst Post | NSchönnen","MunicipalityCode":"00000000","Municipality":"-","DistrictCode":"-","District":"-","Description":"","Authority":"rms","DelfiName":"-","THID":"-","LastOperationDate":"","SEV":"nein","longitude":"8,983422","latitude":"49,635445","geojson_lng":8.983422,"geojson_lat":49.635445},"geometry":{"type":"Point","coordinates":[8.983422,49.635445]}},{"type":"Feature","properties":{"SeqNo":"443507","Type":"Q","DHID":"de:06437:23163:1:1","Parent":"de:06437:23163:1","Name":"NHaisterbach","MunicipalityCode":"00000000","Municipality":"-","DistrictCode":"-","District":"-","Description":"","Authority":"rms","DelfiName":"-","THID":"-","LastOperationDate":"","SEV":"nein","longitude":"8,983782","latitude":"49,6354","geojson_lng":8.983782,"geojson_lat":49.6354},"geometry":{"type":"Point","coordinates":[8.983782,49.6354]}},{"type":"Feature","properties":{"SeqNo":"443508","Type":"Q","DHID":"de:06437:23163:2:2","Parent":"de:06437:23163:2","Name":"NSchönnen","MunicipalityCode":"00000000","Municipality":"-","DistrictCode":"-","District":"-","Description":"","Authority":"rms","DelfiName":"-","THID":"-","LastOperationDate":"","SEV":"nein","longitude":"8,983422","latitude":"49,635445","geojson_lng":8.983422,"geojson_lat":49.635445},"geometry":{"type":"Point","coordinates":[8.983422,49.635445]}}]}