{"type":"FeatureCollection","features":[{"type":"Feature","properties":{"SeqNo":"79862","Type":"S","DHID":"de:08417:30290","Parent":"de:08417:30290","Name":"Stetten Brühl 1","MunicipalityCode":"08417031","Municipality":"Hechingen","DistrictCode":"","District":"","Description":"","Authority":"NVBW","DelfiName":"-","THID":"D920E1007652","LastOperationDate":"2025-06-14T00:00:00","SEV":"nein","longitude":"8,983225","latitude":"48,348883","geojson_lng":8.983225,"geojson_lat":48.348883},"geometry":{"type":"Point","coordinates":[8.983225,48.348883]}},{"type":"Feature","properties":{"SeqNo":"79863","Type":"Q","DHID":"de:08417:30290:0:1","Parent":"de:08417:30290","Name":"FR Brühl","MunicipalityCode":"00000000","Municipality":"-","DistrictCode":"-","District":"-","Description":"","Authority":"NVBW","DelfiName":"-","THID":"-","LastOperationDate":"","SEV":"nein","longitude":"8,983162","latitude":"48,348883","geojson_lng":8.983162,"geojson_lat":48.348883},"geometry":{"type":"Point","coordinates":[8.983162,48.348883]}},{"type":"Feature","properties":{"SeqNo":"79964","Type":"S","DHID":"de:08417:30330","Parent":"de:08417:30330","Name":"Hechingen H.-Crafoord-Str.","MunicipalityCode":"08417031","Municipality":"Hechingen","DistrictCode":"","District":"","Description":"","Authority":"NVBW","DelfiName":"-","THID":"D920E100767A","LastOperationDate":"2025-06-14T00:00:00","SEV":"nein","longitude":"8,976838","latitude":"48,351366","geojson_lng":8.976838,"geojson_lat":48.351366},"geometry":{"type":"Point","coordinates":[8.976838,48.351366]}},{"type":"Feature","properties":{"SeqNo":"79965","Type":"Q","DHID":"de:08417:30330:0:1","Parent":"de:08417:30330","Name":"FR First","MunicipalityCode":"00000000","Municipality":"-","DistrictCode":"-","District":"-","Description":"","Authority":"NVBW","DelfiName":"-","THID":"-","LastOperationDate":"","SEV":"nein","longitude":"8,976936","latitude":"48,351724","geojson_lng":8.976936,"geojson_lat":48.351724},"geometry":{"type":"Point","coordinates":[8.976936,48.351724]}},{"type":"Feature","properties":{"SeqNo":"79966","Type":"Q","DHID":"de:08417:30330:0:2","Parent":"de:08417:30330","Name":"FR Baxter/Sigmaringer Str.","MunicipalityCode":"00000000","Municipality":"-","DistrictCode":"-","District":"-","Description":"","Authority":"NVBW","DelfiName":"-","THID":"-","LastOperationDate":"","SEV":"nein","longitude":"8,976775","latitude":"48,351145","geojson_lng":8.976775,"geojson_lat":48.351145},"geometry":{"type":"Point","coordinates":[8.976775,48.351145]}},{"type":"Feature","properties":{"SeqNo":"80928","Type":"S","DHID":"de:08417:37469","Parent":"de:08417:37469","Name":"Stetten Baxter","MunicipalityCode":"08417031","Municipality":"Hechingen","DistrictCode":"","District":"","Description":"","Authority":"NVBW","DelfiName":"-","THID":"D920E100925D","LastOperationDate":"2025-06-14T00:00:00","SEV":"nein","longitude":"8,981284","latitude":"48,350411","geojson_lng":8.981284,"geojson_lat":48.350411},"geometry":{"type":"Point","coordinates":[8.981284,48.350411]}},{"type":"Feature","properties":{"SeqNo":"80929","Type":"Q","DHID":"de:08417:37469:0:1","Parent":"de:08417:37469","Name":"FR Brühl","MunicipalityCode":"00000000","Municipality":"-","DistrictCode":"-","District":"-","Description":"","Authority":"NVBW","DelfiName":"-","THID":"-","LastOperationDate":"","SEV":"nein","longitude":"8,981302","latitude":"48,350447","geojson_lng":8.981302,"geojson_lat":48.350447},"geometry":{"type":"Point","coordinates":[8.981302,48.350447]}}]}