{"type":"FeatureCollection","features":[{"type":"Feature","properties":{"highway":"bus_stop","public_transport":"platform","name":"Ruggeplein","ref:IFOPT":"NL:Q:88880500","_quaycode":"NL:Q:88880500","_town":"Brielle","_status":"available","_mode":"bus","_direction":122,"_visuallyAccessible":true,"_disabledAccessible":true,"geojson_lng":4.154279441538593,"geojson_lat":51.89908715307556},"geometry":{"type":"Point","coordinates":[4.154279441538593,51.89908715307556]}},{"type":"Feature","properties":{"highway":"bus_stop","public_transport":"platform","name":"Ruggeplein","ref:IFOPT":"NL:Q:88880361","_quaycode":"NL:Q:88880361","_town":"Brielle","_status":"available","_mode":"bus","_direction":302,"_visuallyAccessible":true,"_disabledAccessible":true,"geojson_lng":4.154436769802072,"geojson_lat":51.89917869567833},"geometry":{"type":"Point","coordinates":[4.154436769802072,51.89917869567833]}},{"type":"Feature","properties":{"highway":"bus_stop","public_transport":"platform","name":"Busstation Rugge","ref:IFOPT":"NL:Q:52670052","_quaycode":"NL:Q:52670052","_town":"Brielle","_status":"available","_mode":"bus","_direction":136,"_visuallyAccessible":true,"_disabledAccessible":true,"geojson_lng":4.155013619126314,"geojson_lat":51.90358045069968},"geometry":{"type":"Point","coordinates":[4.155013619126314,51.90358045069968]}},{"type":"Feature","properties":{"highway":"bus_stop","public_transport":"platform","name":"Busstation Rugge","ref:IFOPT":"NL:Q:31006599","_quaycode":"NL:Q:31006599","_town":"Brielle","_status":"available","_mode":"bus","_direction":318,"_visuallyAccessible":true,"_disabledAccessible":true,"geojson_lng":4.154752361352749,"geojson_lat":51.903568721466534},"geometry":{"type":"Point","coordinates":[4.154752361352749,51.903568721466534]}},{"type":"Feature","properties":{"highway":"bus_stop","public_transport":"platform","name":"Busstation Rugge","ref:IFOPT":"NL:Q:52670040","_quaycode":"NL:Q:52670040","_town":"Brielle","_status":"available","_mode":"bus","_direction":136,"_visuallyAccessible":true,"_disabledAccessible":true,"geojson_lng":4.1550035245400645,"geojson_lat":51.903418539833005},"geometry":{"type":"Point","coordinates":[4.1550035245400645,51.903418539833005]}},{"type":"Feature","properties":{"highway":"bus_stop","public_transport":"platform","name":"Centrum","ref:IFOPT":"NL:Q:52670142","_quaycode":"NL:Q:52670142","_town":"Brielle","_status":"available","_mode":"bus","_direction":281,"_visuallyAccessible":true,"_disabledAccessible":true,"geojson_lng":4.162314601102861,"geojson_lat":51.89909928463817},"geometry":{"type":"Point","coordinates":[4.162314601102861,51.89909928463817]}},{"type":"Feature","properties":{"highway":"bus_stop","public_transport":"platform","name":"Busstation Rugge","ref:IFOPT":"NL:Q:52670053","_quaycode":"NL:Q:52670053","_town":"Brielle","_status":"available","_mode":"bus","_direction":318,"_visuallyAccessible":true,"_disabledAccessible":true,"geojson_lng":4.154618160032805,"geojson_lat":51.903693162083265},"geometry":{"type":"Point","coordinates":[4.154618160032805,51.903693162083265]}},{"type":"Feature","properties":{"highway":"bus_stop","public_transport":"platform","name":"Busstation Rugge","ref:IFOPT":"NL:Q:88880860","_quaycode":"NL:Q:88880860","_town":"Brielle","_status":"available","_mode":"bus","_direction":318,"_visuallyAccessible":true,"_disabledAccessible":true,"geojson_lng":4.154618160032805,"geojson_lat":51.903693162083265},"geometry":{"type":"Point","coordinates":[4.154618160032805,51.903693162083265]}},{"type":"Feature","properties":{"highway":"bus_stop","public_transport":"platform","name":"Ruggeweg","ref:IFOPT":"NL:Q:88880061","_quaycode":"NL:Q:88880061","_town":"Brielle","_status":"available","_mode":"bus","_direction":303,"_visuallyAccessible":false,"_disabledAccessible":false,"geojson_lng":4.157779980279967,"geojson_lat":51.89701138025929},"geometry":{"type":"Point","coordinates":[4.157779980279967,51.89701138025929]}},{"type":"Feature","properties":{"highway":"bus_stop","public_transport":"platform","name":"Ruggeweg","ref:IFOPT":"NL:Q:88880350","_quaycode":"NL:Q:88880350","_town":"Brielle","_status":"available","_mode":"bus","_direction":123,"_visuallyAccessible":false,"_disabledAccessible":false,"geojson_lng":4.157693807761789,"geojson_lat":51.89697452180285},"geometry":{"type":"Point","coordinates":[4.157693807761789,51.89697452180285]}},{"type":"Feature","properties":{"highway":"bus_stop","public_transport":"platform","name":"G.J. van den Boogerdweg","ref:IFOPT":"NL:Q:52670160","_quaycode":"NL:Q:52670160","_town":"Brielle","_status":"available","_mode":"bus","_direction":130,"_visuallyAccessible":true,"_disabledAccessible":true,"geojson_lng":4.158071154203519,"geojson_lat":51.89964825322871},"geometry":{"type":"Point","coordinates":[4.158071154203519,51.89964825322871]}},{"type":"Feature","properties":{"highway":"bus_stop","public_transport":"platform","name":"G.J. van den Boogerdweg","ref:IFOPT":"NL:Q:52670170","_quaycode":"NL:Q:52670170","_town":"Brielle","_status":"available","_mode":"bus","_direction":1,"_visuallyAccessible":true,"_disabledAccessible":true,"geojson_lng":4.159958050871984,"geojson_lat":51.89866119133361},"geometry":{"type":"Point","coordinates":[4.159958050871984,51.89866119133361]}},{"type":"Feature","properties":{"highway":"bus_stop","public_transport":"platform","name":"Centrum","ref:IFOPT":"NL:Q:52670153","_quaycode":"NL:Q:52670153","_town":"Brielle","_status":"available","_mode":"bus","_direction":103,"_visuallyAccessible":false,"_disabledAccessible":true,"geojson_lng":4.162904229037243,"geojson_lat":51.89879080965777},"geometry":{"type":"Point","coordinates":[4.162904229037243,51.89879080965777]}}]}