{"type":"FeatureCollection","features":[{"type":"Feature","properties":{"SeqNo":"820743","Type":"S","DHID":"de:14521:20153","Parent":"de:14521:20153","Name":"Grießbach, GHG-Lager","MunicipalityCode":"14521150","Municipality":"Drebach","DistrictCode":"-","District":"-","Description":"","Authority":"VVO","DelfiName":"-","THID":"D938B9004EB9","LastOperationDate":"2025-02-28T00:00:00","SEV":"nein","longitude":"13,022769","latitude":"50,720724","geojson_lng":13.022769,"geojson_lat":50.720724},"geometry":{"type":"Point","coordinates":[13.022769,50.720724]}},{"type":"Feature","properties":{"SeqNo":"820744","Type":"Q","DHID":"de:14521:20153:0:BN","Parent":"de:14521:20153","Name":"Bus Nord","MunicipalityCode":"00000000","Municipality":"-","DistrictCode":"-","District":"-","Description":"Bus Nord","Authority":"VVO","DelfiName":"-","THID":"-","LastOperationDate":"","SEV":"nein","longitude":"13,022392","latitude":"50,720759","geojson_lng":13.022392,"geojson_lat":50.720759},"geometry":{"type":"Point","coordinates":[13.022392,50.720759]}},{"type":"Feature","properties":{"SeqNo":"820745","Type":"Q","DHID":"de:14521:20153:0:BO","Parent":"de:14521:20153","Name":"Bus Ost","MunicipalityCode":"00000000","Municipality":"-","DistrictCode":"-","District":"-","Description":"Bus Ost","Authority":"VVO","DelfiName":"-","THID":"-","LastOperationDate":"","SEV":"nein","longitude":"13,022598","latitude":"50,720599","geojson_lng":13.022598,"geojson_lat":50.720599},"geometry":{"type":"Point","coordinates":[13.022598,50.720599]}},{"type":"Feature","properties":{"SeqNo":"820746","Type":"Q","DHID":"de:14521:20153:0:BS","Parent":"de:14521:20153","Name":"Bus Süd","MunicipalityCode":"00000000","Municipality":"-","DistrictCode":"-","District":"-","Description":"Bus Süd","Authority":"VVO","DelfiName":"-","THID":"-","LastOperationDate":"","SEV":"nein","longitude":"13,022257","latitude":"50,72073","geojson_lng":13.022257,"geojson_lat":50.72073},"geometry":{"type":"Point","coordinates":[13.022257,50.72073]}},{"type":"Feature","properties":{"SeqNo":"820747","Type":"Q","DHID":"de:14521:20153:0:BW","Parent":"de:14521:20153","Name":"Bus West","MunicipalityCode":"00000000","Municipality":"-","DistrictCode":"-","District":"-","Description":"Bus West","Authority":"VVO","DelfiName":"-","THID":"-","LastOperationDate":"","SEV":"nein","longitude":"13,023065","latitude":"50,721236","geojson_lng":13.023065,"geojson_lat":50.721236},"geometry":{"type":"Point","coordinates":[13.023065,50.721236]}}]}