{"type":"FeatureCollection","features":[{"type":"Feature","properties":{"highway":"bus_stop","public_transport":"platform","name":"Veldhoen","ref:IFOPT":"NL:Q:57450020","_quaycode":"NL:Q:57450020","_town":"Baambrugge","_status":"available","_mode":"bus","_direction":220,"_visuallyAccessible":true,"_disabledAccessible":true,"geojson_lng":5.00210603189415,"geojson_lat":52.23773671186445},"geometry":{"type":"Point","coordinates":[5.00210603189415,52.23773671186445]}},{"type":"Feature","properties":{"highway":"bus_stop","public_transport":"platform","name":"Donkervliet","ref:IFOPT":"NL:Q:59450320","_quaycode":"NL:Q:59450320","_town":"Baambrugge","_status":"available","_mode":"bus","_direction":136,"_visuallyAccessible":true,"_disabledAccessible":true,"geojson_lng":4.993714316922117,"geojson_lat":52.23311625190023},"geometry":{"type":"Point","coordinates":[4.993714316922117,52.23311625190023]}},{"type":"Feature","properties":{"highway":"bus_stop","public_transport":"platform","name":"Veldhoen","ref:IFOPT":"NL:Q:57450030","_quaycode":"NL:Q:57450030","_town":"Baambrugge","_status":"available","_mode":"bus","_direction":40,"_visuallyAccessible":false,"_disabledAccessible":false,"geojson_lng":5.001423118010379,"geojson_lat":52.23714128380596},"geometry":{"type":"Point","coordinates":[5.001423118010379,52.23714128380596]}},{"type":"Feature","properties":{"highway":"bus_stop","public_transport":"platform","name":"Unicum","ref:IFOPT":"NL:Q:57450040","_quaycode":"NL:Q:57450040","_town":"Baambrugge","_status":"available","_mode":"bus","_direction":112,"_visuallyAccessible":false,"_disabledAccessible":false,"geojson_lng":5.0007045014912155,"geojson_lat":52.24066218586598},"geometry":{"type":"Point","coordinates":[5.0007045014912155,52.24066218586598]}},{"type":"Feature","properties":{"highway":"bus_stop","public_transport":"platform","name":"Donkervliet","ref:IFOPT":"NL:Q:57450010","_quaycode":"NL:Q:57450010","_town":"Baambrugge","_status":"available","_mode":"bus","_direction":312,"_visuallyAccessible":false,"_disabledAccessible":false,"geojson_lng":4.994507139184509,"geojson_lat":52.232849252692205},"geometry":{"type":"Point","coordinates":[4.994507139184509,52.232849252692205]}},{"type":"Feature","properties":{"highway":"bus_stop","public_transport":"platform","name":"Dorp","ref:IFOPT":"NL:Q:59450300","_quaycode":"NL:Q:59450300","_town":"Loenersloot","_status":"available","_mode":"bus","_direction":177,"_visuallyAccessible":true,"_disabledAccessible":true,"geojson_lng":4.9981967267469125,"geojson_lat":52.22941010514034},"geometry":{"type":"Point","coordinates":[4.9981967267469125,52.22941010514034]}},{"type":"Feature","properties":{"highway":"bus_stop","public_transport":"platform","name":"Unicum","ref:IFOPT":"NL:Q:57450050","_quaycode":"NL:Q:57450050","_town":"Baambrugge","_status":"available","_mode":"bus","_direction":298,"_visuallyAccessible":false,"_disabledAccessible":false,"geojson_lng":5.00149640452371,"geojson_lat":52.24051197934033},"geometry":{"type":"Point","coordinates":[5.00149640452371,52.24051197934033]}},{"type":"Feature","properties":{"highway":"bus_stop","public_transport":"platform","name":"Dorp","ref:IFOPT":"NL:Q:59450310","_quaycode":"NL:Q:59450310","_town":"Loenersloot","_status":"available","_mode":"bus","_direction":344,"_visuallyAccessible":false,"_disabledAccessible":true,"geojson_lng":4.998353022986862,"geojson_lat":52.22994989363992},"geometry":{"type":"Point","coordinates":[4.998353022986862,52.22994989363992]}}]}