{"type":"FeatureCollection","features":[{"type":"Feature","properties":{"SeqNo":"224168","Type":"S","DHID":"de:09576:8431","Parent":"de:09576:8431","Name":"Georgensgmünd Sportzentrum Papiermühle","MunicipalityCode":"09576121","Municipality":"Georgensgmünd","DistrictCode":"","District":"","Description":"","Authority":"BEG","DelfiName":"-","THID":"D925680020EF","LastOperationDate":"2024-12-06T00:00:00","SEV":"nein","longitude":"11,014028","latitude":"49,179372","geojson_lng":11.014028,"geojson_lat":49.179372},"geometry":{"type":"Point","coordinates":[11.014028,49.179372]}},{"type":"Feature","properties":{"SeqNo":"224169","Type":"Q","DHID":"de:09576:8431:0:1","Parent":"de:09576:8431","Name":"","MunicipalityCode":"00000000","Municipality":"-","DistrictCode":"-","District":"-","Description":"","Authority":"BEG","DelfiName":"-","THID":"-","LastOperationDate":"","SEV":"nein","longitude":"11,013956","latitude":"49,179372","geojson_lng":11.013956,"geojson_lat":49.179372},"geometry":{"type":"Point","coordinates":[11.013956,49.179372]}},{"type":"Feature","properties":{"SeqNo":"224172","Type":"S","DHID":"de:09576:8435","Parent":"de:09576:8435","Name":"Georgensgmünd Grundig-Werk","MunicipalityCode":"09576121","Municipality":"Georgensgmünd","DistrictCode":"","District":"","Description":"","Authority":"BEG","DelfiName":"-","THID":"D925680020F3","LastOperationDate":"1999-12-31T00:00:00","SEV":"nein","longitude":"11,012914","latitude":"49,174909","geojson_lng":11.012914,"geojson_lat":49.174909},"geometry":{"type":"Point","coordinates":[11.012914,49.174909]}},{"type":"Feature","properties":{"SeqNo":"224173","Type":"Q","DHID":"de:09576:8435:0:1","Parent":"de:09576:8435","Name":"1","MunicipalityCode":"00000000","Municipality":"-","DistrictCode":"-","District":"-","Description":"","Authority":"BEG","DelfiName":"-","THID":"-","LastOperationDate":"","SEV":"nein","longitude":"11,012914","latitude":"49,174909","geojson_lng":11.012914,"geojson_lat":49.174909},"geometry":{"type":"Point","coordinates":[11.012914,49.174909]}},{"type":"Feature","properties":{"SeqNo":"224174","Type":"Q","DHID":"de:09576:8435:0:2","Parent":"de:09576:8435","Name":"2","MunicipalityCode":"00000000","Municipality":"-","DistrictCode":"-","District":"-","Description":"","Authority":"BEG","DelfiName":"-","THID":"-","LastOperationDate":"","SEV":"nein","longitude":"11,012914","latitude":"49,174909","geojson_lng":11.012914,"geojson_lat":49.174909},"geometry":{"type":"Point","coordinates":[11.012914,49.174909]}},{"type":"Feature","properties":{"SeqNo":"224187","Type":"S","DHID":"de:09576:8441","Parent":"de:09576:8441","Name":"Georgensgm. Pleinfelder Str.","MunicipalityCode":"09576121","Municipality":"Georgensgmünd","DistrictCode":"","District":"","Description":"","Authority":"BEG","DelfiName":"-","THID":"D925680020F9","LastOperationDate":"2025-06-14T00:00:00","SEV":"nein","longitude":"11,012824","latitude":"49,175226","geojson_lng":11.012824,"geojson_lat":49.175226},"geometry":{"type":"Point","coordinates":[11.012824,49.175226]}},{"type":"Feature","properties":{"SeqNo":"224188","Type":"Q","DHID":"de:09576:8441:0:1","Parent":"de:09576:8441","Name":"1","MunicipalityCode":"00000000","Municipality":"-","DistrictCode":"-","District":"-","Description":"","Authority":"BEG","DelfiName":"-","THID":"-","LastOperationDate":"","SEV":"nein","longitude":"11,012636","latitude":"49,17532","geojson_lng":11.012636,"geojson_lat":49.17532},"geometry":{"type":"Point","coordinates":[11.012636,49.17532]}},{"type":"Feature","properties":{"SeqNo":"224189","Type":"Q","DHID":"de:09576:8441:0:2","Parent":"de:09576:8441","Name":"2","MunicipalityCode":"00000000","Municipality":"-","DistrictCode":"-","District":"-","Description":"","Authority":"BEG","DelfiName":"-","THID":"-","LastOperationDate":"","SEV":"nein","longitude":"11,012824","latitude":"49,175226","geojson_lng":11.012824,"geojson_lat":49.175226},"geometry":{"type":"Point","coordinates":[11.012824,49.175226]}},{"type":"Feature","properties":{"SeqNo":"224193","Type":"S","DHID":"de:09576:8443","Parent":"de:09576:8443","Name":"Georgensgmünd Galgenbuck","MunicipalityCode":"09576121","Municipality":"Georgensgmünd","DistrictCode":"","District":"","Description":"","Authority":"BEG","DelfiName":"-","THID":"D925680020FB","LastOperationDate":"1999-12-31T00:00:00","SEV":"nein","longitude":"11,011351","latitude":"49,181703","geojson_lng":11.011351,"geojson_lat":49.181703},"geometry":{"type":"Point","coordinates":[11.011351,49.181703]}},{"type":"Feature","properties":{"SeqNo":"224194","Type":"Q","DHID":"de:09576:8443:0:1","Parent":"de:09576:8443","Name":"1","MunicipalityCode":"00000000","Municipality":"-","DistrictCode":"-","District":"-","Description":"","Authority":"BEG","DelfiName":"-","THID":"-","LastOperationDate":"","SEV":"nein","longitude":"11,011351","latitude":"49,181703","geojson_lng":11.011351,"geojson_lat":49.181703},"geometry":{"type":"Point","coordinates":[11.011351,49.181703]}},{"type":"Feature","properties":{"SeqNo":"224195","Type":"Q","DHID":"de:09576:8443:0:2","Parent":"de:09576:8443","Name":"2","MunicipalityCode":"00000000","Municipality":"-","DistrictCode":"-","District":"-","Description":"","Authority":"BEG","DelfiName":"-","THID":"-","LastOperationDate":"","SEV":"nein","longitude":"11,011351","latitude":"49,181703","geojson_lng":11.011351,"geojson_lat":49.181703},"geometry":{"type":"Point","coordinates":[11.011351,49.181703]}},{"type":"Feature","properties":{"SeqNo":"224226","Type":"S","DHID":"de:09576:8453","Parent":"de:09576:8453","Name":"Georgensgmünd Industriestr.","MunicipalityCode":"09576121","Municipality":"Georgensgmünd","DistrictCode":"","District":"","Description":"","Authority":"BEG","DelfiName":"-","THID":"D92568002105","LastOperationDate":"1999-12-31T00:00:00","SEV":"nein","longitude":"11,011234","latitude":"49,179213","geojson_lng":11.011234,"geojson_lat":49.179213},"geometry":{"type":"Point","coordinates":[11.011234,49.179213]}},{"type":"Feature","properties":{"SeqNo":"224227","Type":"Q","DHID":"de:09576:8453:0:1","Parent":"de:09576:8453","Name":"1","MunicipalityCode":"00000000","Municipality":"-","DistrictCode":"-","District":"-","Description":"","Authority":"BEG","DelfiName":"-","THID":"-","LastOperationDate":"","SEV":"nein","longitude":"11,011234","latitude":"49,179213","geojson_lng":11.011234,"geojson_lat":49.179213},"geometry":{"type":"Point","coordinates":[11.011234,49.179213]}},{"type":"Feature","properties":{"SeqNo":"224228","Type":"Q","DHID":"de:09576:8453:0:2","Parent":"de:09576:8453","Name":"2","MunicipalityCode":"00000000","Municipality":"-","DistrictCode":"-","District":"-","Description":"","Authority":"BEG","DelfiName":"-","THID":"-","LastOperationDate":"","SEV":"nein","longitude":"11,011234","latitude":"49,179213","geojson_lng":11.011234,"geojson_lat":49.179213},"geometry":{"type":"Point","coordinates":[11.011234,49.179213]}},{"type":"Feature","properties":{"SeqNo":"224238","Type":"S","DHID":"de:09576:8457","Parent":"de:09576:8457","Name":"Georgensgmünd Planetentor","MunicipalityCode":"09576121","Municipality":"Georgensgmünd","DistrictCode":"","District":"","Description":"","Authority":"BEG","DelfiName":"-","THID":"D92568002109","LastOperationDate":"2024-12-06T00:00:00","SEV":"nein","longitude":"11,011782","latitude":"49,179242","geojson_lng":11.011782,"geojson_lat":49.179242},"geometry":{"type":"Point","coordinates":[11.011782,49.179242]}},{"type":"Feature","properties":{"SeqNo":"224239","Type":"Q","DHID":"de:09576:8457:0:1","Parent":"de:09576:8457","Name":"1","MunicipalityCode":"00000000","Municipality":"-","DistrictCode":"-","District":"-","Description":"","Authority":"BEG","DelfiName":"-","THID":"-","LastOperationDate":"","SEV":"nein","longitude":"11,011782","latitude":"49,179242","geojson_lng":11.011782,"geojson_lat":49.179242},"geometry":{"type":"Point","coordinates":[11.011782,49.179242]}},{"type":"Feature","properties":{"SeqNo":"224266","Type":"S","DHID":"de:09576:8470","Parent":"de:09576:8470","Name":"Georgensgm. Verbrauchermärkte","MunicipalityCode":"09576121","Municipality":"Georgensgmünd","DistrictCode":"","District":"","Description":"","Authority":"BEG","DelfiName":"-","THID":"D92568002116","LastOperationDate":"2024-12-06T00:00:00","SEV":"nein","longitude":"11,011207","latitude":"49,17505","geojson_lng":11.011207,"geojson_lat":49.17505},"geometry":{"type":"Point","coordinates":[11.011207,49.17505]}},{"type":"Feature","properties":{"SeqNo":"224267","Type":"Q","DHID":"de:09576:8470:0:1","Parent":"de:09576:8470","Name":"1","MunicipalityCode":"00000000","Municipality":"-","DistrictCode":"-","District":"-","Description":"","Authority":"BEG","DelfiName":"-","THID":"-","LastOperationDate":"","SEV":"nein","longitude":"11,011198","latitude":"49,175003","geojson_lng":11.011198,"geojson_lat":49.175003},"geometry":{"type":"Point","coordinates":[11.011198,49.175003]}},{"type":"Feature","properties":{"SeqNo":"224268","Type":"Q","DHID":"de:09576:8470:0:2","Parent":"de:09576:8470","Name":"2","MunicipalityCode":"00000000","Municipality":"-","DistrictCode":"-","District":"-","Description":"","Authority":"BEG","DelfiName":"-","THID":"-","LastOperationDate":"","SEV":"nein","longitude":"11,011207","latitude":"49,17505","geojson_lng":11.011207,"geojson_lat":49.17505},"geometry":{"type":"Point","coordinates":[11.011207,49.17505]}}]}