{"type":"FeatureCollection","features":[{"type":"Feature","properties":{"highway":"bus_stop","public_transport":"platform","name":"Molenreed","ref:IFOPT":"NL:Q:20640500","_quaycode":"NL:Q:20640500","_town":"Holwerd","_status":"available","_mode":"bus","_direction":119,"_visuallyAccessible":true,"_disabledAccessible":true,"geojson_lng":5.905148037789735,"geojson_lat":53.365765372625354},"geometry":{"type":"Point","coordinates":[5.905148037789735,53.365765372625354]}},{"type":"Feature","properties":{"highway":"bus_stop","public_transport":"platform","name":"Holwerd Provinciale weg","ref:IFOPT":"NL:Q:20640600","_quaycode":"NL:Q:20640600","_town":"Holwerd","_status":"available","_mode":"bus","_direction":248,"_visuallyAccessible":false,"_disabledAccessible":true,"geojson_lng":5.895816626912955,"geojson_lat":53.36807846105894},"geometry":{"type":"Point","coordinates":[5.895816626912955,53.36807846105894]}},{"type":"Feature","properties":{"highway":"bus_stop","public_transport":"platform","name":"Waaxens","ref:IFOPT":"NL:Q:20640310","_quaycode":"NL:Q:20640310","_town":"Waaxens","_status":"available","_mode":"bus","_direction":301,"_visuallyAccessible":false,"_disabledAccessible":false,"geojson_lng":5.918610394085472,"geojson_lat":53.357458165474306},"geometry":{"type":"Point","coordinates":[5.918610394085472,53.357458165474306]}},{"type":"Feature","properties":{"highway":"bus_stop","public_transport":"platform","name":"Molenreed","ref:IFOPT":"NL:Q:20640510","_quaycode":"NL:Q:20640510","_town":"Holwerd","_status":"available","_mode":"bus","_direction":264,"_visuallyAccessible":false,"_disabledAccessible":true,"geojson_lng":5.902694231163381,"geojson_lat":53.36658458685996},"geometry":{"type":"Point","coordinates":[5.902694231163381,53.36658458685996]}},{"type":"Feature","properties":{"highway":"bus_stop","public_transport":"platform","name":"De Polle","ref:IFOPT":"NL:Q:20640130","_quaycode":"NL:Q:20640130","_town":"Holwerd","_status":"available","_mode":"bus","_direction":91,"_visuallyAccessible":false,"_disabledAccessible":true,"geojson_lng":5.9011141140210315,"geojson_lat":53.37013151995724},"geometry":{"type":"Point","coordinates":[5.9011141140210315,53.37013151995724]}},{"type":"Feature","properties":{"highway":"bus_stop","public_transport":"platform","name":"De Polle","ref:IFOPT":"NL:Q:20640120","_quaycode":"NL:Q:20640120","_town":"Holwerd","_status":"available","_mode":"bus","_direction":271,"_visuallyAccessible":false,"_disabledAccessible":true,"geojson_lng":5.901115187220911,"geojson_lat":53.37022136771318},"geometry":{"type":"Point","coordinates":[5.901115187220911,53.37022136771318]}}]}