{"type":"FeatureCollection","features":[{"type":"Feature","properties":{"highway":"bus_stop","public_transport":"platform","name":"Kometensingel","ref:IFOPT":"NL:Q:30001210","_quaycode":"NL:Q:30001210","_town":"Amsterdam","_status":"available","_mode":"bus","_direction":232,"_visuallyAccessible":true,"_disabledAccessible":true,"geojson_lng":4.882623411254946,"geojson_lat":52.416521490378386},"geometry":{"type":"Point","coordinates":[4.882623411254946,52.416521490378386]}},{"type":"Feature","properties":{"highway":"bus_stop","public_transport":"platform","name":"Kometensingel","ref:IFOPT":"NL:Q:30001211","_quaycode":"NL:Q:30001211","_town":"Amsterdam","_status":"available","_mode":"bus","_direction":51,"_visuallyAccessible":true,"_disabledAccessible":true,"geojson_lng":4.882842657501817,"geojson_lat":52.416630275436894},"geometry":{"type":"Point","coordinates":[4.882842657501817,52.416630275436894]}},{"type":"Feature","properties":{"highway":"bus_stop","public_transport":"platform","name":"Bovenkruier","ref:IFOPT":"NL:Q:30001214","_quaycode":"NL:Q:30001214","_town":"Amsterdam","_status":"available","_mode":"bus","_direction":139,"_visuallyAccessible":true,"_disabledAccessible":true,"geojson_lng":4.884052509440883,"geojson_lat":52.42011363181447},"geometry":{"type":"Point","coordinates":[4.884052509440883,52.42011363181447]}},{"type":"Feature","properties":{"highway":"bus_stop","public_transport":"platform","name":"Petmolen","ref:IFOPT":"NL:Q:30001219","_quaycode":"NL:Q:30001219","_town":"Amsterdam","_status":"available","_mode":"bus","_direction":328,"_visuallyAccessible":true,"_disabledAccessible":true,"geojson_lng":4.886231768876712,"geojson_lat":52.41719289861696},"geometry":{"type":"Point","coordinates":[4.886231768876712,52.41719289861696]}},{"type":"Feature","properties":{"highway":"bus_stop","public_transport":"platform","name":"Petmolen","ref:IFOPT":"NL:Q:30001216","_quaycode":"NL:Q:30001216","_town":"Amsterdam","_status":"available","_mode":"bus","_direction":139,"_visuallyAccessible":false,"_disabledAccessible":true,"geojson_lng":4.88551819990711,"geojson_lat":52.41789990231264},"geometry":{"type":"Point","coordinates":[4.88551819990711,52.41789990231264]}},{"type":"Feature","properties":{"highway":"bus_stop","public_transport":"platform","name":"Oostzanerdijk","ref:IFOPT":"NL:Q:30001212","_quaycode":"NL:Q:30001212","_town":"Amsterdam","_status":"available","_mode":"bus","_direction":75,"_visuallyAccessible":true,"_disabledAccessible":true,"geojson_lng":4.881493263312501,"geojson_lat":52.42023755158232},"geometry":{"type":"Point","coordinates":[4.881493263312501,52.42023755158232]}},{"type":"Feature","properties":{"highway":"bus_stop","public_transport":"platform","name":"Molenaarsweg","ref:IFOPT":"NL:Q:30001378","_quaycode":"NL:Q:30001378","_town":"Amsterdam","_status":"available","_mode":"bus","_direction":262,"_visuallyAccessible":false,"_disabledAccessible":false,"geojson_lng":4.886301085078062,"geojson_lat":52.421462314248615},"geometry":{"type":"Point","coordinates":[4.886301085078062,52.421462314248615]}},{"type":"Feature","properties":{"highway":"bus_stop","public_transport":"platform","name":"Molenaarsweg","ref:IFOPT":"NL:Q:30001379","_quaycode":"NL:Q:30001379","_town":"Amsterdam","_status":"available","_mode":"bus","_direction":81,"_visuallyAccessible":false,"_disabledAccessible":false,"geojson_lng":4.887462379029056,"geojson_lat":52.4214672174598},"geometry":{"type":"Point","coordinates":[4.887462379029056,52.4214672174598]}},{"type":"Feature","properties":{"highway":"bus_stop","public_transport":"platform","name":"Oostzanerdijk","ref:IFOPT":"NL:Q:30001213","_quaycode":"NL:Q:30001213","_town":"Amsterdam","_status":"available","_mode":"bus","_direction":255,"_visuallyAccessible":true,"_disabledAccessible":true,"geojson_lng":4.8808302444400296,"geojson_lat":52.42036953453411},"geometry":{"type":"Point","coordinates":[4.8808302444400296,52.42036953453411]}},{"type":"Feature","properties":{"highway":"bus_stop","public_transport":"platform","name":"Bovenkruier","ref:IFOPT":"NL:Q:30001215","_quaycode":"NL:Q:30001215","_town":"Amsterdam","_status":"available","_mode":"bus","_direction":327,"_visuallyAccessible":true,"_disabledAccessible":true,"geojson_lng":4.884138766909593,"geojson_lat":52.420284762944085},"geometry":{"type":"Point","coordinates":[4.884138766909593,52.420284762944085]}}]}