{"type":"FeatureCollection","features":[{"type":"Feature","properties":{"highway":"bus_stop","public_transport":"platform","name":"Landwinkel Drogenbroek","ref:IFOPT":"NL:Q:59450170","_quaycode":"NL:Q:59450170","_town":"Loenen","_status":"available","_mode":"bus","_direction":190,"_visuallyAccessible":false,"_disabledAccessible":false,"geojson_lng":5.0115507469467415,"geojson_lat":52.240966799239544},"geometry":{"type":"Point","coordinates":[5.0115507469467415,52.240966799239544]}},{"type":"Feature","properties":{"highway":"bus_stop","public_transport":"platform","name":"Landwinkel Drogenbroek","ref:IFOPT":"NL:Q:59450160","_quaycode":"NL:Q:59450160","_town":"Loenen","_status":"available","_mode":"bus","_direction":10,"_visuallyAccessible":false,"_disabledAccessible":false,"geojson_lng":5.0115507469467415,"geojson_lat":52.240966799239544},"geometry":{"type":"Point","coordinates":[5.0115507469467415,52.240966799239544]}},{"type":"Feature","properties":{"highway":"bus_stop","public_transport":"platform","name":"Poldergemaal","ref:IFOPT":"NL:Q:58660130","_quaycode":"NL:Q:58660130","_town":"Nederhorst den Berg","_status":"available","_mode":"bus","_direction":153,"_visuallyAccessible":false,"_disabledAccessible":false,"geojson_lng":5.052982646672163,"geojson_lat":52.24900054879562},"geometry":{"type":"Point","coordinates":[5.052982646672163,52.24900054879562]}},{"type":"Feature","properties":{"highway":"bus_stop","public_transport":"platform","name":"Poldergemaal","ref:IFOPT":"NL:Q:58560020","_quaycode":"NL:Q:58560020","_town":"Nederhorst den Berg","_status":"available","_mode":"bus","_direction":339,"_visuallyAccessible":true,"_disabledAccessible":true,"geojson_lng":5.053363234473501,"geojson_lat":52.249019600080594},"geometry":{"type":"Point","coordinates":[5.053363234473501,52.249019600080594]}},{"type":"Feature","properties":{"highway":"bus_stop","public_transport":"platform","name":"Overmeer","ref:IFOPT":"NL:Q:58560030","_quaycode":"NL:Q:58560030","_town":"Nederhorst den Berg","_status":"available","_mode":"bus","_direction":191,"_visuallyAccessible":true,"_disabledAccessible":true,"geojson_lng":5.046274393512259,"geojson_lat":52.25302591880234},"geometry":{"type":"Point","coordinates":[5.046274393512259,52.25302591880234]}},{"type":"Feature","properties":{"highway":"bus_stop","public_transport":"platform","name":"Centrum","ref:IFOPT":"NL:Q:58560070","_quaycode":"NL:Q:58560070","_town":"Nederhorst den Berg","_status":"available","_mode":"bus","_direction":194,"_visuallyAccessible":false,"_disabledAccessible":true,"geojson_lng":5.045569938607414,"geojson_lat":52.26467211401218},"geometry":{"type":"Point","coordinates":[5.045569938607414,52.26467211401218]}},{"type":"Feature","properties":{"highway":"bus_stop","public_transport":"platform","name":"Centrum","ref:IFOPT":"NL:Q:58560080","_quaycode":"NL:Q:58560080","_town":"Nederhorst den Berg","_status":"available","_mode":"bus","_direction":10,"_visuallyAccessible":false,"_disabledAccessible":true,"geojson_lng":5.045548852444064,"geojson_lat":52.263602502215896},"geometry":{"type":"Point","coordinates":[5.045548852444064,52.263602502215896]}},{"type":"Feature","properties":{"highway":"bus_stop","public_transport":"platform","name":"Lange Wetering","ref:IFOPT":"NL:Q:58560060","_quaycode":"NL:Q:58560060","_town":"Nederhorst den Berg","_status":"available","_mode":"bus","_direction":13,"_visuallyAccessible":true,"_disabledAccessible":true,"geojson_lng":5.044494868666507,"geojson_lat":52.25970772242365},"geometry":{"type":"Point","coordinates":[5.044494868666507,52.25970772242365]}},{"type":"Feature","properties":{"highway":"bus_stop","public_transport":"platform","name":"Lange Wetering","ref:IFOPT":"NL:Q:58560050","_quaycode":"NL:Q:58560050","_town":"Nederhorst den Berg","_status":"available","_mode":"bus","_direction":193,"_visuallyAccessible":true,"_disabledAccessible":true,"geojson_lng":5.0441761739342175,"geojson_lat":52.25924841869604},"geometry":{"type":"Point","coordinates":[5.0441761739342175,52.25924841869604]}}]}