{"type":"FeatureCollection","features":[{"type":"Feature","properties":{"highway":"bus_stop","public_transport":"platform","name":"Dorpstraat","ref:IFOPT":"NL:Q:73140700","_quaycode":"NL:Q:73140700","_town":"Riel","_status":"available","_mode":"bus","_direction":353,"_visuallyAccessible":false,"_disabledAccessible":true,"geojson_lng":5.023501921202088,"geojson_lat":51.526961301804555},"geometry":{"type":"Point","coordinates":[5.023501921202088,51.526961301804555]}},{"type":"Feature","properties":{"highway":"bus_stop","public_transport":"platform","name":"Veertels","ref:IFOPT":"NL:Q:73141600","_quaycode":"NL:Q:73141600","_town":"Riel","_status":"available","_mode":"bus","_direction":248,"_visuallyAccessible":true,"_disabledAccessible":true,"geojson_lng":5.015294434950712,"geojson_lat":51.520895061321276},"geometry":{"type":"Point","coordinates":[5.015294434950712,51.520895061321276]}},{"type":"Feature","properties":{"highway":"bus_stop","public_transport":"platform","name":"Dorpsplein","ref:IFOPT":"NL:Q:73141100","_quaycode":"NL:Q:73141100","_town":"Riel","_status":"available","_mode":"bus","_direction":10,"_visuallyAccessible":false,"_disabledAccessible":true,"geojson_lng":5.022908145666314,"geojson_lat":51.523732508894724},"geometry":{"type":"Point","coordinates":[5.022908145666314,51.523732508894724]}},{"type":"Feature","properties":{"highway":"bus_stop","public_transport":"platform","name":"Veertels","ref:IFOPT":"NL:Q:73141700","_quaycode":"NL:Q:73141700","_town":"Riel","_status":"available","_mode":"bus","_direction":68,"_visuallyAccessible":true,"_disabledAccessible":true,"geojson_lng":5.015870167993742,"geojson_lat":51.52096880191408},"geometry":{"type":"Point","coordinates":[5.015870167993742,51.52096880191408]}},{"type":"Feature","properties":{"highway":"bus_stop","public_transport":"platform","name":"Dorpstraat","ref:IFOPT":"NL:Q:73140600","_quaycode":"NL:Q:73140600","_town":"Riel","_status":"available","_mode":"bus","_direction":173,"_visuallyAccessible":false,"_disabledAccessible":true,"geojson_lng":5.023400188676254,"geojson_lat":51.52706884954988},"geometry":{"type":"Point","coordinates":[5.023400188676254,51.52706884954988]}},{"type":"Feature","properties":{"highway":"bus_stop","public_transport":"platform","name":"Acacialaan","ref:IFOPT":"NL:Q:73010120","_quaycode":"NL:Q:73010120","_town":"Goirle","_status":"available","_mode":"bus","_direction":63,"_visuallyAccessible":true,"_disabledAccessible":true,"geojson_lng":5.046803493450178,"geojson_lat":51.52501802778753},"geometry":{"type":"Point","coordinates":[5.046803493450178,51.52501802778753]}},{"type":"Feature","properties":{"highway":"bus_stop","public_transport":"platform","name":"Baarsven","ref:IFOPT":"NL:Q:73010210","_quaycode":"NL:Q:73010210","_town":"Goirle","_status":"available","_mode":"bus","_direction":148,"_visuallyAccessible":true,"_disabledAccessible":true,"geojson_lng":5.0508685602835,"geojson_lat":51.52870617082824},"geometry":{"type":"Point","coordinates":[5.0508685602835,51.52870617082824]}},{"type":"Feature","properties":{"highway":"bus_stop","public_transport":"platform","name":"Hoogeindseweg","ref:IFOPT":"NL:Q:73010040","_quaycode":"NL:Q:73010040","_town":"Goirle","_status":"available","_mode":"bus","_direction":317,"_visuallyAccessible":true,"_disabledAccessible":true,"geojson_lng":5.051727871071129,"geojson_lat":51.521616564968326},"geometry":{"type":"Point","coordinates":[5.051727871071129,51.521616564968326]}},{"type":"Feature","properties":{"highway":"bus_stop","public_transport":"platform","name":"Hoogeindseweg","ref:IFOPT":"NL:Q:73010050","_quaycode":"NL:Q:73010050","_town":"Goirle","_status":"available","_mode":"bus","_direction":137,"_visuallyAccessible":true,"_disabledAccessible":true,"geojson_lng":5.0518584734336915,"geojson_lat":51.52149109813635},"geometry":{"type":"Point","coordinates":[5.0518584734336915,51.52149109813635]}},{"type":"Feature","properties":{"highway":"bus_stop","public_transport":"platform","name":"Vonderstraat","ref:IFOPT":"NL:Q:73140400","_quaycode":"NL:Q:73140400","_town":"Riel","_status":"available","_mode":"bus","_direction":249,"_visuallyAccessible":true,"_disabledAccessible":true,"geojson_lng":5.0275222717461014,"geojson_lat":51.52879844981293},"geometry":{"type":"Point","coordinates":[5.0275222717461014,51.52879844981293]}},{"type":"Feature","properties":{"highway":"bus_stop","public_transport":"platform","name":"Rielsedijk","ref:IFOPT":"NL:Q:73140300","_quaycode":"NL:Q:73140300","_town":"Riel","_status":"available","_mode":"bus","_direction":252,"_visuallyAccessible":false,"_disabledAccessible":false,"geojson_lng":5.0319529899947675,"geojson_lat":51.52980075808306},"geometry":{"type":"Point","coordinates":[5.0319529899947675,51.52980075808306]}},{"type":"Feature","properties":{"highway":"bus_stop","public_transport":"platform","name":"Kerkstraat","ref:IFOPT":"NL:Q:73140900","_quaycode":"NL:Q:73140900","_town":"Riel","_status":"available","_mode":"bus","_direction":60,"_visuallyAccessible":true,"_disabledAccessible":true,"geojson_lng":5.020413537388166,"geojson_lat":51.5221696600627},"geometry":{"type":"Point","coordinates":[5.020413537388166,51.5221696600627]}},{"type":"Feature","properties":{"highway":"bus_stop","public_transport":"platform","name":"Kerkstraat","ref:IFOPT":"NL:Q:73140800","_quaycode":"NL:Q:73140800","_town":"Riel","_status":"available","_mode":"bus","_direction":240,"_visuallyAccessible":true,"_disabledAccessible":true,"geojson_lng":5.020441556837625,"geojson_lat":51.52226862374712},"geometry":{"type":"Point","coordinates":[5.020441556837625,51.52226862374712]}},{"type":"Feature","properties":{"highway":"bus_stop","public_transport":"platform","name":"Vonderstraat","ref:IFOPT":"NL:Q:73140500","_quaycode":"NL:Q:73140500","_town":"Riel","_status":"available","_mode":"bus","_direction":69,"_visuallyAccessible":true,"_disabledAccessible":true,"geojson_lng":5.026875863841734,"geojson_lat":51.52853578644075},"geometry":{"type":"Point","coordinates":[5.026875863841734,51.52853578644075]}},{"type":"Feature","properties":{"highway":"bus_stop","public_transport":"platform","name":"Dorpsplein","ref:IFOPT":"NL:Q:73141110","_quaycode":"NL:Q:73141110","_town":"Riel","_status":"available","_mode":"bus","_direction":184,"_visuallyAccessible":true,"_disabledAccessible":true,"geojson_lng":5.022947628571542,"geojson_lat":51.52420004444798},"geometry":{"type":"Point","coordinates":[5.022947628571542,51.52420004444798]}},{"type":"Feature","properties":{"highway":"bus_stop","public_transport":"platform","name":"Spoorbaan","ref:IFOPT":"NL:Q:73010220","_quaycode":"NL:Q:73010220","_town":"Goirle","_status":"available","_mode":"bus","_direction":307,"_visuallyAccessible":true,"_disabledAccessible":true,"geojson_lng":5.045510048348014,"geojson_lat":51.52072664666901},"geometry":{"type":"Point","coordinates":[5.045510048348014,51.52072664666901]}}]}