{"type":"FeatureCollection","features":[{"type":"Feature","properties":{"SeqNo":"44934","Type":"S","DHID":"de:08216:30098","Parent":"de:08216:30098","Name":"Durmersheim Friedhof","MunicipalityCode":"08216009","Municipality":"Durmersheim","DistrictCode":"","District":"","Description":"","Authority":"NVBW","DelfiName":"-","THID":"D92018007592","LastOperationDate":"2025-06-13T00:00:00","SEV":"nein","longitude":"8,271184","latitude":"48,931262","geojson_lng":8.271184,"geojson_lat":48.931262},"geometry":{"type":"Point","coordinates":[8.271184,48.931262]}},{"type":"Feature","properties":{"SeqNo":"44935","Type":"A","DHID":"de:08216:30098:1","Parent":"de:08216:30098","Name":"Bus","MunicipalityCode":"00000000","Municipality":"-","DistrictCode":"-","District":"-","Description":"","Authority":"NVBW","DelfiName":"-","THID":"-","LastOperationDate":"","SEV":"nein","longitude":"8,271184","latitude":"48,931256","geojson_lng":8.271184,"geojson_lat":48.931256},"geometry":{"type":"Point","coordinates":[8.271184,48.931256]}},{"type":"Feature","properties":{"SeqNo":"44936","Type":"Q","DHID":"de:08216:30098:1:1","Parent":"de:08216:30098:1","Name":"1","MunicipalityCode":"00000000","Municipality":"-","DistrictCode":"-","District":"-","Description":"","Authority":"NVBW","DelfiName":"-","THID":"-","LastOperationDate":"","SEV":"nein","longitude":"8,271211","latitude":"48,931309","geojson_lng":8.271211,"geojson_lat":48.931309},"geometry":{"type":"Point","coordinates":[8.271211,48.931309]}},{"type":"Feature","properties":{"SeqNo":"45300","Type":"S","DHID":"de:08216:32078","Parent":"de:08216:32078","Name":"Durmersheim Würmersheimer Str","MunicipalityCode":"08216009","Municipality":"Durmersheim","DistrictCode":"","District":"","Description":"","Authority":"NVBW","DelfiName":"-","THID":"D92018007D4E","LastOperationDate":"2025-06-13T00:00:00","SEV":"nein","longitude":"8,265641","latitude":"48,933823","geojson_lng":8.265641,"geojson_lat":48.933823},"geometry":{"type":"Point","coordinates":[8.265641,48.933823]}},{"type":"Feature","properties":{"SeqNo":"45301","Type":"A","DHID":"de:08216:32078:1","Parent":"de:08216:32078","Name":"Bus","MunicipalityCode":"00000000","Municipality":"-","DistrictCode":"-","District":"-","Description":"","Authority":"NVBW","DelfiName":"-","THID":"-","LastOperationDate":"","SEV":"nein","longitude":"8,265641","latitude":"48,933823","geojson_lng":8.265641,"geojson_lat":48.933823},"geometry":{"type":"Point","coordinates":[8.265641,48.933823]}},{"type":"Feature","properties":{"SeqNo":"45302","Type":"Q","DHID":"de:08216:32078:1:1","Parent":"de:08216:32078:1","Name":"Ri Würmersheim","MunicipalityCode":"00000000","Municipality":"-","DistrictCode":"-","District":"-","Description":"","Authority":"NVBW","DelfiName":"-","THID":"-","LastOperationDate":"","SEV":"nein","longitude":"8,26574","latitude":"48,9339","geojson_lng":8.26574,"geojson_lat":48.9339},"geometry":{"type":"Point","coordinates":[8.26574,48.9339]}},{"type":"Feature","properties":{"SeqNo":"45303","Type":"Q","DHID":"de:08216:32078:1:2","Parent":"de:08216:32078:1","Name":"Ri Bahnhof","MunicipalityCode":"00000000","Municipality":"-","DistrictCode":"-","District":"-","Description":"","Authority":"NVBW","DelfiName":"-","THID":"-","LastOperationDate":"","SEV":"nein","longitude":"8,265552","latitude":"48,933752","geojson_lng":8.265552,"geojson_lat":48.933752},"geometry":{"type":"Point","coordinates":[8.265552,48.933752]}},{"type":"Feature","properties":{"SeqNo":"45308","Type":"S","DHID":"de:08216:32080","Parent":"de:08216:32080","Name":"Durmersheim Chennevieresplatz","MunicipalityCode":"08216009","Municipality":"Durmersheim","DistrictCode":"","District":"","Description":"","Authority":"NVBW","DelfiName":"-","THID":"D92018007D50","LastOperationDate":"2025-06-13T00:00:00","SEV":"nein","longitude":"8,27087","latitude":"48,93164","geojson_lng":8.27087,"geojson_lat":48.93164},"geometry":{"type":"Point","coordinates":[8.27087,48.93164]}},{"type":"Feature","properties":{"SeqNo":"45309","Type":"A","DHID":"de:08216:32080:1","Parent":"de:08216:32080","Name":"Bus","MunicipalityCode":"00000000","Municipality":"-","DistrictCode":"-","District":"-","Description":"","Authority":"NVBW","DelfiName":"-","THID":"-","LastOperationDate":"","SEV":"nein","longitude":"8,27087","latitude":"48,93164","geojson_lng":8.27087,"geojson_lat":48.93164},"geometry":{"type":"Point","coordinates":[8.27087,48.93164]}},{"type":"Feature","properties":{"SeqNo":"45310","Type":"Q","DHID":"de:08216:32080:1:1","Parent":"de:08216:32080:1","Name":"Ri Karlsruhe","MunicipalityCode":"00000000","Municipality":"-","DistrictCode":"-","District":"-","Description":"","Authority":"NVBW","DelfiName":"-","THID":"-","LastOperationDate":"","SEV":"nein","longitude":"8,271004","latitude":"48,931704","geojson_lng":8.271004,"geojson_lat":48.931704},"geometry":{"type":"Point","coordinates":[8.271004,48.931704]}},{"type":"Feature","properties":{"SeqNo":"45311","Type":"Q","DHID":"de:08216:32080:1:2","Parent":"de:08216:32080:1","Name":"Ri Rastatt","MunicipalityCode":"00000000","Municipality":"-","DistrictCode":"-","District":"-","Description":"","Authority":"NVBW","DelfiName":"-","THID":"-","LastOperationDate":"","SEV":"nein","longitude":"8,270744","latitude":"48,931575","geojson_lng":8.270744,"geojson_lat":48.931575},"geometry":{"type":"Point","coordinates":[8.270744,48.931575]}},{"type":"Feature","properties":{"SeqNo":"45329","Type":"S","DHID":"de:08216:32088","Parent":"de:08216:32088","Name":"Durmersheim Gymnasium","MunicipalityCode":"08216009","Municipality":"Durmersheim","DistrictCode":"","District":"","Description":"","Authority":"NVBW","DelfiName":"-","THID":"D92018007D58","LastOperationDate":"2025-06-06T00:00:00","SEV":"nein","longitude":"8,266468","latitude":"48,935829","geojson_lng":8.266468,"geojson_lat":48.935829},"geometry":{"type":"Point","coordinates":[8.266468,48.935829]}},{"type":"Feature","properties":{"SeqNo":"45330","Type":"A","DHID":"de:08216:32088:1","Parent":"de:08216:32088","Name":"Bus","MunicipalityCode":"00000000","Municipality":"-","DistrictCode":"-","District":"-","Description":"","Authority":"NVBW","DelfiName":"-","THID":"-","LastOperationDate":"","SEV":"nein","longitude":"8,266468","latitude":"48,935824","geojson_lng":8.266468,"geojson_lat":48.935824},"geometry":{"type":"Point","coordinates":[8.266468,48.935824]}},{"type":"Feature","properties":{"SeqNo":"45331","Type":"Q","DHID":"de:08216:32088:1:1","Parent":"de:08216:32088:1","Name":"1","MunicipalityCode":"00000000","Municipality":"-","DistrictCode":"-","District":"-","Description":"","Authority":"NVBW","DelfiName":"-","THID":"-","LastOperationDate":"","SEV":"nein","longitude":"8,266522","latitude":"48,935806","geojson_lng":8.266522,"geojson_lat":48.935806},"geometry":{"type":"Point","coordinates":[8.266522,48.935806]}},{"type":"Feature","properties":{"SeqNo":"45332","Type":"Q","DHID":"de:08216:32088:1:2","Parent":"de:08216:32088:1","Name":"zum Löschen","MunicipalityCode":"00000000","Municipality":"-","DistrictCode":"-","District":"-","Description":"","Authority":"NVBW","DelfiName":"-","THID":"-","LastOperationDate":"","SEV":"nein","longitude":"8,266261","latitude":"48,935894","geojson_lng":8.266261,"geojson_lat":48.935894},"geometry":{"type":"Point","coordinates":[8.266261,48.935894]}}]}