{"type":"FeatureCollection","features":[{"type":"Feature","properties":{"SeqNo":"71798","Type":"S","DHID":"de:08336:11250","Parent":"de:08336:11250","Name":"Hauingen Rechbergstraße","MunicipalityCode":"08336050","Municipality":"Lörrach","DistrictCode":"","District":"","Description":"","Authority":"NVBW","DelfiName":"-","THID":"D92090002BF2","LastOperationDate":"2024-12-14T00:00:00","SEV":"nein","longitude":"7,694708","latitude":"47,645028","geojson_lng":7.694708,"geojson_lat":47.645028},"geometry":{"type":"Point","coordinates":[7.694708,47.645028]}},{"type":"Feature","properties":{"SeqNo":"71799","Type":"A","DHID":"de:08336:11250:1","Parent":"de:08336:11250","Name":"Bus","MunicipalityCode":"00000000","Municipality":"-","DistrictCode":"-","District":"-","Description":"","Authority":"NVBW","DelfiName":"-","THID":"-","LastOperationDate":"","SEV":"nein","longitude":"7,694708","latitude":"47,645028","geojson_lng":7.694708,"geojson_lat":47.645028},"geometry":{"type":"Point","coordinates":[7.694708,47.645028]}},{"type":"Feature","properties":{"SeqNo":"71800","Type":"Q","DHID":"de:08336:11250:1:1","Parent":"de:08336:11250:1","Name":"Ri Brombach Bf","MunicipalityCode":"00000000","Municipality":"-","DistrictCode":"-","District":"-","Description":"","Authority":"NVBW","DelfiName":"-","THID":"-","LastOperationDate":"","SEV":"nein","longitude":"7,694618","latitude":"47,645088","geojson_lng":7.694618,"geojson_lat":47.645088},"geometry":{"type":"Point","coordinates":[7.694618,47.645088]}},{"type":"Feature","properties":{"SeqNo":"71801","Type":"S","DHID":"de:08336:11251","Parent":"de:08336:11251","Name":"Hauingen Im Leh","MunicipalityCode":"08336050","Municipality":"Lörrach","DistrictCode":"","District":"","Description":"","Authority":"NVBW","DelfiName":"-","THID":"D92090002BF3","LastOperationDate":"2024-12-14T00:00:00","SEV":"nein","longitude":"7,699936","latitude":"47,646196","geojson_lng":7.699936,"geojson_lat":47.646196},"geometry":{"type":"Point","coordinates":[7.699936,47.646196]}},{"type":"Feature","properties":{"SeqNo":"71802","Type":"A","DHID":"de:08336:11251:1","Parent":"de:08336:11251","Name":"Bus","MunicipalityCode":"00000000","Municipality":"-","DistrictCode":"-","District":"-","Description":"","Authority":"NVBW","DelfiName":"-","THID":"-","LastOperationDate":"","SEV":"nein","longitude":"7,699936","latitude":"47,646196","geojson_lng":7.699936,"geojson_lat":47.646196},"geometry":{"type":"Point","coordinates":[7.699936,47.646196]}},{"type":"Feature","properties":{"SeqNo":"71803","Type":"Q","DHID":"de:08336:11251:1:1","Parent":"de:08336:11251:1","Name":"Ri Brombach Bf","MunicipalityCode":"00000000","Municipality":"-","DistrictCode":"-","District":"-","Description":"","Authority":"NVBW","DelfiName":"-","THID":"-","LastOperationDate":"","SEV":"nein","longitude":"7,699936","latitude":"47,646196","geojson_lng":7.699936,"geojson_lat":47.646196},"geometry":{"type":"Point","coordinates":[7.699936,47.646196]}},{"type":"Feature","properties":{"SeqNo":"71807","Type":"S","DHID":"de:08336:11253","Parent":"de:08336:11253","Name":"Hauingen Steinenstraße","MunicipalityCode":"08336050","Municipality":"Lörrach","DistrictCode":"","District":"","Description":"","Authority":"NVBW","DelfiName":"-","THID":"D92090002BF5","LastOperationDate":"2024-12-14T00:00:00","SEV":"nein","longitude":"7,696505","latitude":"47,643902","geojson_lng":7.696505,"geojson_lat":47.643902},"geometry":{"type":"Point","coordinates":[7.696505,47.643902]}},{"type":"Feature","properties":{"SeqNo":"71808","Type":"A","DHID":"de:08336:11253:1","Parent":"de:08336:11253","Name":"Bus","MunicipalityCode":"00000000","Municipality":"-","DistrictCode":"-","District":"-","Description":"","Authority":"NVBW","DelfiName":"-","THID":"-","LastOperationDate":"","SEV":"nein","longitude":"7,696505","latitude":"47,643902","geojson_lng":7.696505,"geojson_lat":47.643902},"geometry":{"type":"Point","coordinates":[7.696505,47.643902]}},{"type":"Feature","properties":{"SeqNo":"71809","Type":"Q","DHID":"de:08336:11253:1:1","Parent":"de:08336:11253:1","Name":"Ri Brombach Bf","MunicipalityCode":"00000000","Municipality":"-","DistrictCode":"-","District":"-","Description":"","Authority":"NVBW","DelfiName":"-","THID":"-","LastOperationDate":"","SEV":"nein","longitude":"7,696496","latitude":"47,643908","geojson_lng":7.696496,"geojson_lat":47.643908},"geometry":{"type":"Point","coordinates":[7.696496,47.643908]}},{"type":"Feature","properties":{"SeqNo":"73092","Type":"S","DHID":"de:08336:3948","Parent":"de:08336:3948","Name":"Hauingen Ost","MunicipalityCode":"08336050","Municipality":"Lörrach","DistrictCode":"","District":"","Description":"","Authority":"NVBW","DelfiName":"-","THID":"D92090000F6C","LastOperationDate":"2025-06-13T00:00:00","SEV":"nein","longitude":"7,698787","latitude":"47,643848","geojson_lng":7.698787,"geojson_lat":47.643848},"geometry":{"type":"Point","coordinates":[7.698787,47.643848]}},{"type":"Feature","properties":{"SeqNo":"73093","Type":"A","DHID":"de:08336:3948:1","Parent":"de:08336:3948","Name":"Bus","MunicipalityCode":"00000000","Municipality":"-","DistrictCode":"-","District":"-","Description":"","Authority":"NVBW","DelfiName":"-","THID":"-","LastOperationDate":"","SEV":"nein","longitude":"7,698787","latitude":"47,643848","geojson_lng":7.698787,"geojson_lat":47.643848},"geometry":{"type":"Point","coordinates":[7.698787,47.643848]}},{"type":"Feature","properties":{"SeqNo":"73094","Type":"Q","DHID":"de:08336:3948:1:1","Parent":"de:08336:3948:1","Name":"Hauingen Ost_01","MunicipalityCode":"00000000","Municipality":"-","DistrictCode":"-","District":"-","Description":"","Authority":"NVBW","DelfiName":"-","THID":"-","LastOperationDate":"","SEV":"nein","longitude":"7,698706","latitude":"47,643896","geojson_lng":7.698706,"geojson_lat":47.643896},"geometry":{"type":"Point","coordinates":[7.698706,47.643896]}}]}