{"type":"FeatureCollection","features":[{"type":"Feature","properties":{"SeqNo":"599181","Type":"S","DHID":"de:05513:4215","Parent":"de:05513:4215","Name":"GE Hauptfriedh./Gallwiestr","MunicipalityCode":"05513000","Municipality":"Gelsenkirchen","DistrictCode":"-","District":"-","Description":"","Authority":"VRR","DelfiName":"-","THID":"D91589001077","LastOperationDate":"2025-06-14T00:00:00","SEV":"nein","longitude":"7,091004","latitude":"51,576257","geojson_lng":7.091004,"geojson_lat":51.576257},"geometry":{"type":"Point","coordinates":[7.091004,51.576257]}},{"type":"Feature","properties":{"SeqNo":"599182","Type":"Q","DHID":"de:05513:4215:0:01","Parent":"de:05513:4215","Name":"01","MunicipalityCode":"00000000","Municipality":"-","DistrictCode":"-","District":"-","Description":"01","Authority":"VRR","DelfiName":"-","THID":"-","LastOperationDate":"","SEV":"nein","longitude":"7,091058","latitude":"51,576224","geojson_lng":7.091058,"geojson_lat":51.576224},"geometry":{"type":"Point","coordinates":[7.091058,51.576224]}},{"type":"Feature","properties":{"SeqNo":"599183","Type":"Q","DHID":"de:05513:4215:0:02","Parent":"de:05513:4215","Name":"02","MunicipalityCode":"00000000","Municipality":"-","DistrictCode":"-","District":"-","Description":"02","Authority":"VRR","DelfiName":"-","THID":"-","LastOperationDate":"","SEV":"nein","longitude":"7,090951","latitude":"51,576307","geojson_lng":7.090951,"geojson_lat":51.576307},"geometry":{"type":"Point","coordinates":[7.090951,51.576307]}},{"type":"Feature","properties":{"SeqNo":"600541","Type":"S","DHID":"de:05513:5578","Parent":"de:05513:5578","Name":"Gelsenkirchen Schievenstr.","MunicipalityCode":"05513000","Municipality":"Gelsenkirchen","DistrictCode":"-","District":"-","Description":"","Authority":"VRR","DelfiName":"-","THID":"D915890015CA","LastOperationDate":"2025-02-28T00:00:00","SEV":"nein","longitude":"7,087645","latitude":"51,57111","geojson_lng":7.087645,"geojson_lat":51.57111},"geometry":{"type":"Point","coordinates":[7.087645,51.57111]}},{"type":"Feature","properties":{"SeqNo":"600542","Type":"A","DHID":"de:05513:5578:1","Parent":"de:05513:5578","Name":"Ri. Frankampstr","MunicipalityCode":"00000000","Municipality":"-","DistrictCode":"-","District":"-","Description":"","Authority":"VRR","DelfiName":"-","THID":"-","LastOperationDate":"","SEV":"nein","longitude":"7,087618","latitude":"51,571059","geojson_lng":7.087618,"geojson_lat":51.571059},"geometry":{"type":"Point","coordinates":[7.087618,51.571059]}},{"type":"Feature","properties":{"SeqNo":"600543","Type":"A","DHID":"de:05513:5578:2","Parent":"de:05513:5578","Name":"Ri. Gartmannshof","MunicipalityCode":"00000000","Municipality":"-","DistrictCode":"-","District":"-","Description":"","Authority":"VRR","DelfiName":"-","THID":"-","LastOperationDate":"","SEV":"nein","longitude":"7,087654","latitude":"51,571154","geojson_lng":7.087654,"geojson_lat":51.571154},"geometry":{"type":"Point","coordinates":[7.087654,51.571154]}},{"type":"Feature","properties":{"SeqNo":"600544","Type":"Q","DHID":"de:05513:5578:0:01","Parent":"de:05513:5578:1","Name":"Ri. Frankampstr.","MunicipalityCode":"00000000","Municipality":"-","DistrictCode":"-","District":"-","Description":"Ri. Frankampstr.","Authority":"VRR","DelfiName":"-","THID":"-","LastOperationDate":"","SEV":"nein","longitude":"7,087609","latitude":"51,571143","geojson_lng":7.087609,"geojson_lat":51.571143},"geometry":{"type":"Point","coordinates":[7.087609,51.571143]}},{"type":"Feature","properties":{"SeqNo":"600545","Type":"Q","DHID":"de:05513:5578:0:02","Parent":"de:05513:5578:2","Name":"Ri. Gartmannshof","MunicipalityCode":"00000000","Municipality":"-","DistrictCode":"-","District":"-","Description":"Ri. Gartmannshof","Authority":"VRR","DelfiName":"-","THID":"-","LastOperationDate":"","SEV":"nein","longitude":"7,087681","latitude":"51,571082","geojson_lng":7.087681,"geojson_lat":51.571082},"geometry":{"type":"Point","coordinates":[7.087681,51.571082]}},{"type":"Feature","properties":{"SeqNo":"601428","Type":"S","DHID":"de:05513:7408","Parent":"de:05513:7408","Name":"Gelsenkirchen Brauckstr.","MunicipalityCode":"05513000","Municipality":"Gelsenkirchen","DistrictCode":"-","District":"-","Description":"","Authority":"VRR","DelfiName":"-","THID":"D91589001CF0","LastOperationDate":"2025-06-14T00:00:00","SEV":"nein","longitude":"7,09493","latitude":"51,576564","geojson_lng":7.09493,"geojson_lat":51.576564},"geometry":{"type":"Point","coordinates":[7.09493,51.576564]}},{"type":"Feature","properties":{"SeqNo":"601429","Type":"Q","DHID":"de:05513:7408:0:01","Parent":"de:05513:7408","Name":"Ri. Buer Rathaus","MunicipalityCode":"00000000","Municipality":"-","DistrictCode":"-","District":"-","Description":"Ri. Buer Rathaus","Authority":"VRR","DelfiName":"-","THID":"-","LastOperationDate":"","SEV":"nein","longitude":"7,095011","latitude":"51,576548","geojson_lng":7.095011,"geojson_lat":51.576548},"geometry":{"type":"Point","coordinates":[7.095011,51.576548]}},{"type":"Feature","properties":{"SeqNo":"601430","Type":"Q","DHID":"de:05513:7408:0:02","Parent":"de:05513:7408","Name":"Ri. Alte Hütte/Oemkenstr","MunicipalityCode":"00000000","Municipality":"-","DistrictCode":"-","District":"-","Description":"Ri. Alte Hütte/Oemkenstr","Authority":"VRR","DelfiName":"-","THID":"-","LastOperationDate":"","SEV":"nein","longitude":"7,094858","latitude":"51,576575","geojson_lng":7.094858,"geojson_lat":51.576575},"geometry":{"type":"Point","coordinates":[7.094858,51.576575]}}]}