{"type":"FeatureCollection","features":[{"type":"Feature","properties":{"highway":"bus_stop","public_transport":"platform","name":"Wakkerendijk 110","ref:IFOPT":"NL:Q:59610130","_quaycode":"NL:Q:59610130","_town":"Eemnes","_status":"available","_mode":"bus","_direction":190,"_visuallyAccessible":false,"_disabledAccessible":false,"geojson_lng":5.2632342981520335,"geojson_lat":52.24328730163204},"geometry":{"type":"Point","coordinates":[5.2632342981520335,52.24328730163204]}},{"type":"Feature","properties":{"highway":"bus_stop","public_transport":"platform","name":"Raadhuislaan","ref:IFOPT":"NL:Q:59610080","_quaycode":"NL:Q:59610080","_town":"Eemnes","_status":"available","_mode":"bus","_direction":9,"_visuallyAccessible":false,"_disabledAccessible":false,"geojson_lng":5.266347519202565,"geojson_lat":52.25066050807856},"geometry":{"type":"Point","coordinates":[5.266347519202565,52.25066050807856]}},{"type":"Feature","properties":{"highway":"bus_stop","public_transport":"platform","name":"Pijpestrootje","ref:IFOPT":"NL:Q:59610340","_quaycode":"NL:Q:59610340","_town":"Eemnes","_status":"available","_mode":"bus","_direction":280,"_visuallyAccessible":false,"_disabledAccessible":false,"geojson_lng":5.253814246888574,"geojson_lat":52.250035872934625},"geometry":{"type":"Point","coordinates":[5.253814246888574,52.250035872934625]}},{"type":"Feature","properties":{"highway":"bus_stop","public_transport":"platform","name":"Wezenboom","ref:IFOPT":"NL:Q:59610350","_quaycode":"NL:Q:59610350","_town":"Eemnes","_status":"available","_mode":"bus","_direction":325,"_visuallyAccessible":false,"_disabledAccessible":false,"geojson_lng":5.2585325250545445,"geojson_lat":52.24899851627316},"geometry":{"type":"Point","coordinates":[5.2585325250545445,52.24899851627316]}},{"type":"Feature","properties":{"highway":"bus_stop","public_transport":"platform","name":"Wezenboom","ref:IFOPT":"NL:Q:59610351","_quaycode":"NL:Q:59610351","_town":"Eemnes","_status":"available","_mode":"bus","_direction":105,"_visuallyAccessible":false,"_disabledAccessible":false,"geojson_lng":5.258723277274032,"geojson_lat":52.24886390679866},"geometry":{"type":"Point","coordinates":[5.258723277274032,52.24886390679866]}},{"type":"Feature","properties":{"highway":"bus_stop","public_transport":"platform","name":"R.K. School","ref:IFOPT":"NL:Q:59610100","_quaycode":"NL:Q:59610100","_town":"Eemnes","_status":"available","_mode":"bus","_direction":10,"_visuallyAccessible":false,"_disabledAccessible":false,"geojson_lng":5.265388020477437,"geojson_lat":52.24812497151111},"geometry":{"type":"Point","coordinates":[5.265388020477437,52.24812497151111]}},{"type":"Feature","properties":{"highway":"bus_stop","public_transport":"platform","name":"Braadkamp","ref:IFOPT":"NL:Q:59610370","_quaycode":"NL:Q:59610370","_town":"Eemnes","_status":"available","_mode":"bus","_direction":92,"_visuallyAccessible":false,"_disabledAccessible":false,"geojson_lng":5.264774889515325,"geojson_lat":52.25277102311762},"geometry":{"type":"Point","coordinates":[5.264774889515325,52.25277102311762]}},{"type":"Feature","properties":{"highway":"bus_stop","public_transport":"platform","name":"Wakkerendijk 110","ref:IFOPT":"NL:Q:59610120","_quaycode":"NL:Q:59610120","_town":"Eemnes","_status":"available","_mode":"bus","_direction":18,"_visuallyAccessible":false,"_disabledAccessible":false,"geojson_lng":5.263584746192867,"geojson_lat":52.24362920466784},"geometry":{"type":"Point","coordinates":[5.263584746192867,52.24362920466784]}},{"type":"Feature","properties":{"highway":"bus_stop","public_transport":"platform","name":"Zuidersingel","ref:IFOPT":"NL:Q:59610430","_quaycode":"NL:Q:59610430","_town":"Eemnes","_status":"available","_mode":"bus","_direction":9,"_visuallyAccessible":false,"_disabledAccessible":false,"geojson_lng":5.251353559709877,"geojson_lat":52.25021282810869},"geometry":{"type":"Point","coordinates":[5.251353559709877,52.25021282810869]}},{"type":"Feature","properties":{"highway":"bus_stop","public_transport":"platform","name":"Braadkamp","ref:IFOPT":"NL:Q:59610360","_quaycode":"NL:Q:59610360","_town":"Eemnes","_status":"available","_mode":"bus","_direction":275,"_visuallyAccessible":false,"_disabledAccessible":false,"geojson_lng":5.263646707721246,"geojson_lat":52.252967581365354},"geometry":{"type":"Point","coordinates":[5.263646707721246,52.252967581365354]}},{"type":"Feature","properties":{"highway":"bus_stop","public_transport":"platform","name":"R.K. School","ref:IFOPT":"NL:Q:59610110","_quaycode":"NL:Q:59610110","_town":"Eemnes","_status":"available","_mode":"bus","_direction":195,"_visuallyAccessible":false,"_disabledAccessible":false,"geojson_lng":5.265183042206306,"geojson_lat":52.248115772464025},"geometry":{"type":"Point","coordinates":[5.265183042206306,52.248115772464025]}},{"type":"Feature","properties":{"highway":"bus_stop","public_transport":"platform","name":"Pijpestrootje","ref:IFOPT":"NL:Q:59610341","_quaycode":"NL:Q:59610341","_town":"Eemnes","_status":"available","_mode":"bus","_direction":95,"_visuallyAccessible":false,"_disabledAccessible":true,"geojson_lng":5.253785228633091,"geojson_lat":52.24994596233767},"geometry":{"type":"Point","coordinates":[5.253785228633091,52.24994596233767]}},{"type":"Feature","properties":{"highway":"bus_stop","public_transport":"platform","name":"Raadhuislaan","ref:IFOPT":"NL:Q:59610090","_quaycode":"NL:Q:59610090","_town":"Eemnes","_status":"available","_mode":"bus","_direction":195,"_visuallyAccessible":false,"_disabledAccessible":false,"geojson_lng":5.266055542134682,"geojson_lat":52.25035462802534},"geometry":{"type":"Point","coordinates":[5.266055542134682,52.25035462802534]}}]}