{"type":"FeatureCollection","features":[{"type":"Feature","properties":{"highway":"bus_stop","public_transport":"platform","name":"Weg naar Hoog-Keppel","ref:IFOPT":"NL:Q:41520230","_quaycode":"NL:Q:41520230","_town":"Hoog Keppel","_status":"available","_mode":"bus","_direction":225,"_visuallyAccessible":false,"_disabledAccessible":false,"geojson_lng":6.208387646139433,"geojson_lat":52.00044393541723},"geometry":{"type":"Point","coordinates":[6.208387646139433,52.00044393541723]}},{"type":"Feature","properties":{"highway":"bus_stop","public_transport":"platform","name":"Brede school","ref:IFOPT":"NL:Q:41520060","_quaycode":"NL:Q:41520060","_town":"Hummelo","_status":"available","_mode":"bus","_direction":118,"_visuallyAccessible":true,"_disabledAccessible":true,"geojson_lng":6.228052999458164,"geojson_lat":52.00151847958951},"geometry":{"type":"Point","coordinates":[6.228052999458164,52.00151847958951]}},{"type":"Feature","properties":{"highway":"bus_stop","public_transport":"platform","name":"Zelhemseweg","ref:IFOPT":"NL:Q:41520110","_quaycode":"NL:Q:41520110","_town":"Hummelo","_status":"available","_mode":"bus","_direction":71,"_visuallyAccessible":true,"_disabledAccessible":true,"geojson_lng":6.237293225568587,"geojson_lat":52.00190149841917},"geometry":{"type":"Point","coordinates":[6.237293225568587,52.00190149841917]}},{"type":"Feature","properties":{"highway":"bus_stop","public_transport":"platform","name":"Zelhemseweg","ref:IFOPT":"NL:Q:41520120","_quaycode":"NL:Q:41520120","_town":"Hummelo","_status":"available","_mode":"bus","_direction":270,"_visuallyAccessible":true,"_disabledAccessible":true,"geojson_lng":6.236750612041149,"geojson_lat":52.001937787335486},"geometry":{"type":"Point","coordinates":[6.236750612041149,52.001937787335486]}},{"type":"Feature","properties":{"highway":"bus_stop","public_transport":"platform","name":"Burg. Vrijlandweg","ref:IFOPT":"NL:Q:41520260","_quaycode":"NL:Q:41520260","_town":"Hoog Keppel","_status":"available","_mode":"bus","_direction":101,"_visuallyAccessible":false,"_disabledAccessible":false,"geojson_lng":6.197767891075691,"geojson_lat":52.00266584464939},"geometry":{"type":"Point","coordinates":[6.197767891075691,52.00266584464939]}},{"type":"Feature","properties":{"highway":"bus_stop","public_transport":"platform","name":"'t Smaaleke","ref:IFOPT":"NL:Q:41520210","_quaycode":"NL:Q:41520210","_town":"Laag-Keppel","_status":"available","_mode":"bus","_direction":290,"_visuallyAccessible":false,"_disabledAccessible":true,"geojson_lng":6.216704341807053,"geojson_lat":51.998156426646354},"geometry":{"type":"Point","coordinates":[6.216704341807053,51.998156426646354]}},{"type":"Feature","properties":{"highway":"bus_stop","public_transport":"platform","name":"Weg naar Hoog-Keppel","ref:IFOPT":"NL:Q:41520240","_quaycode":"NL:Q:41520240","_town":"Hoog Keppel","_status":"available","_mode":"bus","_direction":105,"_visuallyAccessible":false,"_disabledAccessible":false,"geojson_lng":6.210849125217817,"geojson_lat":51.99967168968247},"geometry":{"type":"Point","coordinates":[6.210849125217817,51.99967168968247]}},{"type":"Feature","properties":{"highway":"bus_stop","public_transport":"platform","name":"Brede school","ref:IFOPT":"NL:Q:41520050","_quaycode":"NL:Q:41520050","_town":"Hummelo","_status":"available","_mode":"bus","_direction":299,"_visuallyAccessible":true,"_disabledAccessible":true,"geojson_lng":6.228155939646233,"geojson_lat":52.001571675201596},"geometry":{"type":"Point","coordinates":[6.228155939646233,52.001571675201596]}}]}