{"type":"FeatureCollection","features":[{"type":"Feature","properties":{"highway":"bus_stop","public_transport":"platform","name":"Brandts Buyskade","ref:IFOPT":"NL:Q:54440110","_quaycode":"NL:Q:54440110","_town":"Leiden","_status":"available","_mode":"bus","_direction":337,"_visuallyAccessible":true,"_disabledAccessible":true,"geojson_lng":4.473205324472736,"geojson_lat":52.15343905694838},"geometry":{"type":"Point","coordinates":[4.473205324472736,52.15343905694838]}},{"type":"Feature","properties":{"highway":"bus_stop","public_transport":"platform","name":"Rosenburch","ref:IFOPT":"NL:Q:54440360","_quaycode":"NL:Q:54440360","_town":"Leiden","_status":"available","_mode":"bus","_direction":86,"_visuallyAccessible":true,"_disabledAccessible":true,"geojson_lng":4.482436695444682,"geojson_lat":52.14786548826126},"geometry":{"type":"Point","coordinates":[4.482436695444682,52.14786548826126]}},{"type":"Feature","properties":{"highway":"bus_stop","public_transport":"platform","name":"Brandts Buyskade","ref:IFOPT":"NL:Q:54440120","_quaycode":"NL:Q:54440120","_town":"Leiden","_status":"available","_mode":"bus","_direction":163,"_visuallyAccessible":true,"_disabledAccessible":true,"geojson_lng":4.473334646216937,"geojson_lat":52.15211875988013},"geometry":{"type":"Point","coordinates":[4.473334646216937,52.15211875988013]}},{"type":"Feature","properties":{"highway":"bus_stop","public_transport":"platform","name":"Dr. Lelylaan","ref:IFOPT":"NL:Q:54440100","_quaycode":"NL:Q:54440100","_town":"Leiden","_status":"available","_mode":"bus","_direction":127,"_visuallyAccessible":false,"_disabledAccessible":true,"geojson_lng":4.463881556807624,"geojson_lat":52.159128036875266},"geometry":{"type":"Point","coordinates":[4.463881556807624,52.159128036875266]}},{"type":"Feature","properties":{"highway":"bus_stop","public_transport":"platform","name":"Damlaan","ref:IFOPT":"NL:Q:54441190","_quaycode":"NL:Q:54441190","_town":"Leiden","_status":"available","_mode":"bus","_direction":231,"_visuallyAccessible":true,"_disabledAccessible":true,"geojson_lng":4.4701658153696595,"geojson_lat":52.159842193175656},"geometry":{"type":"Point","coordinates":[4.4701658153696595,52.159842193175656]}},{"type":"Feature","properties":{"highway":"bus_stop","public_transport":"platform","name":"Opaalstraat","ref:IFOPT":"NL:Q:54441210","_quaycode":"NL:Q:54441210","_town":"Leiden","_status":"available","_mode":"bus","_direction":232,"_visuallyAccessible":true,"_disabledAccessible":true,"geojson_lng":4.466406819748999,"geojson_lat":52.15715234160756},"geometry":{"type":"Point","coordinates":[4.466406819748999,52.15715234160756]}},{"type":"Feature","properties":{"highway":"bus_stop","public_transport":"platform","name":"Robijnstraat","ref:IFOPT":"NL:Q:54441230","_quaycode":"NL:Q:54441230","_town":"Leiden","_status":"available","_mode":"bus","_direction":306,"_visuallyAccessible":false,"_disabledAccessible":true,"geojson_lng":4.462619331435986,"geojson_lat":52.155154252890206},"geometry":{"type":"Point","coordinates":[4.462619331435986,52.155154252890206]}},{"type":"Feature","properties":{"highway":"bus_stop","public_transport":"platform","name":"Opaalstraat","ref:IFOPT":"NL:Q:54441080","_quaycode":"NL:Q:54441080","_town":"Leiden","_status":"available","_mode":"bus","_direction":55,"_visuallyAccessible":true,"_disabledAccessible":true,"geojson_lng":4.466566436101,"geojson_lat":52.15720751785031},"geometry":{"type":"Point","coordinates":[4.466566436101,52.15720751785031]}},{"type":"Feature","properties":{"highway":"bus_stop","public_transport":"platform","name":"Robijnstraat","ref:IFOPT":"NL:Q:54441060","_quaycode":"NL:Q:54441060","_town":"Leiden","_status":"available","_mode":"bus","_direction":117,"_visuallyAccessible":false,"_disabledAccessible":true,"geojson_lng":4.462857574826816,"geojson_lat":52.15494039733922},"geometry":{"type":"Point","coordinates":[4.462857574826816,52.15494039733922]}},{"type":"Feature","properties":{"highway":"bus_stop","public_transport":"platform","name":"Noordeinde","ref:IFOPT":"NL:Q:54442100","_quaycode":"NL:Q:54442100","_town":"Leiden","_status":"available","_mode":"bus","_direction":261,"_visuallyAccessible":false,"_disabledAccessible":true,"geojson_lng":4.481181177723967,"geojson_lat":52.16005313472312},"geometry":{"type":"Point","coordinates":[4.481181177723967,52.16005313472312]}},{"type":"Feature","properties":{"highway":"bus_stop","public_transport":"platform","name":"Churchillbrug","ref:IFOPT":"NL:Q:54440980","_quaycode":"NL:Q:54440980","_town":"Leiden","_status":"available","_mode":"bus","_direction":26,"_visuallyAccessible":false,"_disabledAccessible":false,"geojson_lng":4.473513384558643,"geojson_lat":52.15694692871196},"geometry":{"type":"Point","coordinates":[4.473513384558643,52.15694692871196]}},{"type":"Feature","properties":{"highway":"bus_stop","public_transport":"platform","name":"Damlaan","ref:IFOPT":"NL:Q:54441100","_quaycode":"NL:Q:54441100","_town":"Leiden","_status":"available","_mode":"bus","_direction":51,"_visuallyAccessible":true,"_disabledAccessible":true,"geojson_lng":4.470052239214586,"geojson_lat":52.159679518756235},"geometry":{"type":"Point","coordinates":[4.470052239214586,52.159679518756235]}},{"type":"Feature","properties":{"highway":"bus_stop","public_transport":"platform","name":"Churchillbrug","ref:IFOPT":"NL:Q:54440970","_quaycode":"NL:Q:54440970","_town":"Leiden","_status":"available","_mode":"bus","_direction":212,"_visuallyAccessible":false,"_disabledAccessible":false,"geojson_lng":4.473221887701519,"geojson_lat":52.15690871713987},"geometry":{"type":"Point","coordinates":[4.473221887701519,52.15690871713987]}},{"type":"Feature","properties":{"highway":"bus_stop","public_transport":"platform","name":"Sweelincklaan","ref:IFOPT":"NL:Q:54440450","_quaycode":"NL:Q:54440450","_town":"Leiden","_status":"available","_mode":"bus","_direction":337,"_visuallyAccessible":true,"_disabledAccessible":true,"geojson_lng":4.470433930603131,"geojson_lat":52.14821324919431},"geometry":{"type":"Point","coordinates":[4.470433930603131,52.14821324919431]}},{"type":"Feature","properties":{"highway":"bus_stop","public_transport":"platform","name":"Cornelis Schuytlaan","ref:IFOPT":"NL:Q:54440470","_quaycode":"NL:Q:54440470","_town":"Leiden","_status":"available","_mode":"bus","_direction":83,"_visuallyAccessible":false,"_disabledAccessible":false,"geojson_lng":4.472658461018886,"geojson_lat":52.14946193233304},"geometry":{"type":"Point","coordinates":[4.472658461018886,52.14946193233304]}},{"type":"Feature","properties":{"highway":"bus_stop","public_transport":"platform","name":"Dr. Lelylaan","ref:IFOPT":"NL:Q:54440550","_quaycode":"NL:Q:54440550","_town":"Leiden","_status":"available","_mode":"bus","_direction":305,"_visuallyAccessible":false,"_disabledAccessible":true,"geojson_lng":4.463877280240748,"geojson_lat":52.15933473726666},"geometry":{"type":"Point","coordinates":[4.463877280240748,52.15933473726666]}},{"type":"Feature","properties":{"highway":"bus_stop","public_transport":"platform","name":"Paterstraat","ref:IFOPT":"NL:Q:54445010","_quaycode":"NL:Q:54445010","_town":"Leiden","_status":"available","_mode":"bus","_direction":156,"_visuallyAccessible":false,"_disabledAccessible":true,"geojson_lng":4.481920661208372,"geojson_lat":52.15746116062944},"geometry":{"type":"Point","coordinates":[4.481920661208372,52.15746116062944]}},{"type":"Feature","properties":{"highway":"bus_stop","public_transport":"platform","name":"Vijf Meiplein","ref:IFOPT":"NL:Q:54440330","_quaycode":"NL:Q:54440330","_town":"Leiden","_status":"available","_mode":"bus","_direction":270,"_visuallyAccessible":false,"_disabledAccessible":true,"geojson_lng":4.477631899583657,"geojson_lat":52.147756629956625},"geometry":{"type":"Point","coordinates":[4.477631899583657,52.147756629956625]}},{"type":"Feature","properties":{"highway":"bus_stop","public_transport":"platform","name":"Sweelincklaan","ref:IFOPT":"NL:Q:54440200","_quaycode":"NL:Q:54440200","_town":"Leiden","_status":"available","_mode":"bus","_direction":164,"_visuallyAccessible":true,"_disabledAccessible":true,"geojson_lng":4.470362178695859,"geojson_lat":52.148149772464464},"geometry":{"type":"Point","coordinates":[4.470362178695859,52.148149772464464]}},{"type":"Feature","properties":{"highway":"bus_stop","public_transport":"platform","name":"De Genestetstraat","ref:IFOPT":"NL:Q:54442120","_quaycode":"NL:Q:54442120","_town":"Leiden","_status":"available","_mode":"bus","_direction":249,"_visuallyAccessible":true,"_disabledAccessible":true,"geojson_lng":4.476015329028406,"geojson_lat":52.15895271899666},"geometry":{"type":"Point","coordinates":[4.476015329028406,52.15895271899666]}},{"type":"Feature","properties":{"highway":"bus_stop","public_transport":"platform","name":"Cornelis Schuytlaan","ref:IFOPT":"NL:Q:54440180","_quaycode":"NL:Q:54440180","_town":"Leiden","_status":"available","_mode":"bus","_direction":263,"_visuallyAccessible":true,"_disabledAccessible":true,"geojson_lng":4.472553802827666,"geojson_lat":52.14957797053748},"geometry":{"type":"Point","coordinates":[4.472553802827666,52.14957797053748]}},{"type":"Feature","properties":{"highway":"bus_stop","public_transport":"platform","name":"De Genestetstraat","ref:IFOPT":"NL:Q:54442130","_quaycode":"NL:Q:54442130","_town":"Leiden","_status":"available","_mode":"bus","_direction":72,"_visuallyAccessible":true,"_disabledAccessible":true,"geojson_lng":4.476612783774794,"geojson_lat":52.159038227444476},"geometry":{"type":"Point","coordinates":[4.476612783774794,52.159038227444476]}},{"type":"Feature","properties":{"highway":"bus_stop","public_transport":"platform","name":"Noordeinde","ref:IFOPT":"NL:Q:54442150","_quaycode":"NL:Q:54442150","_town":"Leiden","_status":"available","_mode":"bus","_direction":84,"_visuallyAccessible":false,"_disabledAccessible":true,"geojson_lng":4.481867792158855,"geojson_lat":52.16006739378538},"geometry":{"type":"Point","coordinates":[4.481867792158855,52.16006739378538]}},{"type":"Feature","properties":{"highway":"bus_stop","public_transport":"platform","name":"Vijf Meiplein","ref:IFOPT":"NL:Q:54440340","_quaycode":"NL:Q:54440340","_town":"Leiden","_status":"available","_mode":"bus","_direction":83,"_visuallyAccessible":false,"_disabledAccessible":true,"geojson_lng":4.478218807798404,"geojson_lat":52.14763531599759},"geometry":{"type":"Point","coordinates":[4.478218807798404,52.14763531599759]}},{"type":"Feature","properties":{"highway":"bus_stop","public_transport":"platform","name":"Rosenburch","ref:IFOPT":"NL:Q:54440310","_quaycode":"NL:Q:54440310","_town":"Leiden","_status":"available","_mode":"bus","_direction":268,"_visuallyAccessible":false,"_disabledAccessible":false,"geojson_lng":4.48148348289442,"geojson_lat":52.148037941764805},"geometry":{"type":"Point","coordinates":[4.48148348289442,52.148037941764805]}},{"type":"Feature","properties":{"highway":"bus_stop","public_transport":"platform","name":"Witte Rozenstraat","ref:IFOPT":"NL:Q:54445320","_quaycode":"NL:Q:54445320","_town":"Leiden","_status":"available","_mode":"bus","_direction":124,"_visuallyAccessible":false,"_disabledAccessible":true,"geojson_lng":4.48272979320525,"geojson_lat":52.154312433475496},"geometry":{"type":"Point","coordinates":[4.48272979320525,52.154312433475496]}},{"type":"Feature","properties":{"highway":"bus_stop","public_transport":"platform","name":"Paterstraat","ref:IFOPT":"NL:Q:54445340","_quaycode":"NL:Q:54445340","_town":"Leiden","_status":"available","_mode":"bus","_direction":351,"_visuallyAccessible":false,"_disabledAccessible":false,"geojson_lng":4.481759891169852,"geojson_lat":52.15817899972591},"geometry":{"type":"Point","coordinates":[4.481759891169852,52.15817899972591]}}]}