{"type":"FeatureCollection","features":[{"type":"Feature","properties":{"SeqNo":"344","Type":"S","DHID":"de:08111:1300","Parent":"de:08111:1300","Name":"Sommerrain","MunicipalityCode":"08111000","Municipality":"Stuttgart","DistrictCode":"","District":"","Description":"","Authority":"NVBW","DelfiName":"-","THID":"D91FAF000514","LastOperationDate":"2025-02-28T00:00:00","SEV":"nein","longitude":"9,248371","latitude":"48,81522","geojson_lng":9.248371,"geojson_lat":48.81522},"geometry":{"type":"Point","coordinates":[9.248371,48.81522]}},{"type":"Feature","properties":{"SeqNo":"345","Type":"A","DHID":"de:08111:1300:1","Parent":"de:08111:1300","Name":"S Hbf","MunicipalityCode":"00000000","Municipality":"-","DistrictCode":"-","District":"-","Description":"","Authority":"NVBW","DelfiName":"-","THID":"-","LastOperationDate":"","SEV":"nein","longitude":"9,248344","latitude":"48,815308","geojson_lng":9.248344,"geojson_lat":48.815308},"geometry":{"type":"Point","coordinates":[9.248344,48.815308]}},{"type":"Feature","properties":{"SeqNo":"346","Type":"A","DHID":"de:08111:1300:2","Parent":"de:08111:1300","Name":"S Fellbach","MunicipalityCode":"00000000","Municipality":"-","DistrictCode":"-","District":"-","Description":"","Authority":"NVBW","DelfiName":"-","THID":"-","LastOperationDate":"","SEV":"nein","longitude":"9,248452","latitude":"48,815131","geojson_lng":9.248452,"geojson_lat":48.815131},"geometry":{"type":"Point","coordinates":[9.248452,48.815131]}},{"type":"Feature","properties":{"SeqNo":"347","Type":"A","DHID":"de:08111:1300:3","Parent":"de:08111:1300","Name":"Bus","MunicipalityCode":"00000000","Municipality":"-","DistrictCode":"-","District":"-","Description":"","Authority":"NVBW","DelfiName":"-","THID":"-","LastOperationDate":"","SEV":"nein","longitude":"9,246449","latitude":"48,815143","geojson_lng":9.246449,"geojson_lat":48.815143},"geometry":{"type":"Point","coordinates":[9.246449,48.815143]}},{"type":"Feature","properties":{"SeqNo":"348","Type":"A","DHID":"de:08111:1300:80","Parent":"de:08111:1300","Name":"Unterführung","MunicipalityCode":"00000000","Municipality":"-","DistrictCode":"-","District":"-","Description":"","Authority":"NVBW","DelfiName":"-","THID":"-","LastOperationDate":"","SEV":"nein","longitude":"9,246898","latitude":"48,814942","geojson_lng":9.246898,"geojson_lat":48.814942},"geometry":{"type":"Point","coordinates":[9.246898,48.814942]}},{"type":"Feature","properties":{"SeqNo":"349","Type":"A","DHID":"de:08111:1300:81","Parent":"de:08111:1300","Name":"Brücke","MunicipalityCode":"00000000","Municipality":"-","DistrictCode":"-","District":"-","Description":"","Authority":"NVBW","DelfiName":"-","THID":"-","LastOperationDate":"","SEV":"nein","longitude":"9,250042","latitude":"48,815557","geojson_lng":9.250042,"geojson_lat":48.815557},"geometry":{"type":"Point","coordinates":[9.250042,48.815557]}},{"type":"Feature","properties":{"SeqNo":"350","Type":"A","DHID":"de:08111:1300:90","Parent":"de:08111:1300","Name":"Zugang Bus/Untf.","MunicipalityCode":"00000000","Municipality":"-","DistrictCode":"-","District":"-","Description":"","Authority":"NVBW","DelfiName":"-","THID":"-","LastOperationDate":"","SEV":"nein","longitude":"9,246898","latitude":"48,815149","geojson_lng":9.246898,"geojson_lat":48.815149},"geometry":{"type":"Point","coordinates":[9.246898,48.815149]}},{"type":"Feature","properties":{"SeqNo":"351","Type":"A","DHID":"de:08111:1300:91","Parent":"de:08111:1300","Name":"Zugang Kiosk","MunicipalityCode":"00000000","Municipality":"-","DistrictCode":"-","District":"-","Description":"","Authority":"NVBW","DelfiName":"-","THID":"-","LastOperationDate":"","SEV":"nein","longitude":"9,247267","latitude":"48,815214","geojson_lng":9.247267,"geojson_lat":48.815214},"geometry":{"type":"Point","coordinates":[9.247267,48.815214]}},{"type":"Feature","properties":{"SeqNo":"352","Type":"A","DHID":"de:08111:1300:92","Parent":"de:08111:1300","Name":"Zugang Brücke Rtg. S","MunicipalityCode":"00000000","Municipality":"-","DistrictCode":"-","District":"-","Description":"","Authority":"NVBW","DelfiName":"-","THID":"-","LastOperationDate":"","SEV":"nein","longitude":"9,249512","latitude":"48,815657","geojson_lng":9.249512,"geojson_lat":48.815657},"geometry":{"type":"Point","coordinates":[9.249512,48.815657]}},{"type":"Feature","properties":{"SeqNo":"353","Type":"A","DHID":"de:08111:1300:93","Parent":"de:08111:1300","Name":"Zugang Brücke WN","MunicipalityCode":"00000000","Municipality":"-","DistrictCode":"-","District":"-","Description":"","Authority":"NVBW","DelfiName":"-","THID":"-","LastOperationDate":"","SEV":"nein","longitude":"9,249746","latitude":"48,815285","geojson_lng":9.249746,"geojson_lat":48.815285},"geometry":{"type":"Point","coordinates":[9.249746,48.815285]}},{"type":"Feature","properties":{"SeqNo":"354","Type":"A","DHID":"de:08111:1300:94","Parent":"de:08111:1300","Name":"Zugang Rad-/Fußweg","MunicipalityCode":"00000000","Municipality":"-","DistrictCode":"-","District":"-","Description":"","Authority":"NVBW","DelfiName":"-","THID":"-","LastOperationDate":"","SEV":"nein","longitude":"9,248515","latitude":"48,815119","geojson_lng":9.248515,"geojson_lat":48.815119},"geometry":{"type":"Point","coordinates":[9.248515,48.815119]}},{"type":"Feature","properties":{"SeqNo":"355","Type":"A","DHID":"de:08111:1300:95","Parent":"de:08111:1300","Name":"Zugang Unterf. WN","MunicipalityCode":"00000000","Municipality":"-","DistrictCode":"-","District":"-","Description":"","Authority":"NVBW","DelfiName":"-","THID":"-","LastOperationDate":"","SEV":"nein","longitude":"9,247006","latitude":"48,814729","geojson_lng":9.247006,"geojson_lat":48.814729},"geometry":{"type":"Point","coordinates":[9.247006,48.814729]}},{"type":"Feature","properties":{"SeqNo":"356","Type":"Q","DHID":"de:08111:1300:1:1","Parent":"de:08111:1300:1","Name":"Gleis 1","MunicipalityCode":"00000000","Municipality":"-","DistrictCode":"-","District":"-","Description":"","Authority":"NVBW","DelfiName":"-","THID":"-","LastOperationDate":"","SEV":"nein","longitude":"9,248344","latitude":"48,815273","geojson_lng":9.248344,"geojson_lat":48.815273},"geometry":{"type":"Point","coordinates":[9.248344,48.815273]}},{"type":"Feature","properties":{"SeqNo":"357","Type":"Q","DHID":"de:08111:1300:1:2","Parent":"de:08111:1300:1","Name":"Gleis 2","MunicipalityCode":"00000000","Municipality":"-","DistrictCode":"-","District":"-","Description":"","Authority":"NVBW","DelfiName":"-","THID":"-","LastOperationDate":"","SEV":"nein","longitude":"9,248353","latitude":"48,815237","geojson_lng":9.248353,"geojson_lat":48.815237},"geometry":{"type":"Point","coordinates":[9.248353,48.815237]}},{"type":"Feature","properties":{"SeqNo":"358","Type":"Q","DHID":"de:08111:1300:2:3","Parent":"de:08111:1300:2","Name":"Gleis 3","MunicipalityCode":"00000000","Municipality":"-","DistrictCode":"-","District":"-","Description":"","Authority":"NVBW","DelfiName":"-","THID":"-","LastOperationDate":"","SEV":"nein","longitude":"9,24838","latitude":"48,815184","geojson_lng":9.24838,"geojson_lat":48.815184},"geometry":{"type":"Point","coordinates":[9.24838,48.815184]}},{"type":"Feature","properties":{"SeqNo":"359","Type":"Q","DHID":"de:08111:1300:2:4","Parent":"de:08111:1300:2","Name":"Gleis 4","MunicipalityCode":"00000000","Municipality":"-","DistrictCode":"-","District":"-","Description":"","Authority":"NVBW","DelfiName":"-","THID":"-","LastOperationDate":"","SEV":"nein","longitude":"9,248407","latitude":"48,815149","geojson_lng":9.248407,"geojson_lat":48.815149},"geometry":{"type":"Point","coordinates":[9.248407,48.815149]}},{"type":"Feature","properties":{"SeqNo":"360","Type":"Q","DHID":"de:08111:1300:3:3","Parent":"de:08111:1300:3","Name":"Bus - Ersatzhalte Li 58","MunicipalityCode":"00000000","Municipality":"-","DistrictCode":"-","District":"-","Description":"","Authority":"NVBW","DelfiName":"-","THID":"-","LastOperationDate":"","SEV":"nein","longitude":"9,246467","latitude":"48,815131","geojson_lng":9.246467,"geojson_lat":48.815131},"geometry":{"type":"Point","coordinates":[9.246467,48.815131]}},{"type":"Feature","properties":{"SeqNo":"361","Type":"Q","DHID":"de:08111:1300:3:4","Parent":"de:08111:1300:3","Name":"Linien 54/56 Endhst/Rtg Edelweißweg","MunicipalityCode":"00000000","Municipality":"-","DistrictCode":"-","District":"-","Description":"","Authority":"NVBW","DelfiName":"-","THID":"-","LastOperationDate":"","SEV":"nein","longitude":"9,246467","latitude":"48,815143","geojson_lng":9.246467,"geojson_lat":48.815143},"geometry":{"type":"Point","coordinates":[9.246467,48.815143]}},{"type":"Feature","properties":{"SeqNo":"1141","Type":"S","DHID":"de:08111:2380","Parent":"de:08111:2380","Name":"Auf der Gans","MunicipalityCode":"08111000","Municipality":"Stuttgart","DistrictCode":"-","District":"-","Description":"","Authority":"NVBW","DelfiName":"-","THID":"D91FAF00094C","LastOperationDate":"2025-02-28T00:00:00","SEV":"nein","longitude":"9,242011","latitude":"48,818692","geojson_lng":9.242011,"geojson_lat":48.818692},"geometry":{"type":"Point","coordinates":[9.242011,48.818692]}},{"type":"Feature","properties":{"SeqNo":"1142","Type":"Q","DHID":"de:08111:2380:0:3","Parent":"de:08111:2380","Name":"Rtg Obere Ziegelei","MunicipalityCode":"00000000","Municipality":"-","DistrictCode":"-","District":"-","Description":"Rtg Obere Ziegelei","Authority":"NVBW","DelfiName":"-","THID":"-","LastOperationDate":"","SEV":"nein","longitude":"9,241796","latitude":"48,818568","geojson_lng":9.241796,"geojson_lat":48.818568},"geometry":{"type":"Point","coordinates":[9.241796,48.818568]}},{"type":"Feature","properties":{"SeqNo":"1143","Type":"Q","DHID":"de:08111:2380:0:4","Parent":"de:08111:2380","Name":"Rtg Kleiner Ostring","MunicipalityCode":"00000000","Municipality":"-","DistrictCode":"-","District":"-","Description":"Rtg Kleiner Ostring","Authority":"NVBW","DelfiName":"-","THID":"-","LastOperationDate":"","SEV":"nein","longitude":"9,242263","latitude":"48,81881","geojson_lng":9.242263,"geojson_lat":48.81881},"geometry":{"type":"Point","coordinates":[9.242263,48.81881]}},{"type":"Feature","properties":{"SeqNo":"1144","Type":"S","DHID":"de:08111:2382","Parent":"de:08111:2382","Name":"Kleiner Ostring","MunicipalityCode":"08111000","Municipality":"Stuttgart","DistrictCode":"","District":"","Description":"","Authority":"NVBW","DelfiName":"-","THID":"D91FAF00094E","LastOperationDate":"2025-02-28T00:00:00","SEV":"nein","longitude":"9,245102","latitude":"48,820691","geojson_lng":9.245102,"geojson_lat":48.820691},"geometry":{"type":"Point","coordinates":[9.245102,48.820691]}},{"type":"Feature","properties":{"SeqNo":"1145","Type":"Q","DHID":"de:08111:2382:0:3","Parent":"de:08111:2382","Name":"Rtg Auf der Gans","MunicipalityCode":"00000000","Municipality":"-","DistrictCode":"-","District":"-","Description":"","Authority":"NVBW","DelfiName":"-","THID":"-","LastOperationDate":"","SEV":"nein","longitude":"9,245084","latitude":"48,820691","geojson_lng":9.245084,"geojson_lat":48.820691},"geometry":{"type":"Point","coordinates":[9.245084,48.820691]}},{"type":"Feature","properties":{"SeqNo":"1146","Type":"Q","DHID":"de:08111:2382:0:4","Parent":"de:08111:2382","Name":"Rtg Schmiden Friedrichstr.","MunicipalityCode":"00000000","Municipality":"-","DistrictCode":"-","District":"-","Description":"","Authority":"NVBW","DelfiName":"-","THID":"-","LastOperationDate":"","SEV":"nein","longitude":"9,245084","latitude":"48,820691","geojson_lng":9.245084,"geojson_lat":48.820691},"geometry":{"type":"Point","coordinates":[9.245084,48.820691]}},{"type":"Feature","properties":{"SeqNo":"1147","Type":"Q","DHID":"de:08111:2382:0:5","Parent":"de:08111:2382","Name":"Ersatzhaltestelle Rtg Sommerrain","MunicipalityCode":"00000000","Municipality":"-","DistrictCode":"-","District":"-","Description":"","Authority":"NVBW","DelfiName":"-","THID":"-","LastOperationDate":"","SEV":"nein","longitude":"9,245703","latitude":"48,820744","geojson_lng":9.245703,"geojson_lat":48.820744},"geometry":{"type":"Point","coordinates":[9.245703,48.820744]}},{"type":"Feature","properties":{"SeqNo":"1148","Type":"Q","DHID":"de:08111:2382:0:6","Parent":"de:08111:2382","Name":"Ersatzhaltestelle Rtg Schmiden","MunicipalityCode":"00000000","Municipality":"-","DistrictCode":"-","District":"-","Description":"","Authority":"NVBW","DelfiName":"-","THID":"-","LastOperationDate":"","SEV":"nein","longitude":"9,245703","latitude":"48,820744","geojson_lng":9.245703,"geojson_lat":48.820744},"geometry":{"type":"Point","coordinates":[9.245703,48.820744]}},{"type":"Feature","properties":{"SeqNo":"1386","Type":"S","DHID":"de:08111:2487","Parent":"de:08111:2487","Name":"Edelweißweg","MunicipalityCode":"08111000","Municipality":"Stuttgart","DistrictCode":"-","District":"-","Description":"","Authority":"NVBW","DelfiName":"-","THID":"D91FAF0009B7","LastOperationDate":"2025-02-28T00:00:00","SEV":"nein","longitude":"9,241472","latitude":"48,814173","geojson_lng":9.241472,"geojson_lat":48.814173},"geometry":{"type":"Point","coordinates":[9.241472,48.814173]}},{"type":"Feature","properties":{"SeqNo":"1387","Type":"Q","DHID":"de:08111:2487:0:3","Parent":"de:08111:2487","Name":"Rtg Sommerrain","MunicipalityCode":"00000000","Municipality":"-","DistrictCode":"-","District":"-","Description":"Rtg Sommerrain","Authority":"NVBW","DelfiName":"-","THID":"-","LastOperationDate":"","SEV":"nein","longitude":"9,241463","latitude":"48,81419","geojson_lng":9.241463,"geojson_lat":48.81419},"geometry":{"type":"Point","coordinates":[9.241463,48.81419]}},{"type":"Feature","properties":{"SeqNo":"1388","Type":"Q","DHID":"de:08111:2487:0:4","Parent":"de:08111:2487","Name":"Rtg Obere Ziegelei","MunicipalityCode":"00000000","Municipality":"-","DistrictCode":"-","District":"-","Description":"Rtg Obere Ziegelei","Authority":"NVBW","DelfiName":"-","THID":"-","LastOperationDate":"","SEV":"nein","longitude":"9,241463","latitude":"48,81419","geojson_lng":9.241463,"geojson_lat":48.81419},"geometry":{"type":"Point","coordinates":[9.241463,48.81419]}}]}