{"type":"FeatureCollection","features":[{"type":"Feature","properties":{"SeqNo":"851727","Type":"Q","DHID":"de:14626:8916:0:91","Parent":"de:14626:8916","Name":"Ersatzhalt Ri. Rothenburg","MunicipalityCode":"00000000","Municipality":"-","DistrictCode":"-","District":"-","Description":"","Authority":"VVO","DelfiName":"-","THID":"-","LastOperationDate":"","SEV":"nein","longitude":"14,995622","latitude":"51,180154","geojson_lng":14.995622,"geojson_lat":51.180154},"geometry":{"type":"Point","coordinates":[14.995622,51.180154]}},{"type":"Feature","properties":{"SeqNo":"851728","Type":"Q","DHID":"de:14626:8916:0:92","Parent":"de:14626:8916","Name":"Ersatzhalt Ri. Görlitz","MunicipalityCode":"00000000","Municipality":"-","DistrictCode":"-","District":"-","Description":"","Authority":"VVO","DelfiName":"-","THID":"-","LastOperationDate":"","SEV":"nein","longitude":"14,996242","latitude":"51,18016","geojson_lng":14.996242,"geojson_lat":51.18016},"geometry":{"type":"Point","coordinates":[14.996242,51.18016]}},{"type":"Feature","properties":{"SeqNo":"851729","Type":"S","DHID":"de:14626:8917","Parent":"de:14626:8917","Name":"Görlitz Klingewalde Ost","MunicipalityCode":"14626110","Municipality":"Görlitz","DistrictCode":"","District":"","Description":"","Authority":"VVO","DelfiName":"-","THID":"D939220022D5","LastOperationDate":"2025-06-14T00:00:00","SEV":"nein","longitude":"14,995927","latitude":"51,180165","geojson_lng":14.995927,"geojson_lat":51.180165},"geometry":{"type":"Point","coordinates":[14.995927,51.180165]}},{"type":"Feature","properties":{"SeqNo":"851730","Type":"Q","DHID":"de:14626:8917:0:1","Parent":"de:14626:8917","Name":"1 - Ri. Klingewalde","MunicipalityCode":"00000000","Municipality":"-","DistrictCode":"-","District":"-","Description":"","Authority":"VVO","DelfiName":"-","THID":"-","LastOperationDate":"","SEV":"nein","longitude":"14,996188","latitude":"51,180165","geojson_lng":14.996188,"geojson_lat":51.180165},"geometry":{"type":"Point","coordinates":[14.996188,51.180165]}},{"type":"Feature","properties":{"SeqNo":"851731","Type":"Q","DHID":"de:14626:8917:0:2","Parent":"de:14626:8917","Name":"2 - Ri. Landeskronsiedlung","MunicipalityCode":"00000000","Municipality":"-","DistrictCode":"-","District":"-","Description":"","Authority":"VVO","DelfiName":"-","THID":"-","LastOperationDate":"","SEV":"nein","longitude":"14,995568","latitude":"51,18016","geojson_lng":14.995568,"geojson_lat":51.18016},"geometry":{"type":"Point","coordinates":[14.995568,51.18016]}},{"type":"Feature","properties":{"SeqNo":"851732","Type":"S","DHID":"de:14626:8918","Parent":"de:14626:8918","Name":"Görlitz Ziegeleiweg","MunicipalityCode":"14626110","Municipality":"Görlitz","DistrictCode":"","District":"","Description":"","Authority":"VVO","DelfiName":"-","THID":"D939220022D6","LastOperationDate":"2025-06-14T00:00:00","SEV":"nein","longitude":"14,99211","latitude":"51,180571","geojson_lng":14.99211,"geojson_lat":51.180571},"geometry":{"type":"Point","coordinates":[14.99211,51.180571]}},{"type":"Feature","properties":{"SeqNo":"851733","Type":"Q","DHID":"de:14626:8918:0:1","Parent":"de:14626:8918","Name":"1 - Ri. Klingewalde","MunicipalityCode":"00000000","Municipality":"-","DistrictCode":"-","District":"-","Description":"","Authority":"VVO","DelfiName":"-","THID":"-","LastOperationDate":"","SEV":"nein","longitude":"14,992172","latitude":"51,180588","geojson_lng":14.992172,"geojson_lat":51.180588},"geometry":{"type":"Point","coordinates":[14.992172,51.180588]}},{"type":"Feature","properties":{"SeqNo":"851734","Type":"Q","DHID":"de:14626:8918:0:2","Parent":"de:14626:8918","Name":"2 - Ri. Landeskronsiedlung","MunicipalityCode":"00000000","Municipality":"-","DistrictCode":"-","District":"-","Description":"","Authority":"VVO","DelfiName":"-","THID":"-","LastOperationDate":"","SEV":"nein","longitude":"14,992038","latitude":"51,180554","geojson_lng":14.992038,"geojson_lat":51.180554},"geometry":{"type":"Point","coordinates":[14.992038,51.180554]}}]}