{"type":"FeatureCollection","features":[{"type":"Feature","properties":{"highway":"bus_stop","public_transport":"platform","name":"Pater Schreursweg","ref:IFOPT":"NL:Q:68300200","_quaycode":"NL:Q:68300200","_town":"Panheel","_status":"available","_mode":"bus","_direction":330,"_visuallyAccessible":false,"_disabledAccessible":false,"geojson_lng":5.8722912791648305,"geojson_lat":51.17676290905745},"geometry":{"type":"Point","coordinates":[5.8722912791648305,51.17676290905745]}},{"type":"Feature","properties":{"highway":"bus_stop","public_transport":"platform","name":"Panheelderweg","ref:IFOPT":"NL:Q:68200180","_quaycode":"NL:Q:68200180","_town":"Heel","_status":"available","_mode":"bus","_direction":260,"_visuallyAccessible":false,"_disabledAccessible":false,"geojson_lng":5.885441182728515,"geojson_lat":51.177489284819416},"geometry":{"type":"Point","coordinates":[5.885441182728515,51.177489284819416]}},{"type":"Feature","properties":{"highway":"bus_stop","public_transport":"platform","name":"Heelderweg","ref:IFOPT":"NL:Q:68300190","_quaycode":"NL:Q:68300190","_town":"Panheel","_status":"available","_mode":"bus","_direction":91,"_visuallyAccessible":true,"_disabledAccessible":false,"geojson_lng":5.87502707741907,"geojson_lat":51.175834582323695},"geometry":{"type":"Point","coordinates":[5.87502707741907,51.175834582323695]}},{"type":"Feature","properties":{"highway":"bus_stop","public_transport":"platform","name":"Pater Schreursweg","ref:IFOPT":"NL:Q:68300210","_quaycode":"NL:Q:68300210","_town":"Panheel","_status":"available","_mode":"bus","_direction":174,"_visuallyAccessible":false,"_disabledAccessible":false,"geojson_lng":5.872176691527696,"geojson_lat":51.17674540971115},"geometry":{"type":"Point","coordinates":[5.872176691527696,51.17674540971115]}},{"type":"Feature","properties":{"highway":"bus_stop","public_transport":"platform","name":"Panheelderweg","ref:IFOPT":"NL:Q:68200190","_quaycode":"NL:Q:68200190","_town":"Heel","_status":"available","_mode":"bus","_direction":29,"_visuallyAccessible":false,"_disabledAccessible":false,"geojson_lng":5.885095059421092,"geojson_lat":51.177221101303616},"geometry":{"type":"Point","coordinates":[5.885095059421092,51.177221101303616]}},{"type":"Feature","properties":{"highway":"bus_stop","public_transport":"platform","name":"Heelderweg","ref:IFOPT":"NL:Q:68300180","_quaycode":"NL:Q:68300180","_town":"Panheel","_status":"available","_mode":"bus","_direction":282,"_visuallyAccessible":true,"_disabledAccessible":false,"geojson_lng":5.874584940943388,"geojson_lat":51.175944305338},"geometry":{"type":"Point","coordinates":[5.874584940943388,51.175944305338]}}]}