{"type":"FeatureCollection","features":[{"type":"Feature","properties":{"highway":"bus_stop","public_transport":"platform","name":"De Horsel","ref:IFOPT":"NL:Q:66241330","_quaycode":"NL:Q:66241330","_town":"Nuth","_status":"available","_mode":"bus","_direction":348,"_visuallyAccessible":false,"_disabledAccessible":false,"geojson_lng":5.88187021014055,"geojson_lat":50.925571797728296},"geometry":{"type":"Point","coordinates":[5.88187021014055,50.925571797728296]}},{"type":"Feature","properties":{"highway":"bus_stop","public_transport":"platform","name":"Pastorijstraat","ref:IFOPT":"NL:Q:66240430","_quaycode":"NL:Q:66240430","_town":"Nuth","_status":"available","_mode":"bus","_direction":284,"_visuallyAccessible":false,"_disabledAccessible":false,"geojson_lng":5.888332590258718,"geojson_lat":50.91687866466415},"geometry":{"type":"Point","coordinates":[5.888332590258718,50.91687866466415]}},{"type":"Feature","properties":{"highway":"bus_stop","public_transport":"platform","name":"De Horsel","ref:IFOPT":"NL:Q:66241340","_quaycode":"NL:Q:66241340","_town":"Nuth","_status":"available","_mode":"bus","_direction":160,"_visuallyAccessible":false,"_disabledAccessible":false,"geojson_lng":5.8818820401441245,"geojson_lat":50.92535601779742},"geometry":{"type":"Point","coordinates":[5.8818820401441245,50.92535601779742]}},{"type":"Feature","properties":{"highway":"bus_stop","public_transport":"platform","name":"Markt","ref:IFOPT":"NL:Q:66240390","_quaycode":"NL:Q:66240390","_town":"Nuth","_status":"available","_mode":"bus","_direction":228,"_visuallyAccessible":false,"_disabledAccessible":false,"geojson_lng":5.88227922205925,"geojson_lat":50.91728225805265},"geometry":{"type":"Point","coordinates":[5.88227922205925,50.91728225805265]}},{"type":"Feature","properties":{"highway":"bus_stop","public_transport":"platform","name":"Deweverplein","ref:IFOPT":"NL:Q:66240350","_quaycode":"NL:Q:66240350","_town":"Nuth","_status":"available","_mode":"bus","_direction":198,"_visuallyAccessible":false,"_disabledAccessible":false,"geojson_lng":5.88652490194049,"geojson_lat":50.91934944604595},"geometry":{"type":"Point","coordinates":[5.88652490194049,50.91934944604595]}},{"type":"Feature","properties":{"highway":"bus_stop","public_transport":"platform","name":"Deweverplein","ref:IFOPT":"NL:Q:66240340","_quaycode":"NL:Q:66240340","_town":"Nuth","_status":"available","_mode":"bus","_direction":40,"_visuallyAccessible":true,"_disabledAccessible":true,"geojson_lng":5.886981594573647,"geojson_lat":50.91950028623859},"geometry":{"type":"Point","coordinates":[5.886981594573647,50.91950028623859]}},{"type":"Feature","properties":{"highway":"bus_stop","public_transport":"platform","name":"Markt","ref:IFOPT":"NL:Q:66240380","_quaycode":"NL:Q:66240380","_town":"Nuth","_status":"available","_mode":"bus","_direction":90,"_visuallyAccessible":false,"_disabledAccessible":false,"geojson_lng":5.882847805260493,"geojson_lat":50.917261846053435},"geometry":{"type":"Point","coordinates":[5.882847805260493,50.917261846053435]}}]}