{"type":"FeatureCollection","features":[{"type":"Feature","properties":{"SeqNo":"134436","Type":"S","DHID":"de:09184:2565","Parent":"de:09184:2565","Name":"Gräfelfing, Würmtalstraße","MunicipalityCode":"09184120","Municipality":"Gräfelfing","DistrictCode":"","District":"","Description":"","Authority":"BEG","DelfiName":"-","THID":"D923E0000A05","LastOperationDate":"2025-06-14T00:00:00","SEV":"nein","longitude":"11,439362","latitude":"48,115257","geojson_lng":11.439362,"geojson_lat":48.115257},"geometry":{"type":"Point","coordinates":[11.439362,48.115257]}},{"type":"Feature","properties":{"SeqNo":"134437","Type":"Q","DHID":"de:09184:2565:0:1","Parent":"de:09184:2565","Name":"Ri. West / Jugendmusikschule","MunicipalityCode":"00000000","Municipality":"-","DistrictCode":"-","District":"-","Description":"","Authority":"BEG","DelfiName":"-","THID":"-","LastOperationDate":"","SEV":"nein","longitude":"11,43947","latitude":"48,115359","geojson_lng":11.43947,"geojson_lat":48.115359},"geometry":{"type":"Point","coordinates":[11.43947,48.115359]}},{"type":"Feature","properties":{"SeqNo":"134438","Type":"Q","DHID":"de:09184:2565:0:2","Parent":"de:09184:2565","Name":"Ri. Ost / Martinsried Würmtalstraße","MunicipalityCode":"00000000","Municipality":"-","DistrictCode":"-","District":"-","Description":"","Authority":"BEG","DelfiName":"-","THID":"-","LastOperationDate":"","SEV":"nein","longitude":"11,439282","latitude":"48,115197","geojson_lng":11.439282,"geojson_lat":48.115197},"geometry":{"type":"Point","coordinates":[11.439282,48.115197]}},{"type":"Feature","properties":{"SeqNo":"134439","Type":"S","DHID":"de:09184:2566","Parent":"de:09184:2566","Name":"Gräfelfing, Lohenstraße","MunicipalityCode":"09184120","Municipality":"Gräfelfing","DistrictCode":"","District":"","Description":"","Authority":"BEG","DelfiName":"-","THID":"D923E0000A06","LastOperationDate":"2025-06-14T00:00:00","SEV":"nein","longitude":"11,446226","latitude":"48,120691","geojson_lng":11.446226,"geojson_lat":48.120691},"geometry":{"type":"Point","coordinates":[11.446226,48.120691]}},{"type":"Feature","properties":{"SeqNo":"134440","Type":"A","DHID":"de:09184:2566:1","Parent":"de:09184:2566","Name":"planmäßige Bushst.","MunicipalityCode":"00000000","Municipality":"-","DistrictCode":"-","District":"-","Description":"","Authority":"BEG","DelfiName":"-","THID":"-","LastOperationDate":"","SEV":"nein","longitude":"11,446253","latitude":"48,120643","geojson_lng":11.446253,"geojson_lat":48.120643},"geometry":{"type":"Point","coordinates":[11.446253,48.120643]}},{"type":"Feature","properties":{"SeqNo":"134443","Type":"Q","DHID":"de:09184:2566:0:1","Parent":"de:09184:2566:1","Name":"Ri. Ost / Neuer Friedhof / Seeholzenstr","MunicipalityCode":"00000000","Municipality":"-","DistrictCode":"-","District":"-","Description":"","Authority":"BEG","DelfiName":"-","THID":"-","LastOperationDate":"","SEV":"nein","longitude":"11,446163","latitude":"48,120643","geojson_lng":11.446163,"geojson_lat":48.120643},"geometry":{"type":"Point","coordinates":[11.446163,48.120643]}},{"type":"Feature","properties":{"SeqNo":"134444","Type":"Q","DHID":"de:09184:2566:0:2","Parent":"de:09184:2566:1","Name":"Ri. West / Finkenstraße / Weinbuchweg","MunicipalityCode":"00000000","Municipality":"-","DistrictCode":"-","District":"-","Description":"","Authority":"BEG","DelfiName":"-","THID":"-","LastOperationDate":"","SEV":"nein","longitude":"11,446279","latitude":"48,120733","geojson_lng":11.446279,"geojson_lat":48.120733},"geometry":{"type":"Point","coordinates":[11.446279,48.120733]}},{"type":"Feature","properties":{"SeqNo":"134450","Type":"S","DHID":"de:09184:2568","Parent":"de:09184:2568","Name":"Gräfelfing, Weinbuchweg","MunicipalityCode":"09184120","Municipality":"Gräfelfing","DistrictCode":"","District":"","Description":"","Authority":"BEG","DelfiName":"-","THID":"D923E0000A08","LastOperationDate":"2025-06-14T00:00:00","SEV":"nein","longitude":"11,442021","latitude":"48,118472","geojson_lng":11.442021,"geojson_lat":48.118472},"geometry":{"type":"Point","coordinates":[11.442021,48.118472]}},{"type":"Feature","properties":{"SeqNo":"134451","Type":"Q","DHID":"de:09184:2568:0:1","Parent":"de:09184:2568","Name":"Ri. SO / Lohenstraße","MunicipalityCode":"00000000","Municipality":"-","DistrictCode":"-","District":"-","Description":"","Authority":"BEG","DelfiName":"-","THID":"-","LastOperationDate":"","SEV":"nein","longitude":"11,442048","latitude":"48,118436","geojson_lng":11.442048,"geojson_lat":48.118436},"geometry":{"type":"Point","coordinates":[11.442048,48.118436]}},{"type":"Feature","properties":{"SeqNo":"134452","Type":"Q","DHID":"de:09184:2568:0:2","Parent":"de:09184:2568","Name":"Ri. NW / Pasinger Straße","MunicipalityCode":"00000000","Municipality":"-","DistrictCode":"-","District":"-","Description":"","Authority":"BEG","DelfiName":"-","THID":"-","LastOperationDate":"","SEV":"nein","longitude":"11,441923","latitude":"48,118592","geojson_lng":11.441923,"geojson_lat":48.118592},"geometry":{"type":"Point","coordinates":[11.441923,48.118592]}},{"type":"Feature","properties":{"SeqNo":"134476","Type":"S","DHID":"de:09184:2572","Parent":"de:09184:2572","Name":"Gräfelfing, Pasinger Straße","MunicipalityCode":"09184120","Municipality":"Gräfelfing","DistrictCode":"","District":"","Description":"","Authority":"BEG","DelfiName":"-","THID":"D923E0000A0C","LastOperationDate":"2025-06-14T00:00:00","SEV":"nein","longitude":"11,438302","latitude":"48,117242","geojson_lng":11.438302,"geojson_lat":48.117242},"geometry":{"type":"Point","coordinates":[11.438302,48.117242]}},{"type":"Feature","properties":{"SeqNo":"134477","Type":"Q","DHID":"de:09184:2572:0:1","Parent":"de:09184:2572","Name":"Ri. NO / Weinbuchweg","MunicipalityCode":"00000000","Municipality":"-","DistrictCode":"-","District":"-","Description":"","Authority":"BEG","DelfiName":"-","THID":"-","LastOperationDate":"","SEV":"nein","longitude":"11,438042","latitude":"48,117098","geojson_lng":11.438042,"geojson_lat":48.117098},"geometry":{"type":"Point","coordinates":[11.438042,48.117098]}},{"type":"Feature","properties":{"SeqNo":"134478","Type":"Q","DHID":"de:09184:2572:0:2","Parent":"de:09184:2572","Name":"Ri. SW / Spitzackerstraße","MunicipalityCode":"00000000","Municipality":"-","DistrictCode":"-","District":"-","Description":"","Authority":"BEG","DelfiName":"-","THID":"-","LastOperationDate":"","SEV":"nein","longitude":"11,438608","latitude":"48,117422","geojson_lng":11.438608,"geojson_lat":48.117422},"geometry":{"type":"Point","coordinates":[11.438608,48.117422]}},{"type":"Feature","properties":{"SeqNo":"134614","Type":"S","DHID":"de:09184:2604","Parent":"de:09184:2604","Name":"Gräfelfing, Finkenstraße","MunicipalityCode":"09184120","Municipality":"Gräfelfing","DistrictCode":"","District":"","Description":"","Authority":"BEG","DelfiName":"-","THID":"D923E0000A2C","LastOperationDate":"2025-06-14T00:00:00","SEV":"nein","longitude":"11,443405","latitude":"48,117938","geojson_lng":11.443405,"geojson_lat":48.117938},"geometry":{"type":"Point","coordinates":[11.443405,48.117938]}},{"type":"Feature","properties":{"SeqNo":"134615","Type":"A","DHID":"de:09184:2604:0","Parent":"de:09184:2604","Name":"Wendes. Fink/Pas","MunicipalityCode":"00000000","Municipality":"-","DistrictCode":"-","District":"-","Description":"","Authority":"BEG","DelfiName":"-","THID":"-","LastOperationDate":"","SEV":"nein","longitude":"11,443423","latitude":"48,117908","geojson_lng":11.443423,"geojson_lat":48.117908},"geometry":{"type":"Point","coordinates":[11.443423,48.117908]}},{"type":"Feature","properties":{"SeqNo":"134616","Type":"A","DHID":"de:09184:2604:2","Parent":"de:09184:2604","Name":"E Großhd Str Ri O","MunicipalityCode":"00000000","Municipality":"-","DistrictCode":"-","District":"-","Description":"","Authority":"BEG","DelfiName":"-","THID":"-","LastOperationDate":"","SEV":"nein","longitude":"11,44548","latitude":"48,118406","geojson_lng":11.44548,"geojson_lat":48.118406},"geometry":{"type":"Point","coordinates":[11.44548,48.118406]}},{"type":"Feature","properties":{"SeqNo":"134617","Type":"Q","DHID":"de:09184:2604:0:1","Parent":"de:09184:2604:0","Name":"Wendekreis","MunicipalityCode":"00000000","Municipality":"-","DistrictCode":"-","District":"-","Description":"","Authority":"BEG","DelfiName":"-","THID":"-","LastOperationDate":"","SEV":"nein","longitude":"11,443468","latitude":"48,117914","geojson_lng":11.443468,"geojson_lat":48.117914},"geometry":{"type":"Point","coordinates":[11.443468,48.117914]}},{"type":"Feature","properties":{"SeqNo":"134618","Type":"Q","DHID":"de:09184:2604:2:2","Parent":"de:09184:2604:2","Name":"Ersatz Großhaderner Str. Ri Ost","MunicipalityCode":"00000000","Municipality":"-","DistrictCode":"-","District":"-","Description":"","Authority":"BEG","DelfiName":"-","THID":"-","LastOperationDate":"","SEV":"nein","longitude":"11,445489","latitude":"48,118412","geojson_lng":11.445489,"geojson_lat":48.118412},"geometry":{"type":"Point","coordinates":[11.445489,48.118412]}},{"type":"Feature","properties":{"SeqNo":"135224","Type":"S","DHID":"de:09184:9910","Parent":"de:09184:9910","Name":"Gräfelfing, Wandlhamerstraße","MunicipalityCode":"09184120","Municipality":"Gräfelfing","DistrictCode":"","District":"","Description":"","Authority":"BEG","DelfiName":"-","THID":"D923E00026B6","LastOperationDate":"2024-08-09T00:00:00","SEV":"nein","longitude":"11,438428","latitude":"48,121728","geojson_lng":11.438428,"geojson_lat":48.121728},"geometry":{"type":"Point","coordinates":[11.438428,48.121728]}},{"type":"Feature","properties":{"SeqNo":"135225","Type":"Q","DHID":"de:09184:9910:0:1","Parent":"de:09184:9910","Name":"Ri. O / Pasinger Straße","MunicipalityCode":"00000000","Municipality":"-","DistrictCode":"-","District":"-","Description":"","Authority":"BEG","DelfiName":"-","THID":"-","LastOperationDate":"","SEV":"nein","longitude":"11,437799","latitude":"48,121782","geojson_lng":11.437799,"geojson_lat":48.121782},"geometry":{"type":"Point","coordinates":[11.437799,48.121782]}},{"type":"Feature","properties":{"SeqNo":"135226","Type":"Q","DHID":"de:09184:9910:0:2","Parent":"de:09184:9910","Name":"Ri. W / Rottenbucher Straße","MunicipalityCode":"00000000","Municipality":"-","DistrictCode":"-","District":"-","Description":"","Authority":"BEG","DelfiName":"-","THID":"-","LastOperationDate":"","SEV":"nein","longitude":"11,439003","latitude":"48,12165","geojson_lng":11.439003,"geojson_lat":48.12165},"geometry":{"type":"Point","coordinates":[11.439003,48.12165]}}]}