{"type":"FeatureCollection","features":[{"type":"Feature","properties":{"SeqNo":"782530","Type":"S","DHID":"de:08226:3543","Parent":"de:08226:3543","Name":"Hilsbach, Friedhof","MunicipalityCode":"08226085","Municipality":"Sinsheim","DistrictCode":"","District":"","Description":"","Authority":"VRN","DelfiName":"-","THID":"D92022000DD7","LastOperationDate":"2025-06-14T00:00:00","SEV":"nein","longitude":"8,861934","latitude":"49,196345","geojson_lng":8.861934,"geojson_lat":49.196345},"geometry":{"type":"Point","coordinates":[8.861934,49.196345]}},{"type":"Feature","properties":{"SeqNo":"782531","Type":"Q","DHID":"de:08226:3543:0:1","Parent":"de:08226:3543","Name":"Ri Hilsbach-Jagdhausstr","MunicipalityCode":"00000000","Municipality":"-","DistrictCode":"-","District":"-","Description":"","Authority":"VRN","DelfiName":"-","THID":"-","LastOperationDate":"","SEV":"nein","longitude":"8,861934","latitude":"49,196339","geojson_lng":8.861934,"geojson_lat":49.196339},"geometry":{"type":"Point","coordinates":[8.861934,49.196339]}},{"type":"Feature","properties":{"SeqNo":"784182","Type":"A","DHID":"de:08226:5945:2","Parent":"de:08226:5945","Name":"RiWeiler","MunicipalityCode":"00000000","Municipality":"-","DistrictCode":"-","District":"-","Description":"RiWeiler","Authority":"VRN","DelfiName":"-","THID":"-","LastOperationDate":"","SEV":"nein","longitude":"8,866138","latitude":"49,198071","geojson_lng":8.866138,"geojson_lat":49.198071},"geometry":{"type":"Point","coordinates":[8.866138,49.198071]}},{"type":"Feature","properties":{"SeqNo":"784183","Type":"Q","DHID":"de:08226:5945:2:1","Parent":"de:08226:5945:2","Name":"Ri Sinsheim","MunicipalityCode":"00000000","Municipality":"-","DistrictCode":"-","District":"-","Description":"","Authority":"VRN","DelfiName":"-","THID":"-","LastOperationDate":"","SEV":"nein","longitude":"8,866138","latitude":"49,198071","geojson_lng":8.866138,"geojson_lat":49.198071},"geometry":{"type":"Point","coordinates":[8.866138,49.198071]}},{"type":"Feature","properties":{"SeqNo":"784221","Type":"S","DHID":"de:08226:5962","Parent":"de:08226:5962","Name":"Hilsbach, Marktstraße","MunicipalityCode":"08226085","Municipality":"Sinsheim","DistrictCode":"","District":"","Description":"","Authority":"VRN","DelfiName":"-","THID":"D9202200174A","LastOperationDate":"2025-06-14T00:00:00","SEV":"nein","longitude":"8,862797","latitude":"49,196199","geojson_lng":8.862797,"geojson_lat":49.196199},"geometry":{"type":"Point","coordinates":[8.862797,49.196199]}},{"type":"Feature","properties":{"SeqNo":"784222","Type":"Q","DHID":"de:08226:5962:0:RiN","Parent":"de:08226:5962","Name":"RiN Weiler/Kreuzäcker","MunicipalityCode":"00000000","Municipality":"-","DistrictCode":"-","District":"-","Description":"","Authority":"VRN","DelfiName":"-","THID":"-","LastOperationDate":"","SEV":"nein","longitude":"8,862877","latitude":"49,196163","geojson_lng":8.862877,"geojson_lat":49.196163},"geometry":{"type":"Point","coordinates":[8.862877,49.196163]}},{"type":"Feature","properties":{"SeqNo":"784223","Type":"Q","DHID":"de:08226:5962:0:RiW","Parent":"de:08226:5962","Name":"RiW Kraichgaustraße","MunicipalityCode":"00000000","Municipality":"-","DistrictCode":"-","District":"-","Description":"","Authority":"VRN","DelfiName":"-","THID":"-","LastOperationDate":"","SEV":"nein","longitude":"8,862725","latitude":"49,196216","geojson_lng":8.862725,"geojson_lat":49.196216},"geometry":{"type":"Point","coordinates":[8.862725,49.196216]}}]}