{"type":"FeatureCollection","features":[{"type":"Feature","properties":{"highway":"bus_stop","public_transport":"platform","name":"Pres. Kennedystraat","ref:IFOPT":"NL:Q:43740020","_quaycode":"NL:Q:43740020","_town":"Vroomshoop","_status":"available","_mode":"bus","_direction":270,"_visuallyAccessible":false,"_disabledAccessible":true,"geojson_lng":6.561312123001565,"geojson_lat":52.46178519608413},"geometry":{"type":"Point","coordinates":[6.561312123001565,52.46178519608413]}},{"type":"Feature","properties":{"highway":"bus_stop","public_transport":"platform","name":"Tonnendijk","ref:IFOPT":"NL:Q:43740090","_quaycode":"NL:Q:43740090","_town":"Vroomshoop","_status":"available","_mode":"bus","_direction":259,"_visuallyAccessible":false,"_disabledAccessible":false,"geojson_lng":6.573679435392606,"geojson_lat":52.461482259145434},"geometry":{"type":"Point","coordinates":[6.573679435392606,52.461482259145434]}},{"type":"Feature","properties":{"highway":"bus_stop","public_transport":"platform","name":"Tonnendijk","ref:IFOPT":"NL:Q:43740100","_quaycode":"NL:Q:43740100","_town":"Vroomshoop","_status":"available","_mode":"bus","_direction":78,"_visuallyAccessible":false,"_disabledAccessible":false,"geojson_lng":6.575747443991643,"geojson_lat":52.46177612534084},"geometry":{"type":"Point","coordinates":[6.575747443991643,52.46177612534084]}},{"type":"Feature","properties":{"highway":"bus_stop","public_transport":"platform","name":"Pres. Kennedystraat","ref:IFOPT":"NL:Q:43740030","_quaycode":"NL:Q:43740030","_town":"Vroomshoop","_status":"available","_mode":"bus","_direction":90,"_visuallyAccessible":false,"_disabledAccessible":true,"geojson_lng":6.561528734793257,"geojson_lat":52.46163025004388},"geometry":{"type":"Point","coordinates":[6.561528734793257,52.46163025004388]}},{"type":"Feature","properties":{"highway":"bus_stop","public_transport":"platform","name":"Beatrixstraat","ref:IFOPT":"NL:Q:43740140","_quaycode":"NL:Q:43740140","_town":"Vroomshoop","_status":"available","_mode":"bus","_direction":92,"_visuallyAccessible":false,"_disabledAccessible":true,"geojson_lng":6.567128780503668,"geojson_lat":52.46139558869393},"geometry":{"type":"Point","coordinates":[6.567128780503668,52.46139558869393]}},{"type":"Feature","properties":{"highway":"bus_stop","public_transport":"platform","name":"Beatrixstraat","ref:IFOPT":"NL:Q:43740130","_quaycode":"NL:Q:43740130","_town":"Vroomshoop","_status":"available","_mode":"bus","_direction":272,"_visuallyAccessible":false,"_disabledAccessible":true,"geojson_lng":6.564590339683904,"geojson_lat":52.46166279018311},"geometry":{"type":"Point","coordinates":[6.564590339683904,52.46166279018311]}},{"type":"Feature","properties":{"highway":"bus_stop","public_transport":"platform","name":"Dalvoorderslag","ref:IFOPT":"NL:Q:43740070","_quaycode":"NL:Q:43740070","_town":"Vroomshoop","_status":"available","_mode":"bus","_direction":259,"_visuallyAccessible":false,"_disabledAccessible":false,"geojson_lng":6.584064011498302,"geojson_lat":52.46349906474445},"geometry":{"type":"Point","coordinates":[6.584064011498302,52.46349906474445]}},{"type":"Feature","properties":{"highway":"bus_stop","public_transport":"platform","name":"Dalvoorderslag","ref:IFOPT":"NL:Q:43740080","_quaycode":"NL:Q:43740080","_town":"Vroomshoop","_status":"available","_mode":"bus","_direction":79,"_visuallyAccessible":false,"_disabledAccessible":false,"geojson_lng":6.585924998320121,"geojson_lat":52.46374990364164},"geometry":{"type":"Point","coordinates":[6.585924998320121,52.46374990364164]}},{"type":"Feature","properties":{"highway":"bus_stop","public_transport":"platform","name":"Zwembad","ref:IFOPT":"NL:Q:43840010","_quaycode":"NL:Q:43840010","_town":"Vroomshoop","_status":"available","_mode":"bus","_direction":281,"_visuallyAccessible":false,"_disabledAccessible":false,"geojson_lng":6.548671418360433,"geojson_lat":52.464570265016405},"geometry":{"type":"Point","coordinates":[6.548671418360433,52.464570265016405]}},{"type":"Feature","properties":{"highway":"bus_stop","public_transport":"platform","name":"Zwembad","ref:IFOPT":"NL:Q:43740180","_quaycode":"NL:Q:43740180","_town":"Vroomshoop","_status":"available","_mode":"bus","_direction":100,"_visuallyAccessible":false,"_disabledAccessible":false,"geojson_lng":6.5516400153040335,"geojson_lat":52.46385803142971},"geometry":{"type":"Point","coordinates":[6.5516400153040335,52.46385803142971]}}]}