{"type":"FeatureCollection","features":[{"type":"Feature","properties":{"SeqNo":"550773","Type":"S","DHID":"de:05170:36885","Parent":"de:05170:36885","Name":"Wesel Gnadenkirche","MunicipalityCode":"05170048","Municipality":"Wesel","DistrictCode":"-","District":"-","Description":"","Authority":"VRR","DelfiName":"-","THID":"D91432009015","LastOperationDate":"2025-06-14T00:00:00","SEV":"nein","longitude":"6,636116","latitude":"51,657041","geojson_lng":6.636116,"geojson_lat":51.657041},"geometry":{"type":"Point","coordinates":[6.636116,51.657041]}},{"type":"Feature","properties":{"SeqNo":"550775","Type":"Q","DHID":"de:05170:36885:0:2","Parent":"de:05170:36885","Name":"2","MunicipalityCode":"00000000","Municipality":"-","DistrictCode":"-","District":"-","Description":"Wackenbrucher Straße","Authority":"VRR","DelfiName":"-","THID":"-","LastOperationDate":"","SEV":"nein","longitude":"6,635729","latitude":"51,656957","geojson_lng":6.635729,"geojson_lat":51.656957},"geometry":{"type":"Point","coordinates":[6.635729,51.656957]}},{"type":"Feature","properties":{"SeqNo":"551204","Type":"S","DHID":"de:05170:37016","Parent":"de:05170:37016","Name":"Wesel Bagelstraße","MunicipalityCode":"05170048","Municipality":"Wesel","DistrictCode":"","District":"","Description":"","Authority":"VRR","DelfiName":"-","THID":"D91432009098","LastOperationDate":"2025-06-14T00:00:00","SEV":"nein","longitude":"6,643868","latitude":"51,65514","geojson_lng":6.643868,"geojson_lat":51.65514},"geometry":{"type":"Point","coordinates":[6.643868,51.65514]}},{"type":"Feature","properties":{"SeqNo":"551205","Type":"Q","DHID":"de:05170:37016:0:1","Parent":"de:05170:37016","Name":"Wackenbrucher Str.","MunicipalityCode":"00000000","Municipality":"-","DistrictCode":"-","District":"-","Description":"","Authority":"VRR","DelfiName":"-","THID":"-","LastOperationDate":"","SEV":"nein","longitude":"6,644048","latitude":"51,655096","geojson_lng":6.644048,"geojson_lat":51.655096},"geometry":{"type":"Point","coordinates":[6.644048,51.655096]}},{"type":"Feature","properties":{"SeqNo":"551206","Type":"Q","DHID":"de:05170:37016:0:2","Parent":"de:05170:37016","Name":"In der Luft/An der Brauerei","MunicipalityCode":"00000000","Municipality":"-","DistrictCode":"-","District":"-","Description":"","Authority":"VRR","DelfiName":"-","THID":"-","LastOperationDate":"","SEV":"nein","longitude":"6,643994","latitude":"51,655046","geojson_lng":6.643994,"geojson_lat":51.655046},"geometry":{"type":"Point","coordinates":[6.643994,51.655046]}},{"type":"Feature","properties":{"SeqNo":"551222","Type":"S","DHID":"de:05170:37022","Parent":"de:05170:37022","Name":"Wesel Wackenbrucher Str.","MunicipalityCode":"05170048","Municipality":"Wesel","DistrictCode":"","District":"","Description":"","Authority":"VRR","DelfiName":"-","THID":"D9143200909E","LastOperationDate":"2025-06-14T00:00:00","SEV":"nein","longitude":"6,639556","latitude":"51,657013","geojson_lng":6.639556,"geojson_lat":51.657013},"geometry":{"type":"Point","coordinates":[6.639556,51.657013]}},{"type":"Feature","properties":{"SeqNo":"551223","Type":"Q","DHID":"de:05170:37022:0:1","Parent":"de:05170:37022","Name":"Gnadenkirche","MunicipalityCode":"00000000","Municipality":"-","DistrictCode":"-","District":"-","Description":"","Authority":"VRR","DelfiName":"-","THID":"-","LastOperationDate":"","SEV":"nein","longitude":"6,639376","latitude":"51,657052","geojson_lng":6.639376,"geojson_lat":51.657052},"geometry":{"type":"Point","coordinates":[6.639376,51.657052]}},{"type":"Feature","properties":{"SeqNo":"551224","Type":"Q","DHID":"de:05170:37022:0:2","Parent":"de:05170:37022","Name":"Bagelstraße","MunicipalityCode":"00000000","Municipality":"-","DistrictCode":"-","District":"-","Description":"","Authority":"VRR","DelfiName":"-","THID":"-","LastOperationDate":"","SEV":"nein","longitude":"6,639394","latitude":"51,656963","geojson_lng":6.639394,"geojson_lat":51.656963},"geometry":{"type":"Point","coordinates":[6.639394,51.656963]}}]}