{"type":"FeatureCollection","features":[{"type":"Feature","properties":{"SeqNo":"852582","Type":"S","DHID":"de:14626:9191","Parent":"de:14626:9191","Name":"Georgewitz An der Skala","MunicipalityCode":"14626290","Municipality":"Löbau","DistrictCode":"","District":"","Description":"","Authority":"VVO","DelfiName":"-","THID":"D939220023E7","LastOperationDate":"2025-06-13T00:00:00","SEV":"nein","longitude":"14,694776","latitude":"51,118715","geojson_lng":14.694776,"geojson_lat":51.118715},"geometry":{"type":"Point","coordinates":[14.694776,51.118715]}},{"type":"Feature","properties":{"SeqNo":"852583","Type":"Q","DHID":"de:14626:9191:0:1","Parent":"de:14626:9191","Name":"1 - Ri. Kittlitz","MunicipalityCode":"00000000","Municipality":"-","DistrictCode":"-","District":"-","Description":"","Authority":"VVO","DelfiName":"-","THID":"-","LastOperationDate":"","SEV":"nein","longitude":"14,694884","latitude":"51,118687","geojson_lng":14.694884,"geojson_lat":51.118687},"geometry":{"type":"Point","coordinates":[14.694884,51.118687]}},{"type":"Feature","properties":{"SeqNo":"852584","Type":"Q","DHID":"de:14626:9191:0:2","Parent":"de:14626:9191","Name":"2 - Ri. Löbau","MunicipalityCode":"00000000","Municipality":"-","DistrictCode":"-","District":"-","Description":"","Authority":"VVO","DelfiName":"-","THID":"-","LastOperationDate":"","SEV":"nein","longitude":"14,694668","latitude":"51,118749","geojson_lng":14.694668,"geojson_lat":51.118749},"geometry":{"type":"Point","coordinates":[14.694668,51.118749]}},{"type":"Feature","properties":{"SeqNo":"852585","Type":"S","DHID":"de:14626:9192","Parent":"de:14626:9192","Name":"Georgewitz Löbauer Wasser","MunicipalityCode":"14626290","Municipality":"Löbau","DistrictCode":"","District":"","Description":"","Authority":"VVO","DelfiName":"-","THID":"D939220023E8","LastOperationDate":"2025-06-13T00:00:00","SEV":"nein","longitude":"14,695162","latitude":"51,117813","geojson_lng":14.695162,"geojson_lat":51.117813},"geometry":{"type":"Point","coordinates":[14.695162,51.117813]}},{"type":"Feature","properties":{"SeqNo":"852586","Type":"Q","DHID":"de:14626:9192:0:1","Parent":"de:14626:9192","Name":"1 - Ri. Bellwitz","MunicipalityCode":"00000000","Municipality":"-","DistrictCode":"-","District":"-","Description":"","Authority":"VVO","DelfiName":"-","THID":"-","LastOperationDate":"","SEV":"nein","longitude":"14,695243","latitude":"51,117847","geojson_lng":14.695243,"geojson_lat":51.117847},"geometry":{"type":"Point","coordinates":[14.695243,51.117847]}},{"type":"Feature","properties":{"SeqNo":"852587","Type":"Q","DHID":"de:14626:9192:0:2","Parent":"de:14626:9192","Name":"2 - Ri. Löbau","MunicipalityCode":"00000000","Municipality":"-","DistrictCode":"-","District":"-","Description":"","Authority":"VVO","DelfiName":"-","THID":"-","LastOperationDate":"","SEV":"nein","longitude":"14,695064","latitude":"51,117779","geojson_lng":14.695064,"geojson_lat":51.117779},"geometry":{"type":"Point","coordinates":[14.695064,51.117779]}}]}