{"type":"FeatureCollection","features":[{"type":"Feature","properties":{"SeqNo":"45758","Type":"S","DHID":"de:08216:32230","Parent":"de:08216:32230","Name":"Altschweier Kirche","MunicipalityCode":"08216007","Municipality":"Bühl","DistrictCode":"","District":"","Description":"","Authority":"NVBW","DelfiName":"-","THID":"D92018007DE6","LastOperationDate":"2025-06-14T00:00:00","SEV":"nein","longitude":"8,16132","latitude":"48,698191","geojson_lng":8.16132,"geojson_lat":48.698191},"geometry":{"type":"Point","coordinates":[8.16132,48.698191]}},{"type":"Feature","properties":{"SeqNo":"45759","Type":"Q","DHID":"de:08216:32230:0:1","Parent":"de:08216:32230","Name":"Ri Bühlertal","MunicipalityCode":"00000000","Municipality":"-","DistrictCode":"-","District":"-","Description":"","Authority":"NVBW","DelfiName":"-","THID":"-","LastOperationDate":"","SEV":"nein","longitude":"8,161527","latitude":"48,698274","geojson_lng":8.161527,"geojson_lat":48.698274},"geometry":{"type":"Point","coordinates":[8.161527,48.698274]}},{"type":"Feature","properties":{"SeqNo":"45760","Type":"Q","DHID":"de:08216:32230:0:2","Parent":"de:08216:32230","Name":"Ri Bühl","MunicipalityCode":"00000000","Municipality":"-","DistrictCode":"-","District":"-","Description":"","Authority":"NVBW","DelfiName":"-","THID":"-","LastOperationDate":"","SEV":"nein","longitude":"8,161105","latitude":"48,698108","geojson_lng":8.161105,"geojson_lat":48.698108},"geometry":{"type":"Point","coordinates":[8.161105,48.698108]}},{"type":"Feature","properties":{"SeqNo":"45761","Type":"S","DHID":"de:08216:32231","Parent":"de:08216:32231","Name":"Altschweier Grautenbach","MunicipalityCode":"08216007","Municipality":"Bühl","DistrictCode":"","District":"","Description":"","Authority":"NVBW","DelfiName":"-","THID":"D92018007DE7","LastOperationDate":"2025-06-14T00:00:00","SEV":"nein","longitude":"8,151915","latitude":"48,696311","geojson_lng":8.151915,"geojson_lat":48.696311},"geometry":{"type":"Point","coordinates":[8.151915,48.696311]}},{"type":"Feature","properties":{"SeqNo":"45762","Type":"Q","DHID":"de:08216:32231:0:1","Parent":"de:08216:32231","Name":"Ri Bühlertal","MunicipalityCode":"00000000","Municipality":"-","DistrictCode":"-","District":"-","Description":"","Authority":"NVBW","DelfiName":"-","THID":"-","LastOperationDate":"","SEV":"nein","longitude":"8,152337","latitude":"48,696483","geojson_lng":8.152337,"geojson_lat":48.696483},"geometry":{"type":"Point","coordinates":[8.152337,48.696483]}},{"type":"Feature","properties":{"SeqNo":"46464","Type":"S","DHID":"de:08216:34825","Parent":"de:08216:34825","Name":"Kappelwindeck Öhinghaltweg","MunicipalityCode":"08216007","Municipality":"Bühl","DistrictCode":"","District":"","Description":"","Authority":"NVBW","DelfiName":"-","THID":"D92018008809","LastOperationDate":"2025-06-14T00:00:00","SEV":"nein","longitude":"8,151969","latitude":"48,691621","geojson_lng":8.151969,"geojson_lat":48.691621},"geometry":{"type":"Point","coordinates":[8.151969,48.691621]}},{"type":"Feature","properties":{"SeqNo":"46465","Type":"Q","DHID":"de:08216:34825:0:1","Parent":"de:08216:34825","Name":"1","MunicipalityCode":"00000000","Municipality":"-","DistrictCode":"-","District":"-","Description":"","Authority":"NVBW","DelfiName":"-","THID":"-","LastOperationDate":"","SEV":"nein","longitude":"8,152005","latitude":"48,691657","geojson_lng":8.152005,"geojson_lat":48.691657},"geometry":{"type":"Point","coordinates":[8.152005,48.691657]}}]}