{"type":"FeatureCollection","features":[{"type":"Feature","properties":{"highway":"bus_stop","public_transport":"platform","name":"Dorpstraat","ref:IFOPT":"NL:Q:62320130","_quaycode":"NL:Q:62320130","_town":"Hurwenen","_status":"available","_mode":"bus","_direction":257,"_visuallyAccessible":false,"_disabledAccessible":true,"geojson_lng":5.314078118956225,"geojson_lat":51.80868279820937},"geometry":{"type":"Point","coordinates":[5.314078118956225,51.80868279820937]}},{"type":"Feature","properties":{"highway":"bus_stop","public_transport":"platform","name":"Bommelsekade","ref:IFOPT":"NL:Q:62571090","_quaycode":"NL:Q:62571090","_town":"Zaltbommel","_status":"available","_mode":"bus","_direction":331,"_visuallyAccessible":true,"_disabledAccessible":true,"geojson_lng":5.2754322775294336,"geojson_lat":51.798162949676666},"geometry":{"type":"Point","coordinates":[5.2754322775294336,51.798162949676666]}},{"type":"Feature","properties":{"highway":"bus_stop","public_transport":"platform","name":"Marshallweg","ref:IFOPT":"NL:Q:62320150","_quaycode":"NL:Q:62320150","_town":"Hurwenen","_status":"available","_mode":"bus","_direction":139,"_visuallyAccessible":false,"_disabledAccessible":false,"geojson_lng":5.30931053778716,"geojson_lat":51.806962955699746},"geometry":{"type":"Point","coordinates":[5.30931053778716,51.806962955699746]}},{"type":"Feature","properties":{"highway":"bus_stop","public_transport":"platform","name":"Dorpstraat","ref:IFOPT":"NL:Q:62320240","_quaycode":"NL:Q:62320240","_town":"Hurwenen","_status":"available","_mode":"bus","_direction":72,"_visuallyAccessible":true,"_disabledAccessible":true,"geojson_lng":5.314382592635834,"geojson_lat":51.80870096391933},"geometry":{"type":"Point","coordinates":[5.314382592635834,51.80870096391933]}},{"type":"Feature","properties":{"highway":"bus_stop","public_transport":"platform","name":"Bommelsekade","ref:IFOPT":"NL:Q:62571080","_quaycode":"NL:Q:62571080","_town":"Zaltbommel","_status":"available","_mode":"bus","_direction":140,"_visuallyAccessible":true,"_disabledAccessible":true,"geojson_lng":5.275084757656019,"geojson_lat":51.79800082740739},"geometry":{"type":"Point","coordinates":[5.275084757656019,51.79800082740739]}},{"type":"Feature","properties":{"highway":"bus_stop","public_transport":"platform","name":"Van Heemstraweg","ref:IFOPT":"NL:Q:62320190","_quaycode":"NL:Q:62320190","_town":"Hurwenen","_status":"available","_mode":"bus","_direction":190,"_visuallyAccessible":false,"_disabledAccessible":false,"geojson_lng":5.299667393838248,"geojson_lat":51.79995421731236},"geometry":{"type":"Point","coordinates":[5.299667393838248,51.79995421731236]}},{"type":"Feature","properties":{"highway":"bus_stop","public_transport":"platform","name":"Valeton","ref:IFOPT":"NL:Q:62571030","_quaycode":"NL:Q:62571030","_town":"Zaltbommel","_status":"available","_mode":"bus","_direction":203,"_visuallyAccessible":true,"_disabledAccessible":true,"geojson_lng":5.274540330643202,"geojson_lat":51.80122713985154},"geometry":{"type":"Point","coordinates":[5.274540330643202,51.80122713985154]}},{"type":"Feature","properties":{"highway":"bus_stop","public_transport":"platform","name":"Marshallweg","ref:IFOPT":"NL:Q:62320160","_quaycode":"NL:Q:62320160","_town":"Hurwenen","_status":"available","_mode":"bus","_direction":316,"_visuallyAccessible":false,"_disabledAccessible":false,"geojson_lng":5.3093975042593735,"geojson_lat":51.806980990049546},"geometry":{"type":"Point","coordinates":[5.3093975042593735,51.806980990049546]}},{"type":"Feature","properties":{"highway":"bus_stop","public_transport":"platform","name":"Valeton","ref:IFOPT":"NL:Q:62571040","_quaycode":"NL:Q:62571040","_town":"Zaltbommel","_status":"available","_mode":"bus","_direction":24,"_visuallyAccessible":true,"_disabledAccessible":true,"geojson_lng":5.275003944887295,"geojson_lat":51.80135342102249},"geometry":{"type":"Point","coordinates":[5.275003944887295,51.80135342102249]}},{"type":"Feature","properties":{"highway":"bus_stop","public_transport":"platform","name":"Van Heemstraweg","ref:IFOPT":"NL:Q:62320200","_quaycode":"NL:Q:62320200","_town":"Hurwenen","_status":"available","_mode":"bus","_direction":12,"_visuallyAccessible":false,"_disabledAccessible":false,"geojson_lng":5.299768875045021,"geojson_lat":51.799954292852604},"geometry":{"type":"Point","coordinates":[5.299768875045021,51.799954292852604]}}]}