{"type":"FeatureCollection","features":[{"type":"Feature","properties":{"highway":"bus_stop","public_transport":"platform","name":"Hambakenweg","ref:IFOPT":"NL:Q:63007400","_quaycode":"NL:Q:63007400","_town":"'s-Hertogenbosch","_status":"available","_mode":"bus","_direction":139,"_visuallyAccessible":false,"_disabledAccessible":false,"geojson_lng":5.29830542723571,"geojson_lat":51.71112048897679},"geometry":{"type":"Point","coordinates":[5.29830542723571,51.71112048897679]}},{"type":"Feature","properties":{"highway":"bus_stop","public_transport":"platform","name":"Hambakendreef","ref:IFOPT":"NL:Q:63006430","_quaycode":"NL:Q:63006430","_town":"'s-Hertogenbosch","_status":"available","_mode":"bus","_direction":144,"_visuallyAccessible":true,"_disabledAccessible":true,"geojson_lng":5.304379620644344,"geojson_lat":51.71260803116054},"geometry":{"type":"Point","coordinates":[5.304379620644344,51.71260803116054]}},{"type":"Feature","properties":{"highway":"bus_stop","public_transport":"platform","name":"Zwartbroekweg","ref:IFOPT":"NL:Q:63015160","_quaycode":"NL:Q:63015160","_town":"'s-Hertogenbosch","_status":"available","_mode":"bus","_direction":19,"_visuallyAccessible":true,"_disabledAccessible":true,"geojson_lng":5.295458169616058,"geojson_lat":51.72387294046575},"geometry":{"type":"Point","coordinates":[5.295458169616058,51.72387294046575]}},{"type":"Feature","properties":{"highway":"bus_stop","public_transport":"platform","name":" St. Teunislaan","ref:IFOPT":"NL:Q:63000300","_quaycode":"NL:Q:63000300","_town":"'s-Hertogenbosch","_status":"available","_mode":"bus","_direction":65,"_visuallyAccessible":false,"_disabledAccessible":false,"geojson_lng":5.309245357513523,"geojson_lat":51.710256382352235},"geometry":{"type":"Point","coordinates":[5.309245357513523,51.710256382352235]}},{"type":"Feature","properties":{"highway":"bus_stop","public_transport":"platform","name":"Troelstradreef","ref:IFOPT":"NL:Q:63015180","_quaycode":"NL:Q:63015180","_town":"'s-Hertogenbosch","_status":"available","_mode":"bus","_direction":261,"_visuallyAccessible":true,"_disabledAccessible":false,"geojson_lng":5.297378892770747,"geojson_lat":51.72597772690616},"geometry":{"type":"Point","coordinates":[5.297378892770747,51.72597772690616]}},{"type":"Feature","properties":{"highway":"bus_stop","public_transport":"platform","name":"Zilverwilg","ref:IFOPT":"NL:Q:63015240","_quaycode":"NL:Q:63015240","_town":"'s-Hertogenbosch","_status":"available","_mode":"bus","_direction":313,"_visuallyAccessible":false,"_disabledAccessible":false,"geojson_lng":5.293196309564904,"geojson_lat":51.72583962479978},"geometry":{"type":"Point","coordinates":[5.293196309564904,51.72583962479978]}},{"type":"Feature","properties":{"highway":"bus_stop","public_transport":"platform","name":"Klokkenlaan","ref:IFOPT":"NL:Q:63006150","_quaycode":"NL:Q:63006150","_town":"'s-Hertogenbosch","_status":"available","_mode":"bus","_direction":357,"_visuallyAccessible":true,"_disabledAccessible":true,"geojson_lng":5.311325110236574,"geojson_lat":51.7124778988009},"geometry":{"type":"Point","coordinates":[5.311325110236574,51.7124778988009]}},{"type":"Feature","properties":{"highway":"bus_stop","public_transport":"platform","name":"Saxofoon","ref:IFOPT":"NL:Q:63000280","_quaycode":"NL:Q:63000280","_town":"'s-Hertogenbosch","_status":"available","_mode":"bus","_direction":247,"_visuallyAccessible":false,"_disabledAccessible":false,"geojson_lng":5.298931930255828,"geojson_lat":51.7163163009106},"geometry":{"type":"Point","coordinates":[5.298931930255828,51.7163163009106]}},{"type":"Feature","properties":{"highway":"bus_stop","public_transport":"platform","name":"Lugteren","ref:IFOPT":"NL:Q:63015250","_quaycode":"NL:Q:63015250","_town":"'s-Hertogenbosch","_status":"available","_mode":"bus","_direction":133,"_visuallyAccessible":false,"_disabledAccessible":false,"geojson_lng":5.291427439068626,"geojson_lat":51.72730331450503},"geometry":{"type":"Point","coordinates":[5.291427439068626,51.72730331450503]}},{"type":"Feature","properties":{"highway":"bus_stop","public_transport":"platform","name":"Klokkendiep","ref:IFOPT":"NL:Q:63006270","_quaycode":"NL:Q:63006270","_town":"'s-Hertogenbosch","_status":"available","_mode":"bus","_direction":132,"_visuallyAccessible":true,"_disabledAccessible":true,"geojson_lng":5.302653831440234,"geojson_lat":51.714719092504716},"geometry":{"type":"Point","coordinates":[5.302653831440234,51.714719092504716]}},{"type":"Feature","properties":{"highway":"bus_stop","public_transport":"platform","name":"Rompertpassage","ref:IFOPT":"NL:Q:63006450","_quaycode":"NL:Q:63006450","_town":"'s-Hertogenbosch","_status":"available","_mode":"bus","_direction":248,"_visuallyAccessible":true,"_disabledAccessible":true,"geojson_lng":5.3131356777296945,"geojson_lat":51.71131055307521},"geometry":{"type":"Point","coordinates":[5.3131356777296945,51.71131055307521]}},{"type":"Feature","properties":{"highway":"bus_stop","public_transport":"platform","name":"De Bokkelaren","ref:IFOPT":"NL:Q:63006210","_quaycode":"NL:Q:63006210","_town":"'s-Hertogenbosch","_status":"available","_mode":"bus","_direction":263,"_visuallyAccessible":true,"_disabledAccessible":true,"geojson_lng":5.304557012469767,"geojson_lat":51.71847762946151},"geometry":{"type":"Point","coordinates":[5.304557012469767,51.71847762946151]}},{"type":"Feature","properties":{"highway":"bus_stop","public_transport":"platform","name":"Troelstradreef","ref:IFOPT":"NL:Q:63015170","_quaycode":"NL:Q:63015170","_town":"'s-Hertogenbosch","_status":"available","_mode":"bus","_direction":343,"_visuallyAccessible":true,"_disabledAccessible":true,"geojson_lng":5.298361720203305,"geojson_lat":51.72667957503336},"geometry":{"type":"Point","coordinates":[5.298361720203305,51.72667957503336]}},{"type":"Feature","properties":{"highway":"bus_stop","public_transport":"platform","name":"Hambakenweg","ref:IFOPT":"NL:Q:63007410","_quaycode":"NL:Q:63007410","_town":"'s-Hertogenbosch","_status":"available","_mode":"bus","_direction":261,"_visuallyAccessible":false,"_disabledAccessible":false,"geojson_lng":5.297436621112067,"geojson_lat":51.71146138984615},"geometry":{"type":"Point","coordinates":[5.297436621112067,51.71146138984615]}},{"type":"Feature","properties":{"highway":"bus_stop","public_transport":"platform","name":"Eimeren","ref:IFOPT":"NL:Q:63015060","_quaycode":"NL:Q:63015060","_town":"'s-Hertogenbosch","_status":"available","_mode":"bus","_direction":129,"_visuallyAccessible":true,"_disabledAccessible":true,"geojson_lng":5.308148977404691,"geojson_lat":51.7249877536223},"geometry":{"type":"Point","coordinates":[5.308148977404691,51.7249877536223]}},{"type":"Feature","properties":{"highway":"bus_stop","public_transport":"platform","name":"De Clockenweerde","ref:IFOPT":"NL:Q:63006170","_quaycode":"NL:Q:63006170","_town":"'s-Hertogenbosch","_status":"available","_mode":"bus","_direction":323,"_visuallyAccessible":true,"_disabledAccessible":true,"geojson_lng":5.309136411071677,"geojson_lat":51.71470560559293},"geometry":{"type":"Point","coordinates":[5.309136411071677,51.71470560559293]}},{"type":"Feature","properties":{"highway":"bus_stop","public_transport":"platform","name":"Maaspoortweg","ref:IFOPT":"NL:Q:63012080","_quaycode":"NL:Q:63012080","_town":"'s-Hertogenbosch","_status":"available","_mode":"bus","_direction":107,"_visuallyAccessible":true,"_disabledAccessible":true,"geojson_lng":5.311451647661553,"geojson_lat":51.723336053183274},"geometry":{"type":"Point","coordinates":[5.311451647661553,51.723336053183274]}},{"type":"Feature","properties":{"highway":"bus_stop","public_transport":"platform","name":"Burg. Godschalxstraat","ref:IFOPT":"NL:Q:63147850","_quaycode":"NL:Q:63147850","_town":"'s-Hertogenbosch","_status":"available","_mode":"bus","_direction":235,"_visuallyAccessible":false,"_disabledAccessible":false,"geojson_lng":5.316226594102847,"geojson_lat":51.72401317114574},"geometry":{"type":"Point","coordinates":[5.316226594102847,51.72401317114574]}},{"type":"Feature","properties":{"highway":"bus_stop","public_transport":"platform","name":"Larenweg","ref:IFOPT":"NL:Q:63015140","_quaycode":"NL:Q:63015140","_town":"'s-Hertogenbosch","_status":"available","_mode":"bus","_direction":12,"_visuallyAccessible":false,"_disabledAccessible":true,"geojson_lng":5.295085001527127,"geojson_lat":51.7223356202621},"geometry":{"type":"Point","coordinates":[5.295085001527127,51.7223356202621]}},{"type":"Feature","properties":{"highway":"bus_stop","public_transport":"platform","name":"Orthensehoven","ref:IFOPT":"NL:Q:63006480","_quaycode":"NL:Q:63006480","_town":"'s-Hertogenbosch","_status":"available","_mode":"bus","_direction":52,"_visuallyAccessible":false,"_disabledAccessible":false,"geojson_lng":5.305284616822633,"geojson_lat":51.70824026576031},"geometry":{"type":"Point","coordinates":[5.305284616822633,51.70824026576031]}},{"type":"Feature","properties":{"highway":"bus_stop","public_transport":"platform","name":"Hambakendreef","ref:IFOPT":"NL:Q:63006440","_quaycode":"NL:Q:63006440","_town":"'s-Hertogenbosch","_status":"available","_mode":"bus","_direction":325,"_visuallyAccessible":true,"_disabledAccessible":true,"geojson_lng":5.304567901886224,"geojson_lat":51.712509290618314},"geometry":{"type":"Point","coordinates":[5.304567901886224,51.712509290618314]}},{"type":"Feature","properties":{"highway":"bus_stop","public_transport":"platform","name":"Eerste Morgendreef","ref:IFOPT":"NL:Q:63006190","_quaycode":"NL:Q:63006190","_town":"'s-Hertogenbosch","_status":"available","_mode":"bus","_direction":338,"_visuallyAccessible":true,"_disabledAccessible":true,"geojson_lng":5.308857070275951,"geojson_lat":51.717213203892214},"geometry":{"type":"Point","coordinates":[5.308857070275951,51.717213203892214]}},{"type":"Feature","properties":{"highway":"bus_stop","public_transport":"platform","name":"Klokkendiep","ref:IFOPT":"NL:Q:63006260","_quaycode":"NL:Q:63006260","_town":"'s-Hertogenbosch","_status":"available","_mode":"bus","_direction":315,"_visuallyAccessible":true,"_disabledAccessible":true,"geojson_lng":5.3024360584922245,"geojson_lat":51.71510543984049},"geometry":{"type":"Point","coordinates":[5.3024360584922245,51.71510543984049]}},{"type":"Feature","properties":{"highway":"bus_stop","public_transport":"platform","name":"Rompertsebaan","ref:IFOPT":"NL:Q:63006130","_quaycode":"NL:Q:63006130","_town":"'s-Hertogenbosch","_status":"available","_mode":"bus","_direction":143,"_visuallyAccessible":true,"_disabledAccessible":true,"geojson_lng":5.313385704993686,"geojson_lat":51.70882090215933},"geometry":{"type":"Point","coordinates":[5.313385704993686,51.70882090215933]}},{"type":"Feature","properties":{"highway":"bus_stop","public_transport":"platform","name":"Lugteren","ref:IFOPT":"NL:Q:63015260","_quaycode":"NL:Q:63015260","_town":"'s-Hertogenbosch","_status":"available","_mode":"bus","_direction":259,"_visuallyAccessible":true,"_disabledAccessible":true,"geojson_lng":5.290472366451536,"geojson_lat":51.72720365819952},"geometry":{"type":"Point","coordinates":[5.290472366451536,51.72720365819952]}},{"type":"Feature","properties":{"highway":"bus_stop","public_transport":"platform","name":"Rompertpassage","ref:IFOPT":"NL:Q:63006460","_quaycode":"NL:Q:63006460","_town":"'s-Hertogenbosch","_status":"available","_mode":"bus","_direction":68,"_visuallyAccessible":true,"_disabledAccessible":false,"geojson_lng":5.314206100109045,"geojson_lat":51.71148200452614},"geometry":{"type":"Point","coordinates":[5.314206100109045,51.71148200452614]}},{"type":"Feature","properties":{"highway":"bus_stop","public_transport":"platform","name":"Zwartbroekweg","ref:IFOPT":"NL:Q:63015150","_quaycode":"NL:Q:63015150","_town":"'s-Hertogenbosch","_status":"available","_mode":"bus","_direction":193,"_visuallyAccessible":true,"_disabledAccessible":true,"geojson_lng":5.295240418813541,"geojson_lat":51.72419635486393},"geometry":{"type":"Point","coordinates":[5.295240418813541,51.72419635486393]}},{"type":"Feature","properties":{"highway":"bus_stop","public_transport":"platform","name":"De Morgen","ref:IFOPT":"NL:Q:63005830","_quaycode":"NL:Q:63005830","_town":"'s-Hertogenbosch","_status":"available","_mode":"bus","_direction":319,"_visuallyAccessible":true,"_disabledAccessible":true,"geojson_lng":5.316177299272105,"geojson_lat":51.718530176361085},"geometry":{"type":"Point","coordinates":[5.316177299272105,51.718530176361085]}},{"type":"Feature","properties":{"highway":"bus_stop","public_transport":"platform","name":"Orthensehoven","ref:IFOPT":"NL:Q:63006470","_quaycode":"NL:Q:63006470","_town":"'s-Hertogenbosch","_status":"available","_mode":"bus","_direction":203,"_visuallyAccessible":true,"_disabledAccessible":true,"geojson_lng":5.305471921182457,"geojson_lat":51.70867184337842},"geometry":{"type":"Point","coordinates":[5.305471921182457,51.70867184337842]}},{"type":"Feature","properties":{"highway":"bus_stop","public_transport":"platform","name":"Orthen","ref:IFOPT":"NL:Q:63006490","_quaycode":"NL:Q:63006490","_town":"'s-Hertogenbosch","_status":"available","_mode":"bus","_direction":155,"_visuallyAccessible":true,"_disabledAccessible":true,"geojson_lng":5.303062453361094,"geojson_lat":51.70506575965336},"geometry":{"type":"Point","coordinates":[5.303062453361094,51.70506575965336]}},{"type":"Feature","properties":{"highway":"bus_stop","public_transport":"platform","name":"Rompertsebaan","ref:IFOPT":"NL:Q:63006140","_quaycode":"NL:Q:63006140","_town":"'s-Hertogenbosch","_status":"available","_mode":"bus","_direction":321,"_visuallyAccessible":true,"_disabledAccessible":true,"geojson_lng":5.313559073717909,"geojson_lat":51.70897381517913},"geometry":{"type":"Point","coordinates":[5.313559073717909,51.70897381517913]}},{"type":"Feature","properties":{"highway":"bus_stop","public_transport":"platform","name":"De Morgen","ref:IFOPT":"NL:Q:63005840","_quaycode":"NL:Q:63005840","_town":"'s-Hertogenbosch","_status":"available","_mode":"bus","_direction":135,"_visuallyAccessible":true,"_disabledAccessible":true,"geojson_lng":5.317250416081863,"geojson_lat":51.717074688298545},"geometry":{"type":"Point","coordinates":[5.317250416081863,51.717074688298545]}},{"type":"Feature","properties":{"highway":"bus_stop","public_transport":"platform","name":"Maaspoortweg","ref:IFOPT":"NL:Q:63012070","_quaycode":"NL:Q:63012070","_town":"'s-Hertogenbosch","_status":"available","_mode":"bus","_direction":288,"_visuallyAccessible":true,"_disabledAccessible":true,"geojson_lng":5.312305494411585,"geojson_lat":51.723363566298445},"geometry":{"type":"Point","coordinates":[5.312305494411585,51.723363566298445]}},{"type":"Feature","properties":{"highway":"bus_stop","public_transport":"platform","name":"Weth. Schuurmanslaan","ref:IFOPT":"NL:Q:63006100","_quaycode":"NL:Q:63006100","_town":"'s-Hertogenbosch","_status":"available","_mode":"bus","_direction":197,"_visuallyAccessible":true,"_disabledAccessible":true,"geojson_lng":5.312846492912376,"geojson_lat":51.70237582023154},"geometry":{"type":"Point","coordinates":[5.312846492912376,51.70237582023154]}},{"type":"Feature","properties":{"highway":"bus_stop","public_transport":"platform","name":"Burg. Godschalxstraat","ref:IFOPT":"NL:Q:63147840","_quaycode":"NL:Q:63147840","_town":"'s-Hertogenbosch","_status":"available","_mode":"bus","_direction":54,"_visuallyAccessible":false,"_disabledAccessible":false,"geojson_lng":5.316298846309281,"geojson_lat":51.72408512250589},"geometry":{"type":"Point","coordinates":[5.316298846309281,51.72408512250589]}},{"type":"Feature","properties":{"highway":"bus_stop","public_transport":"platform","name":"Larenweg","ref:IFOPT":"NL:Q:63015130","_quaycode":"NL:Q:63015130","_town":"'s-Hertogenbosch","_status":"available","_mode":"bus","_direction":157,"_visuallyAccessible":true,"_disabledAccessible":true,"geojson_lng":5.2946962299179186,"geojson_lat":51.72136455988449},"geometry":{"type":"Point","coordinates":[5.2946962299179186,51.72136455988449]}},{"type":"Feature","properties":{"highway":"bus_stop","public_transport":"platform","name":"Schanswetering","ref:IFOPT":"NL:Q:63006110","_quaycode":"NL:Q:63006110","_town":"'s-Hertogenbosch","_status":"available","_mode":"bus","_direction":0,"_visuallyAccessible":false,"_disabledAccessible":false,"geojson_lng":5.313809210255632,"geojson_lat":51.70639427803142},"geometry":{"type":"Point","coordinates":[5.313809210255632,51.70639427803142]}},{"type":"Feature","properties":{"highway":"bus_stop","public_transport":"platform","name":"Weth. Schuurmanslaan","ref:IFOPT":"NL:Q:63006090","_quaycode":"NL:Q:63006090","_town":"'s-Hertogenbosch","_status":"available","_mode":"bus","_direction":17,"_visuallyAccessible":false,"_disabledAccessible":false,"geojson_lng":5.312991153173424,"geojson_lat":51.70237591177216},"geometry":{"type":"Point","coordinates":[5.312991153173424,51.70237591177216]}},{"type":"Feature","properties":{"highway":"bus_stop","public_transport":"platform","name":"Orthen","ref:IFOPT":"NL:Q:63006500","_quaycode":"NL:Q:63006500","_town":"'s-Hertogenbosch","_status":"available","_mode":"bus","_direction":331,"_visuallyAccessible":true,"_disabledAccessible":false,"geojson_lng":5.30272825696403,"geojson_lat":51.70584751762063},"geometry":{"type":"Point","coordinates":[5.30272825696403,51.70584751762063]}},{"type":"Feature","properties":{"highway":"bus_stop","public_transport":"platform","name":"De Baken","ref:IFOPT":"NL:Q:63006230","_quaycode":"NL:Q:63006230","_town":"'s-Hertogenbosch","_status":"available","_mode":"bus","_direction":175,"_visuallyAccessible":false,"_disabledAccessible":false,"geojson_lng":5.302040684278658,"geojson_lat":51.717594960703046},"geometry":{"type":"Point","coordinates":[5.302040684278658,51.717594960703046]}},{"type":"Feature","properties":{"highway":"bus_stop","public_transport":"platform","name":"Saxofoon","ref:IFOPT":"NL:Q:63000290","_quaycode":"NL:Q:63000290","_town":"'s-Hertogenbosch","_status":"available","_mode":"bus","_direction":63,"_visuallyAccessible":false,"_disabledAccessible":false,"geojson_lng":5.299047816597843,"geojson_lat":51.71625346869135},"geometry":{"type":"Point","coordinates":[5.299047816597843,51.71625346869135]}},{"type":"Feature","properties":{"highway":"bus_stop","public_transport":"platform","name":"Eimeren","ref:IFOPT":"NL:Q:63015050","_quaycode":"NL:Q:63015050","_town":"'s-Hertogenbosch","_status":"available","_mode":"bus","_direction":304,"_visuallyAccessible":false,"_disabledAccessible":false,"geojson_lng":5.3079307455978535,"geojson_lat":51.72563477590121},"geometry":{"type":"Point","coordinates":[5.3079307455978535,51.72563477590121]}},{"type":"Feature","properties":{"highway":"bus_stop","public_transport":"platform","name":"Zilverwilg","ref:IFOPT":"NL:Q:63015230","_quaycode":"NL:Q:63015230","_town":"'s-Hertogenbosch","_status":"available","_mode":"bus","_direction":131,"_visuallyAccessible":true,"_disabledAccessible":true,"geojson_lng":5.293631630214043,"geojson_lat":51.72530066471749},"geometry":{"type":"Point","coordinates":[5.293631630214043,51.72530066471749]}},{"type":"Feature","properties":{"highway":"bus_stop","public_transport":"platform","name":"Schanswetering","ref:IFOPT":"NL:Q:63006120","_quaycode":"NL:Q:63006120","_town":"'s-Hertogenbosch","_status":"available","_mode":"bus","_direction":180,"_visuallyAccessible":false,"_disabledAccessible":false,"geojson_lng":5.3136934280195085,"geojson_lat":51.706421171035956},"geometry":{"type":"Point","coordinates":[5.3136934280195085,51.706421171035956]}},{"type":"Feature","properties":{"highway":"bus_stop","public_transport":"platform","name":"Titaniumlaan","ref:IFOPT":"NL:Q:63010090","_quaycode":"NL:Q:63010090","_town":"'s-Hertogenbosch","_status":"available","_mode":"bus","_direction":321,"_visuallyAccessible":true,"_disabledAccessible":true,"geojson_lng":5.283981366409182,"geojson_lat":51.723773523317135},"geometry":{"type":"Point","coordinates":[5.283981366409182,51.723773523317135]}},{"type":"Feature","properties":{"highway":"bus_stop","public_transport":"platform","name":"Titaniumlaan","ref:IFOPT":"NL:Q:63010020","_quaycode":"NL:Q:63010020","_town":"'s-Hertogenbosch","_status":"available","_mode":"bus","_direction":249,"_visuallyAccessible":true,"_disabledAccessible":true,"geojson_lng":5.283866629994777,"geojson_lat":51.72331501045769},"geometry":{"type":"Point","coordinates":[5.283866629994777,51.72331501045769]}}]}