{"type":"FeatureCollection","features":[{"type":"Feature","properties":{"SeqNo":"557423","Type":"S","DHID":"de:05315:14011","Parent":"de:05315:14011","Name":"Köln Ehrenfeld Piusstr.","MunicipalityCode":"05315000","Municipality":"Köln","DistrictCode":"","District":"","Description":"","Authority":"VRR","DelfiName":"-","THID":"D914C30036BB","LastOperationDate":"2025-01-06T00:00:00","SEV":"nein","longitude":"6,925786","latitude":"50,945993","geojson_lng":6.925786,"geojson_lat":50.945993},"geometry":{"type":"Point","coordinates":[6.925786,50.945993]}},{"type":"Feature","properties":{"SeqNo":"557424","Type":"A","DHID":"de:05315:14011:1","Parent":"de:05315:14011","Name":"Piusstr.","MunicipalityCode":"00000000","Municipality":"-","DistrictCode":"-","District":"-","Description":"","Authority":"VRR","DelfiName":"-","THID":"-","LastOperationDate":"","SEV":"nein","longitude":"6,925768","latitude":"50,945987","geojson_lng":6.925768,"geojson_lat":50.945987},"geometry":{"type":"Point","coordinates":[6.925768,50.945987]}},{"type":"Feature","properties":{"SeqNo":"557425","Type":"Q","DHID":"de:05315:14011:1:11","Parent":"de:05315:14011:1","Name":"","MunicipalityCode":"00000000","Municipality":"-","DistrictCode":"-","District":"-","Description":"","Authority":"VRR","DelfiName":"-","THID":"-","LastOperationDate":"","SEV":"nein","longitude":"6,926262","latitude":"50,945795","geojson_lng":6.926262,"geojson_lat":50.945795},"geometry":{"type":"Point","coordinates":[6.926262,50.945795]}},{"type":"Feature","properties":{"SeqNo":"557426","Type":"Q","DHID":"de:05315:14011:1:12","Parent":"de:05315:14011:1","Name":"","MunicipalityCode":"00000000","Municipality":"-","DistrictCode":"-","District":"-","Description":"","Authority":"VRR","DelfiName":"-","THID":"-","LastOperationDate":"","SEV":"nein","longitude":"6,925714","latitude":"50,946123","geojson_lng":6.925714,"geojson_lat":50.946123},"geometry":{"type":"Point","coordinates":[6.925714,50.946123]}},{"type":"Feature","properties":{"SeqNo":"557431","Type":"S","DHID":"de:05315:14021","Parent":"de:05315:14021","Name":"Köln Ehrenfeld Gutenbergstr.","MunicipalityCode":"05315000","Municipality":"Köln","DistrictCode":"","District":"","Description":"","Authority":"VRR","DelfiName":"-","THID":"D914C30036C5","LastOperationDate":"2025-01-06T00:00:00","SEV":"nein","longitude":"6,928275","latitude":"50,950362","geojson_lng":6.928275,"geojson_lat":50.950362},"geometry":{"type":"Point","coordinates":[6.928275,50.950362]}},{"type":"Feature","properties":{"SeqNo":"557432","Type":"A","DHID":"de:05315:14021:1","Parent":"de:05315:14021","Name":"Bahnsteig 2","MunicipalityCode":"00000000","Municipality":"-","DistrictCode":"-","District":"-","Description":"","Authority":"VRR","DelfiName":"-","THID":"-","LastOperationDate":"","SEV":"nein","longitude":"6,928311","latitude":"50,950424","geojson_lng":6.928311,"geojson_lat":50.950424},"geometry":{"type":"Point","coordinates":[6.928311,50.950424]}},{"type":"Feature","properties":{"SeqNo":"557433","Type":"A","DHID":"de:05315:14021:11","Parent":"de:05315:14021","Name":"Bahnsteig 1","MunicipalityCode":"00000000","Municipality":"-","DistrictCode":"-","District":"-","Description":"","Authority":"VRR","DelfiName":"-","THID":"-","LastOperationDate":"","SEV":"nein","longitude":"6,928364","latitude":"50,950305","geojson_lng":6.928364,"geojson_lat":50.950305},"geometry":{"type":"Point","coordinates":[6.928364,50.950305]}},{"type":"Feature","properties":{"SeqNo":"557434","Type":"A","DHID":"de:05315:14021:12","Parent":"de:05315:14021","Name":"Bahnsteig 2","MunicipalityCode":"00000000","Municipality":"-","DistrictCode":"-","District":"-","Description":"","Authority":"VRR","DelfiName":"-","THID":"-","LastOperationDate":"","SEV":"nein","longitude":"6,928311","latitude":"50,950424","geojson_lng":6.928311,"geojson_lat":50.950424},"geometry":{"type":"Point","coordinates":[6.928311,50.950424]}},{"type":"Feature","properties":{"SeqNo":"557435","Type":"A","DHID":"de:05315:14021:2","Parent":"de:05315:14021","Name":"Gutenbergstr.","MunicipalityCode":"00000000","Municipality":"-","DistrictCode":"-","District":"-","Description":"","Authority":"VRR","DelfiName":"-","THID":"-","LastOperationDate":"","SEV":"nein","longitude":"6,928293","latitude":"50,950362","geojson_lng":6.928293,"geojson_lat":50.950362},"geometry":{"type":"Point","coordinates":[6.928293,50.950362]}},{"type":"Feature","properties":{"SeqNo":"557436","Type":"A","DHID":"de:05315:14021:G2","Parent":"de:05315:14021","Name":"Bahnsteig","MunicipalityCode":"00000000","Municipality":"-","DistrictCode":"-","District":"-","Description":"","Authority":"VRR","DelfiName":"-","THID":"-","LastOperationDate":"","SEV":"nein","longitude":"6,928364","latitude":"50,950305","geojson_lng":6.928364,"geojson_lat":50.950305},"geometry":{"type":"Point","coordinates":[6.928364,50.950305]}},{"type":"Feature","properties":{"SeqNo":"557437","Type":"Q","DHID":"de:05315:14021:1:11","Parent":"de:05315:14021:11","Name":"","MunicipalityCode":"00000000","Municipality":"-","DistrictCode":"-","District":"-","Description":"","Authority":"VRR","DelfiName":"-","THID":"-","LastOperationDate":"","SEV":"nein","longitude":"6,928661","latitude":"50,950226","geojson_lng":6.928661,"geojson_lat":50.950226},"geometry":{"type":"Point","coordinates":[6.928661,50.950226]}},{"type":"Feature","properties":{"SeqNo":"557438","Type":"Q","DHID":"de:05315:14021:1:12","Parent":"de:05315:14021:12","Name":"","MunicipalityCode":"00000000","Municipality":"-","DistrictCode":"-","District":"-","Description":"","Authority":"VRR","DelfiName":"-","THID":"-","LastOperationDate":"","SEV":"nein","longitude":"6,927969","latitude":"50,950526","geojson_lng":6.927969,"geojson_lat":50.950526},"geometry":{"type":"Point","coordinates":[6.927969,50.950526]}},{"type":"Feature","properties":{"SeqNo":"557439","Type":"Q","DHID":"de:05315:14021:2:31","Parent":"de:05315:14021:2","Name":"","MunicipalityCode":"00000000","Municipality":"-","DistrictCode":"-","District":"-","Description":"","Authority":"VRR","DelfiName":"-","THID":"-","LastOperationDate":"","SEV":"nein","longitude":"6,928293","latitude":"50,950362","geojson_lng":6.928293,"geojson_lat":50.950362},"geometry":{"type":"Point","coordinates":[6.928293,50.950362]}},{"type":"Feature","properties":{"SeqNo":"557440","Type":"Q","DHID":"de:05315:14021:2:32","Parent":"de:05315:14021:2","Name":"","MunicipalityCode":"00000000","Municipality":"-","DistrictCode":"-","District":"-","Description":"","Authority":"VRR","DelfiName":"-","THID":"-","LastOperationDate":"","SEV":"nein","longitude":"6,928293","latitude":"50,950362","geojson_lng":6.928293,"geojson_lat":50.950362},"geometry":{"type":"Point","coordinates":[6.928293,50.950362]}},{"type":"Feature","properties":{"SeqNo":"557441","Type":"Q","DHID":"de:05315:14021:2:42","Parent":"de:05315:14021:2","Name":"","MunicipalityCode":"00000000","Municipality":"-","DistrictCode":"-","District":"-","Description":"","Authority":"VRR","DelfiName":"-","THID":"-","LastOperationDate":"","SEV":"nein","longitude":"6,928293","latitude":"50,950368","geojson_lng":6.928293,"geojson_lat":50.950368},"geometry":{"type":"Point","coordinates":[6.928293,50.950368]}}]}