{"type":"FeatureCollection","features":[{"type":"Feature","properties":{"SeqNo":"567533","Type":"S","DHID":"de:05315:14011","Parent":"de:05315:14011","Name":"Köln Ehrenfeld Piusstr.","Latitude":"50,945993","Longitude":"6,925786","MunicipalityCode":"05315000","Municipality":"Köln","DistrictCode":"","District":"","Description":"","Authority":"VRR","DelfiName":"-","THID":"D914C30036BB","TariffProvider":"-","LastOperationDate":"2025-08-26T00:00:00","SEV":"nein","geojson_lng":6.925786,"geojson_lat":50.945993},"geometry":{"type":"Point","coordinates":[6.925786,50.945993]}},{"type":"Feature","properties":{"SeqNo":"567534","Type":"A","DHID":"de:05315:14011:1","Parent":"de:05315:14011","Name":"Piusstr.","Latitude":"50,945987","Longitude":"6,925768","MunicipalityCode":"00000000","Municipality":"-","DistrictCode":"-","District":"-","Description":"","Authority":"VRR","DelfiName":"-","THID":"-","TariffProvider":"-","LastOperationDate":"","SEV":"nein","geojson_lng":6.925768,"geojson_lat":50.945987},"geometry":{"type":"Point","coordinates":[6.925768,50.945987]}},{"type":"Feature","properties":{"SeqNo":"567535","Type":"Q","DHID":"de:05315:14011:1:11","Parent":"de:05315:14011:1","Name":"-","Latitude":"50,945795","Longitude":"6,926262","MunicipalityCode":"00000000","Municipality":"-","DistrictCode":"-","District":"-","Description":"","Authority":"VRR","DelfiName":"-","THID":"-","TariffProvider":"-","LastOperationDate":"","SEV":"nein","geojson_lng":6.926262,"geojson_lat":50.945795},"geometry":{"type":"Point","coordinates":[6.926262,50.945795]}},{"type":"Feature","properties":{"SeqNo":"567536","Type":"Q","DHID":"de:05315:14011:1:12","Parent":"de:05315:14011:1","Name":"-","Latitude":"50,946123","Longitude":"6,925714","MunicipalityCode":"00000000","Municipality":"-","DistrictCode":"-","District":"-","Description":"","Authority":"VRR","DelfiName":"-","THID":"-","TariffProvider":"-","LastOperationDate":"","SEV":"nein","geojson_lng":6.925714,"geojson_lat":50.946123},"geometry":{"type":"Point","coordinates":[6.925714,50.946123]}},{"type":"Feature","properties":{"SeqNo":"567541","Type":"S","DHID":"de:05315:14021","Parent":"de:05315:14021","Name":"Köln Ehrenfeld Gutenbergstr.","Latitude":"50,950362","Longitude":"6,928275","MunicipalityCode":"05315000","Municipality":"Köln","DistrictCode":"","District":"","Description":"","Authority":"VRR","DelfiName":"-","THID":"D914C30036C5","TariffProvider":"-","LastOperationDate":"2025-08-26T00:00:00","SEV":"nein","geojson_lng":6.928275,"geojson_lat":50.950362},"geometry":{"type":"Point","coordinates":[6.928275,50.950362]}},{"type":"Feature","properties":{"SeqNo":"567542","Type":"A","DHID":"de:05315:14021:1","Parent":"de:05315:14021","Name":"Bahnsteig 2","Latitude":"50,950424","Longitude":"6,928311","MunicipalityCode":"00000000","Municipality":"-","DistrictCode":"-","District":"-","Description":"","Authority":"VRR","DelfiName":"-","THID":"-","TariffProvider":"-","LastOperationDate":"","SEV":"nein","geojson_lng":6.928311,"geojson_lat":50.950424},"geometry":{"type":"Point","coordinates":[6.928311,50.950424]}},{"type":"Feature","properties":{"SeqNo":"567543","Type":"A","DHID":"de:05315:14021:11","Parent":"de:05315:14021","Name":"Bahnsteig 1","Latitude":"50,950305","Longitude":"6,928364","MunicipalityCode":"00000000","Municipality":"-","DistrictCode":"-","District":"-","Description":"","Authority":"VRR","DelfiName":"-","THID":"-","TariffProvider":"-","LastOperationDate":"","SEV":"nein","geojson_lng":6.928364,"geojson_lat":50.950305},"geometry":{"type":"Point","coordinates":[6.928364,50.950305]}},{"type":"Feature","properties":{"SeqNo":"567544","Type":"A","DHID":"de:05315:14021:12","Parent":"de:05315:14021","Name":"Bahnsteig 2","Latitude":"50,950424","Longitude":"6,928311","MunicipalityCode":"00000000","Municipality":"-","DistrictCode":"-","District":"-","Description":"","Authority":"VRR","DelfiName":"-","THID":"-","TariffProvider":"-","LastOperationDate":"","SEV":"nein","geojson_lng":6.928311,"geojson_lat":50.950424},"geometry":{"type":"Point","coordinates":[6.928311,50.950424]}},{"type":"Feature","properties":{"SeqNo":"567545","Type":"A","DHID":"de:05315:14021:2","Parent":"de:05315:14021","Name":"Gutenbergstr.","Latitude":"50,950362","Longitude":"6,928293","MunicipalityCode":"00000000","Municipality":"-","DistrictCode":"-","District":"-","Description":"","Authority":"VRR","DelfiName":"-","THID":"-","TariffProvider":"-","LastOperationDate":"","SEV":"nein","geojson_lng":6.928293,"geojson_lat":50.950362},"geometry":{"type":"Point","coordinates":[6.928293,50.950362]}},{"type":"Feature","properties":{"SeqNo":"567546","Type":"A","DHID":"de:05315:14021:G2","Parent":"de:05315:14021","Name":"Bahnsteig","Latitude":"50,950305","Longitude":"6,928364","MunicipalityCode":"00000000","Municipality":"-","DistrictCode":"-","District":"-","Description":"","Authority":"VRR","DelfiName":"-","THID":"-","TariffProvider":"-","LastOperationDate":"","SEV":"nein","geojson_lng":6.928364,"geojson_lat":50.950305},"geometry":{"type":"Point","coordinates":[6.928364,50.950305]}},{"type":"Feature","properties":{"SeqNo":"567547","Type":"Q","DHID":"de:05315:14021:1:11","Parent":"de:05315:14021:11","Name":"-","Latitude":"50,950226","Longitude":"6,928661","MunicipalityCode":"00000000","Municipality":"-","DistrictCode":"-","District":"-","Description":"","Authority":"VRR","DelfiName":"-","THID":"-","TariffProvider":"-","LastOperationDate":"","SEV":"nein","geojson_lng":6.928661,"geojson_lat":50.950226},"geometry":{"type":"Point","coordinates":[6.928661,50.950226]}},{"type":"Feature","properties":{"SeqNo":"567548","Type":"Q","DHID":"de:05315:14021:1:12","Parent":"de:05315:14021:12","Name":"-","Latitude":"50,950526","Longitude":"6,927969","MunicipalityCode":"00000000","Municipality":"-","DistrictCode":"-","District":"-","Description":"","Authority":"VRR","DelfiName":"-","THID":"-","TariffProvider":"-","LastOperationDate":"","SEV":"nein","geojson_lng":6.927969,"geojson_lat":50.950526},"geometry":{"type":"Point","coordinates":[6.927969,50.950526]}},{"type":"Feature","properties":{"SeqNo":"567549","Type":"Q","DHID":"de:05315:14021:2:31","Parent":"de:05315:14021:2","Name":"-","Latitude":"50,950362","Longitude":"6,928293","MunicipalityCode":"00000000","Municipality":"-","DistrictCode":"-","District":"-","Description":"","Authority":"VRR","DelfiName":"-","THID":"-","TariffProvider":"-","LastOperationDate":"","SEV":"nein","geojson_lng":6.928293,"geojson_lat":50.950362},"geometry":{"type":"Point","coordinates":[6.928293,50.950362]}},{"type":"Feature","properties":{"SeqNo":"567550","Type":"Q","DHID":"de:05315:14021:2:32","Parent":"de:05315:14021:2","Name":"-","Latitude":"50,950362","Longitude":"6,928293","MunicipalityCode":"00000000","Municipality":"-","DistrictCode":"-","District":"-","Description":"","Authority":"VRR","DelfiName":"-","THID":"-","TariffProvider":"-","LastOperationDate":"","SEV":"nein","geojson_lng":6.928293,"geojson_lat":50.950362},"geometry":{"type":"Point","coordinates":[6.928293,50.950362]}},{"type":"Feature","properties":{"SeqNo":"567551","Type":"Q","DHID":"de:05315:14021:2:42","Parent":"de:05315:14021:2","Name":"-","Latitude":"50,950368","Longitude":"6,928293","MunicipalityCode":"00000000","Municipality":"-","DistrictCode":"-","District":"-","Description":"","Authority":"VRR","DelfiName":"-","THID":"-","TariffProvider":"-","LastOperationDate":"","SEV":"nein","geojson_lng":6.928293,"geojson_lat":50.950368},"geometry":{"type":"Point","coordinates":[6.928293,50.950368]}}]}