{"type":"FeatureCollection","features":[{"type":"Feature","properties":{"SeqNo":"556192","Type":"S","DHID":"de:05315:12550","Parent":"de:05315:12550","Name":"Köln Meschenich Auf Der Freiheit","MunicipalityCode":"05315000","Municipality":"Köln","DistrictCode":"","District":"","Description":"","Authority":"VRR","DelfiName":"-","THID":"D914C3003106","LastOperationDate":"2025-01-06T00:00:00","SEV":"nein","longitude":"6,923298","latitude":"50,856923","geojson_lng":6.923298,"geojson_lat":50.856923},"geometry":{"type":"Point","coordinates":[6.923298,50.856923]}},{"type":"Feature","properties":{"SeqNo":"556193","Type":"A","DHID":"de:05315:12550:2","Parent":"de:05315:12550","Name":"Auf der Freiheit","MunicipalityCode":"00000000","Municipality":"-","DistrictCode":"-","District":"-","Description":"","Authority":"VRR","DelfiName":"-","THID":"-","LastOperationDate":"","SEV":"nein","longitude":"6,923298","latitude":"50,856923","geojson_lng":6.923298,"geojson_lat":50.856923},"geometry":{"type":"Point","coordinates":[6.923298,50.856923]}},{"type":"Feature","properties":{"SeqNo":"556194","Type":"Q","DHID":"de:05315:12550:2:21","Parent":"de:05315:12550:2","Name":"","MunicipalityCode":"00000000","Municipality":"-","DistrictCode":"-","District":"-","Description":"","Authority":"VRR","DelfiName":"-","THID":"-","LastOperationDate":"","SEV":"nein","longitude":"6,923442","latitude":"50,856923","geojson_lng":6.923442,"geojson_lat":50.856923},"geometry":{"type":"Point","coordinates":[6.923442,50.856923]}},{"type":"Feature","properties":{"SeqNo":"556199","Type":"S","DHID":"de:05315:12552","Parent":"de:05315:12552","Name":"Köln Meschenich Kirche","MunicipalityCode":"05315000","Municipality":"Köln","DistrictCode":"","District":"","Description":"","Authority":"VRR","DelfiName":"-","THID":"D914C3003108","LastOperationDate":"2025-01-06T00:00:00","SEV":"nein","longitude":"6,927017","latitude":"50,860325","geojson_lng":6.927017,"geojson_lat":50.860325},"geometry":{"type":"Point","coordinates":[6.927017,50.860325]}},{"type":"Feature","properties":{"SeqNo":"556200","Type":"A","DHID":"de:05315:12552:2","Parent":"de:05315:12552","Name":"Meschenich Kirche","MunicipalityCode":"00000000","Municipality":"-","DistrictCode":"-","District":"-","Description":"","Authority":"VRR","DelfiName":"-","THID":"-","LastOperationDate":"","SEV":"nein","longitude":"6,927026","latitude":"50,860325","geojson_lng":6.927026,"geojson_lat":50.860325},"geometry":{"type":"Point","coordinates":[6.927026,50.860325]}},{"type":"Feature","properties":{"SeqNo":"556201","Type":"Q","DHID":"de:05315:12552:2:21","Parent":"de:05315:12552:2","Name":"","MunicipalityCode":"00000000","Municipality":"-","DistrictCode":"-","District":"-","Description":"","Authority":"VRR","DelfiName":"-","THID":"-","LastOperationDate":"","SEV":"nein","longitude":"6,927682","latitude":"50,861165","geojson_lng":6.927682,"geojson_lat":50.861165},"geometry":{"type":"Point","coordinates":[6.927682,50.861165]}},{"type":"Feature","properties":{"SeqNo":"556202","Type":"Q","DHID":"de:05315:12552:2:22","Parent":"de:05315:12552:2","Name":"","MunicipalityCode":"00000000","Municipality":"-","DistrictCode":"-","District":"-","Description":"","Authority":"VRR","DelfiName":"-","THID":"-","LastOperationDate":"","SEV":"nein","longitude":"6,926882","latitude":"50,86032","geojson_lng":6.926882,"geojson_lat":50.86032},"geometry":{"type":"Point","coordinates":[6.926882,50.86032]}},{"type":"Feature","properties":{"SeqNo":"556203","Type":"Q","DHID":"de:05315:12552:2:23","Parent":"de:05315:12552:2","Name":"","MunicipalityCode":"00000000","Municipality":"-","DistrictCode":"-","District":"-","Description":"","Authority":"VRR","DelfiName":"-","THID":"-","LastOperationDate":"","SEV":"nein","longitude":"6,927358","latitude":"50,860297","geojson_lng":6.927358,"geojson_lat":50.860297},"geometry":{"type":"Point","coordinates":[6.927358,50.860297]}},{"type":"Feature","properties":{"SeqNo":"556204","Type":"Q","DHID":"de:05315:12552:2:24","Parent":"de:05315:12552:2","Name":"","MunicipalityCode":"00000000","Municipality":"-","DistrictCode":"-","District":"-","Description":"","Authority":"VRR","DelfiName":"-","THID":"-","LastOperationDate":"","SEV":"nein","longitude":"6,927358","latitude":"50,860297","geojson_lng":6.927358,"geojson_lat":50.860297},"geometry":{"type":"Point","coordinates":[6.927358,50.860297]}},{"type":"Feature","properties":{"SeqNo":"556205","Type":"Q","DHID":"de:05315:12552:2:25","Parent":"de:05315:12552:2","Name":"","MunicipalityCode":"00000000","Municipality":"-","DistrictCode":"-","District":"-","Description":"","Authority":"VRR","DelfiName":"-","THID":"-","LastOperationDate":"","SEV":"nein","longitude":"6,927475","latitude":"50,86117","geojson_lng":6.927475,"geojson_lat":50.86117},"geometry":{"type":"Point","coordinates":[6.927475,50.86117]}},{"type":"Feature","properties":{"SeqNo":"556206","Type":"Q","DHID":"de:05315:12552:2:26","Parent":"de:05315:12552:2","Name":"","MunicipalityCode":"00000000","Municipality":"-","DistrictCode":"-","District":"-","Description":"","Authority":"VRR","DelfiName":"-","THID":"-","LastOperationDate":"","SEV":"nein","longitude":"6,9277","latitude":"50,860382","geojson_lng":6.9277,"geojson_lat":50.860382},"geometry":{"type":"Point","coordinates":[6.9277,50.860382]}},{"type":"Feature","properties":{"SeqNo":"556207","Type":"Q","DHID":"de:05315:12552:2:27","Parent":"de:05315:12552:2","Name":"","MunicipalityCode":"00000000","Municipality":"-","DistrictCode":"-","District":"-","Description":"","Authority":"VRR","DelfiName":"-","THID":"-","LastOperationDate":"","SEV":"nein","longitude":"6,926343","latitude":"50,860297","geojson_lng":6.926343,"geojson_lat":50.860297},"geometry":{"type":"Point","coordinates":[6.926343,50.860297]}},{"type":"Feature","properties":{"SeqNo":"556208","Type":"S","DHID":"de:05315:12553","Parent":"de:05315:12553","Name":"Köln Meschenich Trenkebergstr.","MunicipalityCode":"05315000","Municipality":"Köln","DistrictCode":"","District":"","Description":"","Authority":"VRR","DelfiName":"-","THID":"D914C3003109","LastOperationDate":"2025-01-06T00:00:00","SEV":"nein","longitude":"6,928553","latitude":"50,859021","geojson_lng":6.928553,"geojson_lat":50.859021},"geometry":{"type":"Point","coordinates":[6.928553,50.859021]}},{"type":"Feature","properties":{"SeqNo":"556209","Type":"A","DHID":"de:05315:12553:2","Parent":"de:05315:12553","Name":"Trenkebergstr.","MunicipalityCode":"00000000","Municipality":"-","DistrictCode":"-","District":"-","Description":"","Authority":"VRR","DelfiName":"-","THID":"-","LastOperationDate":"","SEV":"nein","longitude":"6,928562","latitude":"50,859021","geojson_lng":6.928562,"geojson_lat":50.859021},"geometry":{"type":"Point","coordinates":[6.928562,50.859021]}},{"type":"Feature","properties":{"SeqNo":"556210","Type":"Q","DHID":"de:05315:12553:2:22","Parent":"de:05315:12553:2","Name":"","MunicipalityCode":"00000000","Municipality":"-","DistrictCode":"-","District":"-","Description":"","Authority":"VRR","DelfiName":"-","THID":"-","LastOperationDate":"","SEV":"nein","longitude":"6,928481","latitude":"50,858959","geojson_lng":6.928481,"geojson_lat":50.858959},"geometry":{"type":"Point","coordinates":[6.928481,50.858959]}},{"type":"Feature","properties":{"SeqNo":"556218","Type":"S","DHID":"de:05315:12557","Parent":"de:05315:12557","Name":"Köln Meschenich Kettelerstr.","MunicipalityCode":"05315000","Municipality":"Köln","DistrictCode":"","District":"","Description":"","Authority":"VRR","DelfiName":"-","THID":"D914C300310D","LastOperationDate":"2025-01-06T00:00:00","SEV":"nein","longitude":"6,932057","latitude":"50,861017","geojson_lng":6.932057,"geojson_lat":50.861017},"geometry":{"type":"Point","coordinates":[6.932057,50.861017]}},{"type":"Feature","properties":{"SeqNo":"556219","Type":"A","DHID":"de:05315:12557:2","Parent":"de:05315:12557","Name":"Kettelerstr.","MunicipalityCode":"00000000","Municipality":"-","DistrictCode":"-","District":"-","Description":"","Authority":"VRR","DelfiName":"-","THID":"-","LastOperationDate":"","SEV":"nein","longitude":"6,932057","latitude":"50,861017","geojson_lng":6.932057,"geojson_lat":50.861017},"geometry":{"type":"Point","coordinates":[6.932057,50.861017]}},{"type":"Feature","properties":{"SeqNo":"556220","Type":"Q","DHID":"de:05315:12557:2:21","Parent":"de:05315:12557:2","Name":"","MunicipalityCode":"00000000","Municipality":"-","DistrictCode":"-","District":"-","Description":"","Authority":"VRR","DelfiName":"-","THID":"-","LastOperationDate":"","SEV":"nein","longitude":"6,932057","latitude":"50,861102","geojson_lng":6.932057,"geojson_lat":50.861102},"geometry":{"type":"Point","coordinates":[6.932057,50.861102]}},{"type":"Feature","properties":{"SeqNo":"556221","Type":"Q","DHID":"de:05315:12557:2:22","Parent":"de:05315:12557:2","Name":"","MunicipalityCode":"00000000","Municipality":"-","DistrictCode":"-","District":"-","Description":"","Authority":"VRR","DelfiName":"-","THID":"-","LastOperationDate":"","SEV":"nein","longitude":"6,932101","latitude":"50,861057","geojson_lng":6.932101,"geojson_lat":50.861057},"geometry":{"type":"Point","coordinates":[6.932101,50.861057]}},{"type":"Feature","properties":{"SeqNo":"556226","Type":"S","DHID":"de:05315:12559","Parent":"de:05315:12559","Name":"Köln Meschenich Im Rheintal","MunicipalityCode":"05315000","Municipality":"Köln","DistrictCode":"","District":"","Description":"","Authority":"VRR","DelfiName":"-","THID":"D914C300310F","LastOperationDate":"2025-01-06T00:00:00","SEV":"nein","longitude":"6,928688","latitude":"50,855999","geojson_lng":6.928688,"geojson_lat":50.855999},"geometry":{"type":"Point","coordinates":[6.928688,50.855999]}},{"type":"Feature","properties":{"SeqNo":"556227","Type":"A","DHID":"de:05315:12559:2","Parent":"de:05315:12559","Name":"Im Rheintal","MunicipalityCode":"00000000","Municipality":"-","DistrictCode":"-","District":"-","Description":"","Authority":"VRR","DelfiName":"-","THID":"-","LastOperationDate":"","SEV":"nein","longitude":"6,928688","latitude":"50,855999","geojson_lng":6.928688,"geojson_lat":50.855999},"geometry":{"type":"Point","coordinates":[6.928688,50.855999]}},{"type":"Feature","properties":{"SeqNo":"556228","Type":"Q","DHID":"de:05315:12559:2:22","Parent":"de:05315:12559:2","Name":"","MunicipalityCode":"00000000","Municipality":"-","DistrictCode":"-","District":"-","Description":"","Authority":"VRR","DelfiName":"-","THID":"-","LastOperationDate":"","SEV":"nein","longitude":"6,928643","latitude":"50,855999","geojson_lng":6.928643,"geojson_lat":50.855999},"geometry":{"type":"Point","coordinates":[6.928643,50.855999]}}]}