{"type":"FeatureCollection","features":[{"type":"Feature","properties":{"highway":"bus_stop","public_transport":"platform","name":"Muggenburg","ref:IFOPT":"NL:Q:34600100","_quaycode":"NL:Q:34600100","_town":"Schagen","_status":"available","_mode":"bus","_direction":138,"_visuallyAccessible":false,"_disabledAccessible":false,"geojson_lng":4.797911252764595,"geojson_lat":52.784107053760955},"geometry":{"type":"Point","coordinates":[4.797911252764595,52.784107053760955]}},{"type":"Feature","properties":{"highway":"bus_stop","public_transport":"platform","name":"Oude Slotstraat","ref:IFOPT":"NL:Q:34602140","_quaycode":"NL:Q:34602140","_town":"Schagen","_status":"available","_mode":"bus","_direction":78,"_visuallyAccessible":true,"_disabledAccessible":false,"geojson_lng":4.800650449196586,"geojson_lat":52.785432653479866},"geometry":{"type":"Point","coordinates":[4.800650449196586,52.785432653479866]}},{"type":"Feature","properties":{"highway":"bus_stop","public_transport":"platform","name":"Oude Slotstraat","ref:IFOPT":"NL:Q:34602010","_quaycode":"NL:Q:34602010","_town":"Schagen","_status":"available","_mode":"bus","_direction":261,"_visuallyAccessible":false,"_disabledAccessible":false,"geojson_lng":4.798861001147655,"geojson_lat":52.78512726612838},"geometry":{"type":"Point","coordinates":[4.798861001147655,52.78512726612838]}},{"type":"Feature","properties":{"highway":"bus_stop","public_transport":"platform","name":"Zaagmolen","ref:IFOPT":"NL:Q:34600410","_quaycode":"NL:Q:34600410","_town":"Schagen","_status":"available","_mode":"bus","_direction":339,"_visuallyAccessible":false,"_disabledAccessible":false,"geojson_lng":4.790700878311701,"geojson_lat":52.78351399737916},"geometry":{"type":"Point","coordinates":[4.790700878311701,52.78351399737916]}},{"type":"Feature","properties":{"highway":"bus_stop","public_transport":"platform","name":"Zaagmolen","ref:IFOPT":"NL:Q:34600420","_quaycode":"NL:Q:34600420","_town":"Schagen","_status":"available","_mode":"bus","_direction":159,"_visuallyAccessible":false,"_disabledAccessible":false,"geojson_lng":4.790582309756302,"geojson_lat":52.7835134039126},"geometry":{"type":"Point","coordinates":[4.790582309756302,52.7835134039126]}},{"type":"Feature","properties":{"highway":"bus_stop","public_transport":"platform","name":"Hofstraat","ref:IFOPT":"NL:Q:34602030","_quaycode":"NL:Q:34602030","_town":"Schagen","_status":"available","_mode":"bus","_direction":257,"_visuallyAccessible":true,"_disabledAccessible":true,"geojson_lng":4.796280947023824,"geojson_lat":52.78519538483094},"geometry":{"type":"Point","coordinates":[4.796280947023824,52.78519538483094]}},{"type":"Feature","properties":{"highway":"bus_stop","public_transport":"platform","name":"Hofstraat","ref:IFOPT":"NL:Q:34602120","_quaycode":"NL:Q:34602120","_town":"Schagen","_status":"available","_mode":"bus","_direction":77,"_visuallyAccessible":false,"_disabledAccessible":true,"geojson_lng":4.795957538565535,"geojson_lat":52.784996069040936},"geometry":{"type":"Point","coordinates":[4.795957538565535,52.784996069040936]}},{"type":"Feature","properties":{"highway":"bus_stop","public_transport":"platform","name":"Muggenburg","ref:IFOPT":"NL:Q:34600110","_quaycode":"NL:Q:34600110","_town":"Schagen","_status":"available","_mode":"bus","_direction":327,"_visuallyAccessible":false,"_disabledAccessible":false,"geojson_lng":4.798045006842024,"geojson_lat":52.78408075426838},"geometry":{"type":"Point","coordinates":[4.798045006842024,52.78408075426838]}},{"type":"Feature","properties":{"highway":"bus_stop","public_transport":"platform","name":"Oude Slotstraat","ref:IFOPT":"NL:Q:34601140","_quaycode":"NL:Q:34601140","_town":"Schagen","_status":"available","_mode":"bus","_direction":270,"_visuallyAccessible":false,"_disabledAccessible":false,"geojson_lng":4.798460817069435,"geojson_lat":52.78512529008924},"geometry":{"type":"Point","coordinates":[4.798460817069435,52.78512529008924]}}]}