{"type":"FeatureCollection","features":[{"type":"Feature","properties":{"SeqNo":"206665","Type":"S","DHID":"de:09561:11031","Parent":"de:09561:11031","Name":"Schalkhausen Bäckergründlein","MunicipalityCode":"09561000","Municipality":"Ansbach","DistrictCode":"","District":"","Description":"","Authority":"BEG","DelfiName":"-","THID":"D92559002B17","LastOperationDate":"2025-06-14T00:00:00","SEV":"nein","longitude":"10,532657","latitude":"49,298674","geojson_lng":10.532657,"geojson_lat":49.298674},"geometry":{"type":"Point","coordinates":[10.532657,49.298674]}},{"type":"Feature","properties":{"SeqNo":"206666","Type":"Q","DHID":"de:09561:11031:0:1","Parent":"de:09561:11031","Name":"1","MunicipalityCode":"00000000","Municipality":"-","DistrictCode":"-","District":"-","Description":"","Authority":"BEG","DelfiName":"-","THID":"-","LastOperationDate":"","SEV":"nein","longitude":"10,532657","latitude":"49,298674","geojson_lng":10.532657,"geojson_lat":49.298674},"geometry":{"type":"Point","coordinates":[10.532657,49.298674]}},{"type":"Feature","properties":{"SeqNo":"206667","Type":"Q","DHID":"de:09561:11031:0:2","Parent":"de:09561:11031","Name":"2","MunicipalityCode":"00000000","Municipality":"-","DistrictCode":"-","District":"-","Description":"","Authority":"BEG","DelfiName":"-","THID":"-","LastOperationDate":"","SEV":"nein","longitude":"10,532369","latitude":"49,298616","geojson_lng":10.532369,"geojson_lat":49.298616},"geometry":{"type":"Point","coordinates":[10.532369,49.298616]}},{"type":"Feature","properties":{"SeqNo":"207155","Type":"S","DHID":"de:09561:11421","Parent":"de:09561:11421","Name":"Schalkhausen Kirchplatz","MunicipalityCode":"09561000","Municipality":"Ansbach","DistrictCode":"","District":"","Description":"","Authority":"BEG","DelfiName":"-","THID":"D92559002C9D","LastOperationDate":"2025-02-28T00:00:00","SEV":"nein","longitude":"10,531354","latitude":"49,301627","geojson_lng":10.531354,"geojson_lat":49.301627},"geometry":{"type":"Point","coordinates":[10.531354,49.301627]}},{"type":"Feature","properties":{"SeqNo":"207156","Type":"Q","DHID":"de:09561:11421:0:1","Parent":"de:09561:11421","Name":"1","MunicipalityCode":"00000000","Municipality":"-","DistrictCode":"-","District":"-","Description":"","Authority":"BEG","DelfiName":"-","THID":"-","LastOperationDate":"","SEV":"nein","longitude":"10,53192","latitude":"49,301715","geojson_lng":10.53192,"geojson_lat":49.301715},"geometry":{"type":"Point","coordinates":[10.53192,49.301715]}},{"type":"Feature","properties":{"SeqNo":"207157","Type":"Q","DHID":"de:09561:11421:0:2","Parent":"de:09561:11421","Name":"2","MunicipalityCode":"00000000","Municipality":"-","DistrictCode":"-","District":"-","Description":"","Authority":"BEG","DelfiName":"-","THID":"-","LastOperationDate":"","SEV":"nein","longitude":"10,53104","latitude":"49,301586","geojson_lng":10.53104,"geojson_lat":49.301586},"geometry":{"type":"Point","coordinates":[10.53104,49.301586]}},{"type":"Feature","properties":{"SeqNo":"207158","Type":"S","DHID":"de:09561:11423","Parent":"de:09561:11423","Name":"Schalkhausen Reiterweg","MunicipalityCode":"09561000","Municipality":"Ansbach","DistrictCode":"","District":"","Description":"","Authority":"BEG","DelfiName":"-","THID":"D92559002C9F","LastOperationDate":"2024-06-02T00:00:00","SEV":"nein","longitude":"10,535199","latitude":"49,300233","geojson_lng":10.535199,"geojson_lat":49.300233},"geometry":{"type":"Point","coordinates":[10.535199,49.300233]}},{"type":"Feature","properties":{"SeqNo":"207159","Type":"Q","DHID":"de:09561:11423:0:1","Parent":"de:09561:11423","Name":"1","MunicipalityCode":"00000000","Municipality":"-","DistrictCode":"-","District":"-","Description":"","Authority":"BEG","DelfiName":"-","THID":"-","LastOperationDate":"","SEV":"nein","longitude":"10,535253","latitude":"49,300174","geojson_lng":10.535253,"geojson_lat":49.300174},"geometry":{"type":"Point","coordinates":[10.535253,49.300174]}},{"type":"Feature","properties":{"SeqNo":"207160","Type":"Q","DHID":"de:09561:11423:0:2","Parent":"de:09561:11423","Name":"2","MunicipalityCode":"00000000","Municipality":"-","DistrictCode":"-","District":"-","Description":"","Authority":"BEG","DelfiName":"-","THID":"-","LastOperationDate":"","SEV":"nein","longitude":"10,535343","latitude":"49,300198","geojson_lng":10.535343,"geojson_lat":49.300198},"geometry":{"type":"Point","coordinates":[10.535343,49.300198]}},{"type":"Feature","properties":{"SeqNo":"207161","Type":"S","DHID":"de:09561:11424","Parent":"de:09561:11424","Name":"Schalkhausen Sonnenstr.","MunicipalityCode":"09561000","Municipality":"Ansbach","DistrictCode":"","District":"","Description":"","Authority":"BEG","DelfiName":"-","THID":"D92559002CA0","LastOperationDate":"2025-06-14T00:00:00","SEV":"nein","longitude":"10,532145","latitude":"49,301996","geojson_lng":10.532145,"geojson_lat":49.301996},"geometry":{"type":"Point","coordinates":[10.532145,49.301996]}},{"type":"Feature","properties":{"SeqNo":"207162","Type":"Q","DHID":"de:09561:11424:0:1","Parent":"de:09561:11424","Name":"1","MunicipalityCode":"00000000","Municipality":"-","DistrictCode":"-","District":"-","Description":"","Authority":"BEG","DelfiName":"-","THID":"-","LastOperationDate":"","SEV":"nein","longitude":"10,531821","latitude":"49,301873","geojson_lng":10.531821,"geojson_lat":49.301873},"geometry":{"type":"Point","coordinates":[10.531821,49.301873]}},{"type":"Feature","properties":{"SeqNo":"207163","Type":"Q","DHID":"de:09561:11424:0:2","Parent":"de:09561:11424","Name":"2","MunicipalityCode":"00000000","Municipality":"-","DistrictCode":"-","District":"-","Description":"","Authority":"BEG","DelfiName":"-","THID":"-","LastOperationDate":"","SEV":"nein","longitude":"10,532145","latitude":"49,301996","geojson_lng":10.532145,"geojson_lat":49.301996},"geometry":{"type":"Point","coordinates":[10.532145,49.301996]}}]}