{"type":"FeatureCollection","features":[{"type":"Feature","properties":{"highway":"bus_stop","public_transport":"platform","name":"Noorderbrug","ref:IFOPT":"NL:Q:31002270","_quaycode":"NL:Q:31002270","_town":"Rotterdam","_status":"available","_mode":"bus","_direction":20,"_visuallyAccessible":false,"_disabledAccessible":false,"geojson_lng":4.486465392801778,"geojson_lat":51.93065146692372},"geometry":{"type":"Point","coordinates":[4.486465392801778,51.93065146692372]}},{"type":"Feature","properties":{"highway":"bus_stop","public_transport":"platform","name":"Willem Ruyslaan","ref:IFOPT":"NL:Q:31003159","_quaycode":"NL:Q:31003159","_town":"Rotterdam","_status":"available","_mode":"bus","_direction":282,"_visuallyAccessible":false,"_disabledAccessible":false,"geojson_lng":4.506374532787396,"geojson_lat":51.921570927283405},"geometry":{"type":"Point","coordinates":[4.506374532787396,51.921570927283405]}},{"type":"Feature","properties":{"highway":"bus_stop","public_transport":"platform","name":"Kerkhoflaan","ref:IFOPT":"NL:Q:31002241","_quaycode":"NL:Q:31002241","_town":"Rotterdam","_status":"available","_mode":"bus","_direction":240,"_visuallyAccessible":true,"_disabledAccessible":true,"geojson_lng":4.491714952423114,"geojson_lat":51.93719040679692},"geometry":{"type":"Point","coordinates":[4.491714952423114,51.93719040679692]}},{"type":"Feature","properties":{"highway":"bus_stop","public_transport":"platform","name":"Station Blaak ","ref:IFOPT":"NL:Q:31002137","_quaycode":"NL:Q:31002137","_town":"Rotterdam","_status":"available","_mode":"bus","_direction":78,"_visuallyAccessible":false,"_disabledAccessible":true,"geojson_lng":4.487817622302159,"geojson_lat":51.91903041325909},"geometry":{"type":"Point","coordinates":[4.487817622302159,51.91903041325909]}},{"type":"Feature","properties":{"highway":"bus_stop","public_transport":"platform","name":"Willemswerf","ref:IFOPT":"NL:Q:31002851","_quaycode":"NL:Q:31002851","_town":"Rotterdam","_status":"available","_mode":"bus","_direction":305,"_visuallyAccessible":false,"_disabledAccessible":false,"geojson_lng":4.490880381620579,"geojson_lat":51.91779538732763},"geometry":{"type":"Point","coordinates":[4.490880381620579,51.91779538732763]}},{"type":"Feature","properties":{"highway":"bus_stop","public_transport":"platform","name":"Paradijsplein","ref:IFOPT":"NL:Q:31002417","_quaycode":"NL:Q:31002417","_town":"Rotterdam","_status":"available","_mode":"bus","_direction":310,"_visuallyAccessible":false,"_disabledAccessible":true,"geojson_lng":4.49468392940769,"geojson_lat":51.93634107858495},"geometry":{"type":"Point","coordinates":[4.49468392940769,51.93634107858495]}},{"type":"Feature","properties":{"highway":"bus_stop","public_transport":"platform","name":"Meent","ref:IFOPT":"NL:Q:31002075","_quaycode":"NL:Q:31002075","_town":"Rotterdam","_status":"available","_mode":"bus","_direction":287,"_visuallyAccessible":false,"_disabledAccessible":false,"geojson_lng":4.4855742725586545,"geojson_lat":51.92506264006533},"geometry":{"type":"Point","coordinates":[4.4855742725586545,51.92506264006533]}},{"type":"Feature","properties":{"highway":"bus_stop","public_transport":"platform","name":"Chris Bennekerslaan","ref:IFOPT":"NL:Q:31003053","_quaycode":"NL:Q:31003053","_town":"Rotterdam","_status":"available","_mode":"bus","_direction":0,"_visuallyAccessible":false,"_disabledAccessible":false,"geojson_lng":4.509588714941925,"geojson_lat":51.925963477683744},"geometry":{"type":"Point","coordinates":[4.509588714941925,51.925963477683744]}},{"type":"Feature","properties":{"highway":"bus_stop","public_transport":"platform","name":"Noorderbrug","ref:IFOPT":"NL:Q:31002244","_quaycode":"NL:Q:31002244","_town":"Rotterdam","_status":"available","_mode":"bus","_direction":172,"_visuallyAccessible":false,"_disabledAccessible":true,"geojson_lng":4.4862952616921765,"geojson_lat":51.93043443405568},"geometry":{"type":"Point","coordinates":[4.4862952616921765,51.93043443405568]}},{"type":"Feature","properties":{"highway":"bus_stop","public_transport":"platform","name":"Avenue Concordia","ref:IFOPT":"NL:Q:31003073","_quaycode":"NL:Q:31003073","_town":"Rotterdam","_status":"available","_mode":"bus","_direction":111,"_visuallyAccessible":false,"_disabledAccessible":true,"geojson_lng":4.510889208877564,"geojson_lat":51.92040917432599},"geometry":{"type":"Point","coordinates":[4.510889208877564,51.92040917432599]}},{"type":"Feature","properties":{"highway":"bus_stop","public_transport":"platform","name":"Spiegelnisserbrug","ref:IFOPT":"NL:Q:31006845","_quaycode":"NL:Q:31006845","_town":"Rotterdam","_status":"available","_mode":"bus","_direction":36,"_visuallyAccessible":false,"_disabledAccessible":false,"geojson_lng":4.491668732090363,"geojson_lat":51.93002605481927},"geometry":{"type":"Point","coordinates":[4.491668732090363,51.93002605481927]}},{"type":"Feature","properties":{"highway":"bus_stop","public_transport":"platform","name":"Kerkhoflaan","ref:IFOPT":"NL:Q:31002434","_quaycode":"NL:Q:31002434","_town":"Rotterdam","_status":"available","_mode":"bus","_direction":240,"_visuallyAccessible":true,"_disabledAccessible":true,"geojson_lng":4.492407330487824,"geojson_lat":51.9374743280308},"geometry":{"type":"Point","coordinates":[4.492407330487824,51.9374743280308]}},{"type":"Feature","properties":{"highway":"bus_stop","public_transport":"platform","name":"Boezemweg","ref:IFOPT":"NL:Q:31006848","_quaycode":"NL:Q:31006848","_town":"Rotterdam","_status":"available","_mode":"bus","_direction":180,"_visuallyAccessible":false,"_disabledAccessible":false,"geojson_lng":4.49627015488549,"geojson_lat":51.92821833207012},"geometry":{"type":"Point","coordinates":[4.49627015488549,51.92821833207012]}},{"type":"Feature","properties":{"highway":"bus_stop","public_transport":"platform","name":"Zaagmolenbrug","ref:IFOPT":"NL:Q:31003144","_quaycode":"NL:Q:31003144","_town":"Rotterdam","_status":"available","_mode":"bus","_direction":216,"_visuallyAccessible":false,"_disabledAccessible":false,"geojson_lng":4.489787410073926,"geojson_lat":51.93394876396688},"geometry":{"type":"Point","coordinates":[4.489787410073926,51.93394876396688]}},{"type":"Feature","properties":{"highway":"bus_stop","public_transport":"platform","name":"Paradijsplein","ref:IFOPT":"NL:Q:31002074","_quaycode":"NL:Q:31002074","_town":"Rotterdam","_status":"available","_mode":"bus","_direction":135,"_visuallyAccessible":true,"_disabledAccessible":true,"geojson_lng":4.4952324349381305,"geojson_lat":51.9358149078557},"geometry":{"type":"Point","coordinates":[4.4952324349381305,51.9358149078557]}},{"type":"Feature","properties":{"highway":"bus_stop","public_transport":"platform","name":"Oostplein","ref:IFOPT":"NL:Q:31002199","_quaycode":"NL:Q:31002199","_town":"Rotterdam","_status":"available","_mode":"bus","_direction":67,"_visuallyAccessible":false,"_disabledAccessible":false,"geojson_lng":4.497698555317784,"geojson_lat":51.92289884337821},"geometry":{"type":"Point","coordinates":[4.497698555317784,51.92289884337821]}},{"type":"Feature","properties":{"highway":"bus_stop","public_transport":"platform","name":"Kipstraat","ref:IFOPT":"NL:Q:31002965","_quaycode":"NL:Q:31002965","_town":"Rotterdam","_status":"available","_mode":"bus","_direction":95,"_visuallyAccessible":false,"_disabledAccessible":false,"geojson_lng":4.492151777631551,"geojson_lat":51.924025271905194},"geometry":{"type":"Point","coordinates":[4.492151777631551,51.924025271905194]}},{"type":"Feature","properties":{"highway":"bus_stop","public_transport":"platform","name":"Admiraal de Ruyterweg","ref:IFOPT":"NL:Q:31002245","_quaycode":"NL:Q:31002245","_town":"Rotterdam","_status":"available","_mode":"bus","_direction":250,"_visuallyAccessible":true,"_disabledAccessible":true,"geojson_lng":4.48468179649034,"geojson_lat":51.92679061499305},"geometry":{"type":"Point","coordinates":[4.48468179649034,51.92679061499305]}},{"type":"Feature","properties":{"highway":"bus_stop","public_transport":"platform","name":"Crooswijksebocht","ref:IFOPT":"NL:Q:31006749","_quaycode":"NL:Q:31006749","_town":"Rotterdam","_status":"available","_mode":"bus","_direction":204,"_visuallyAccessible":true,"_disabledAccessible":true,"geojson_lng":4.490419967851115,"geojson_lat":51.93576930965276},"geometry":{"type":"Point","coordinates":[4.490419967851115,51.93576930965276]}},{"type":"Feature","properties":{"highway":"bus_stop","public_transport":"platform","name":"Boezemsingel","ref:IFOPT":"NL:Q:31003146","_quaycode":"NL:Q:31003146","_town":"Rotterdam","_status":"available","_mode":"bus","_direction":185,"_visuallyAccessible":false,"_disabledAccessible":false,"geojson_lng":4.496760901979829,"geojson_lat":51.929866983841364},"geometry":{"type":"Point","coordinates":[4.496760901979829,51.929866983841364]}},{"type":"Feature","properties":{"highway":"bus_stop","public_transport":"platform","name":"Crooswijksestraat","ref:IFOPT":"NL:Q:31006846","_quaycode":"NL:Q:31006846","_town":"Rotterdam","_status":"available","_mode":"bus","_direction":36,"_visuallyAccessible":false,"_disabledAccessible":false,"geojson_lng":4.494455038422891,"geojson_lat":51.93249217561323},"geometry":{"type":"Point","coordinates":[4.494455038422891,51.93249217561323]}},{"type":"Feature","properties":{"highway":"bus_stop","public_transport":"platform","name":"Keizerstraat","ref:IFOPT":"NL:Q:31002136","_quaycode":"NL:Q:31002136","_town":"Rotterdam","_status":"available","_mode":"bus","_direction":79,"_visuallyAccessible":false,"_disabledAccessible":false,"geojson_lng":4.483301188546361,"geojson_lat":51.918087905243496},"geometry":{"type":"Point","coordinates":[4.483301188546361,51.918087905243496]}},{"type":"Feature","properties":{"highway":"bus_stop","public_transport":"platform","name":"Meent","ref:IFOPT":"NL:Q:31002140","_quaycode":"NL:Q:31002140","_town":"Rotterdam","_status":"available","_mode":"bus","_direction":100,"_visuallyAccessible":false,"_disabledAccessible":false,"geojson_lng":4.484808004207622,"geojson_lat":51.924850019448115},"geometry":{"type":"Point","coordinates":[4.484808004207622,51.924850019448115]}},{"type":"Feature","properties":{"highway":"bus_stop","public_transport":"platform","name":"Boezemstraat","ref:IFOPT":"NL:Q:31003145","_quaycode":"NL:Q:31003145","_town":"Rotterdam","_status":"available","_mode":"bus","_direction":190,"_visuallyAccessible":false,"_disabledAccessible":false,"geojson_lng":4.497320104031764,"geojson_lat":51.93173188009301},"geometry":{"type":"Point","coordinates":[4.497320104031764,51.93173188009301]}},{"type":"Feature","properties":{"highway":"bus_stop","public_transport":"platform","name":"Crooswijksebocht","ref:IFOPT":"NL:Q:31002272","_quaycode":"NL:Q:31002272","_town":"Rotterdam","_status":"available","_mode":"bus","_direction":80,"_visuallyAccessible":true,"_disabledAccessible":true,"geojson_lng":4.491205649615348,"geojson_lat":51.93574833385181},"geometry":{"type":"Point","coordinates":[4.491205649615348,51.93574833385181]}},{"type":"Feature","properties":{"highway":"bus_stop","public_transport":"platform","name":"Nieuwe Crooswijkseweg","ref:IFOPT":"NL:Q:31002286","_quaycode":"NL:Q:31002286","_town":"Rotterdam","_status":"available","_mode":"bus","_direction":215,"_visuallyAccessible":false,"_disabledAccessible":false,"geojson_lng":4.49646739015055,"geojson_lat":51.93440405595278},"geometry":{"type":"Point","coordinates":[4.49646739015055,51.93440405595278]}},{"type":"Feature","properties":{"highway":"bus_stop","public_transport":"platform","name":"Oostplein","ref:IFOPT":"NL:Q:31003198","_quaycode":"NL:Q:31003198","_town":"Rotterdam","_status":"available","_mode":"bus","_direction":280,"_visuallyAccessible":false,"_disabledAccessible":false,"geojson_lng":4.498724716372377,"geojson_lat":51.92320323167932},"geometry":{"type":"Point","coordinates":[4.498724716372377,51.92320323167932]}},{"type":"Feature","properties":{"highway":"bus_stop","public_transport":"platform","name":"Willem Ruyslaan","ref:IFOPT":"NL:Q:31003052","_quaycode":"NL:Q:31003052","_town":"Rotterdam","_status":"available","_mode":"bus","_direction":111,"_visuallyAccessible":false,"_disabledAccessible":false,"geojson_lng":4.505370019905778,"geojson_lat":51.92164429392855},"geometry":{"type":"Point","coordinates":[4.505370019905778,51.92164429392855]}},{"type":"Feature","properties":{"highway":"bus_stop","public_transport":"platform","name":"Station Blaak","ref:IFOPT":"NL:Q:31002145","_quaycode":"NL:Q:31002145","_town":"Rotterdam","_status":"available","_mode":"bus","_direction":257,"_visuallyAccessible":false,"_disabledAccessible":true,"geojson_lng":4.488044237034684,"geojson_lat":51.919328775110664},"geometry":{"type":"Point","coordinates":[4.488044237034684,51.919328775110664]}},{"type":"Feature","properties":{"highway":"bus_stop","public_transport":"platform","name":"Nieuwe Crooswijkseweg","ref:IFOPT":"NL:Q:31002415","_quaycode":"NL:Q:31002415","_town":"Rotterdam","_status":"available","_mode":"bus","_direction":35,"_visuallyAccessible":false,"_disabledAccessible":false,"geojson_lng":4.496613495637811,"geojson_lat":51.93436920801069},"geometry":{"type":"Point","coordinates":[4.496613495637811,51.93436920801069]}},{"type":"Feature","properties":{"highway":"bus_stop","public_transport":"platform","name":"Admiraal de Ruyterweg","ref:IFOPT":"NL:Q:31002004","_quaycode":"NL:Q:31002004","_town":"Rotterdam","_status":"available","_mode":"bus","_direction":71,"_visuallyAccessible":true,"_disabledAccessible":true,"geojson_lng":4.485017586013322,"geojson_lat":51.926721282785046},"geometry":{"type":"Point","coordinates":[4.485017586013322,51.926721282785046]}},{"type":"Feature","properties":{"highway":"bus_stop","public_transport":"platform","name":"Willemswerf","ref:IFOPT":"NL:Q:31002850","_quaycode":"NL:Q:31002850","_town":"Rotterdam","_status":"available","_mode":"bus","_direction":126,"_visuallyAccessible":false,"_disabledAccessible":false,"geojson_lng":4.490929539264556,"geojson_lat":51.91751711163407},"geometry":{"type":"Point","coordinates":[4.490929539264556,51.91751711163407]}},{"type":"Feature","properties":{"highway":"bus_stop","public_transport":"platform","name":"Kipstraat","ref:IFOPT":"NL:Q:31002964","_quaycode":"NL:Q:31002964","_town":"Rotterdam","_status":"available","_mode":"bus","_direction":279,"_visuallyAccessible":false,"_disabledAccessible":false,"geojson_lng":4.491739936705526,"geojson_lat":51.92426483069141},"geometry":{"type":"Point","coordinates":[4.491739936705526,51.92426483069141]}},{"type":"Feature","properties":{"highway":"bus_stop","public_transport":"platform","name":"Keizerstraat","ref:IFOPT":"NL:Q:31002549","_quaycode":"NL:Q:31002549","_town":"Rotterdam","_status":"available","_mode":"bus","_direction":248,"_visuallyAccessible":false,"_disabledAccessible":false,"geojson_lng":4.485060982231042,"geojson_lat":51.91876659179013},"geometry":{"type":"Point","coordinates":[4.485060982231042,51.91876659179013]}}]}