{"type":"FeatureCollection","features":[{"type":"Feature","properties":{"SeqNo":"664301","Type":"S","DHID":"de:05913:252","Parent":"de:05913:252","Name":"Dortmund Im WeiÃŸen Feld","MunicipalityCode":"05913000","Municipality":"Dortmund","DistrictCode":"05913","District":"","Description":"","Authority":"VRR","DelfiName":"-","THID":"D917190000FC","LastOperationDate":"2025-06-14T00:00:00","SEV":"nein","longitude":"7,390673","latitude":"51,491482","geojson_lng":7.390673,"geojson_lat":51.491482},"geometry":{"type":"Point","coordinates":[7.390673,51.491482]}},{"type":"Feature","properties":{"SeqNo":"664302","Type":"A","DHID":"de:05913:252:1","Parent":"de:05913:252","Name":"1","MunicipalityCode":"00000000","Municipality":"-","DistrictCode":"-","District":"-","Description":"","Authority":"VRR","DelfiName":"-","THID":"-","LastOperationDate":"","SEV":"nein","longitude":"7,390682","latitude":"51,491487","geojson_lng":7.390682,"geojson_lat":51.491487},"geometry":{"type":"Point","coordinates":[7.390682,51.491487]}},{"type":"Feature","properties":{"SeqNo":"664303","Type":"Q","DHID":"de:05913:252:1:01","Parent":"de:05913:252:1","Name":"Steig 1","MunicipalityCode":"00000000","Municipality":"-","DistrictCode":"-","District":"-","Description":"","Authority":"VRR","DelfiName":"-","THID":"-","LastOperationDate":"","SEV":"nein","longitude":"7,39062","latitude":"51,491482","geojson_lng":7.39062,"geojson_lat":51.491482},"geometry":{"type":"Point","coordinates":[7.39062,51.491482]}},{"type":"Feature","properties":{"SeqNo":"664304","Type":"Q","DHID":"de:05913:252:1:02","Parent":"de:05913:252:1","Name":"Steig 2","MunicipalityCode":"00000000","Municipality":"-","DistrictCode":"-","District":"-","Description":"","Authority":"VRR","DelfiName":"-","THID":"-","LastOperationDate":"","SEV":"nein","longitude":"7,390745","latitude":"51,491487","geojson_lng":7.390745,"geojson_lat":51.491487},"geometry":{"type":"Point","coordinates":[7.390745,51.491487]}},{"type":"Feature","properties":{"SeqNo":"666832","Type":"S","DHID":"de:05913:640","Parent":"de:05913:640","Name":"Dortmund Oespel","MunicipalityCode":"05913000","Municipality":"Dortmund","DistrictCode":"","District":"","Description":"","Authority":"VRR","DelfiName":"-","THID":"D91719000280","LastOperationDate":"2025-06-14T00:00:00","SEV":"nein","longitude":"7,38452","latitude":"51,488523","geojson_lng":7.38452,"geojson_lat":51.488523},"geometry":{"type":"Point","coordinates":[7.38452,51.488523]}},{"type":"Feature","properties":{"SeqNo":"666833","Type":"A","DHID":"de:05913:640:1","Parent":"de:05913:640","Name":"1","MunicipalityCode":"00000000","Municipality":"-","DistrictCode":"-","District":"-","Description":"","Authority":"VRR","DelfiName":"-","THID":"-","LastOperationDate":"","SEV":"nein","longitude":"7,384421","latitude":"51,488568","geojson_lng":7.384421,"geojson_lat":51.488568},"geometry":{"type":"Point","coordinates":[7.384421,51.488568]}},{"type":"Feature","properties":{"SeqNo":"666834","Type":"A","DHID":"de:05913:640:2","Parent":"de:05913:640","Name":"2","MunicipalityCode":"00000000","Municipality":"-","DistrictCode":"-","District":"-","Description":"","Authority":"VRR","DelfiName":"-","THID":"-","LastOperationDate":"","SEV":"nein","longitude":"7,384691","latitude":"51,488467","geojson_lng":7.384691,"geojson_lat":51.488467},"geometry":{"type":"Point","coordinates":[7.384691,51.488467]}},{"type":"Feature","properties":{"SeqNo":"666835","Type":"A","DHID":"de:05913:640:60","Parent":"de:05913:640","Name":"Haupteingang","MunicipalityCode":"00000000","Municipality":"-","DistrictCode":"-","District":"-","Description":"","Authority":"VRR","DelfiName":"-","THID":"-","LastOperationDate":"","SEV":"nein","longitude":"7,383846","latitude":"51,488378","geojson_lng":7.383846,"geojson_lat":51.488378},"geometry":{"type":"Point","coordinates":[7.383846,51.488378]}},{"type":"Feature","properties":{"SeqNo":"666836","Type":"A","DHID":"de:05913:640:61","Parent":"de:05913:640","Name":"Eingang Gleis 1","MunicipalityCode":"00000000","Municipality":"-","DistrictCode":"-","District":"-","Description":"","Authority":"VRR","DelfiName":"-","THID":"-","LastOperationDate":"","SEV":"nein","longitude":"7,383649","latitude":"51,488534","geojson_lng":7.383649,"geojson_lat":51.488534},"geometry":{"type":"Point","coordinates":[7.383649,51.488534]}},{"type":"Feature","properties":{"SeqNo":"666837","Type":"A","DHID":"de:05913:640:62","Parent":"de:05913:640","Name":"Eingang Gleis 2","MunicipalityCode":"00000000","Municipality":"-","DistrictCode":"-","District":"-","Description":"","Authority":"VRR","DelfiName":"-","THID":"-","LastOperationDate":"","SEV":"nein","longitude":"7,383595","latitude":"51,488277","geojson_lng":7.383595,"geojson_lat":51.488277},"geometry":{"type":"Point","coordinates":[7.383595,51.488277]}},{"type":"Feature","properties":{"SeqNo":"666838","Type":"A","DHID":"de:05913:640:70","Parent":"de:05913:640","Name":"Verteilerebene","MunicipalityCode":"00000000","Municipality":"-","DistrictCode":"-","District":"-","Description":"","Authority":"VRR","DelfiName":"-","THID":"-","LastOperationDate":"","SEV":"nein","longitude":"7,383622","latitude":"51,488389","geojson_lng":7.383622,"geojson_lat":51.488389},"geometry":{"type":"Point","coordinates":[7.383622,51.488389]}},{"type":"Feature","properties":{"SeqNo":"666839","Type":"A","DHID":"de:05913:640:80","Parent":"de:05913:640","Name":"Parkplatz","MunicipalityCode":"00000000","Municipality":"-","DistrictCode":"-","District":"-","Description":"","Authority":"VRR","DelfiName":"-","THID":"-","LastOperationDate":"","SEV":"nein","longitude":"7,384493","latitude":"51,488255","geojson_lng":7.384493,"geojson_lat":51.488255},"geometry":{"type":"Point","coordinates":[7.384493,51.488255]}},{"type":"Feature","properties":{"SeqNo":"666840","Type":"A","DHID":"de:05913:640:97","Parent":"de:05913:640","Name":"S-Bahn->Solingen","MunicipalityCode":"00000000","Municipality":"-","DistrictCode":"-","District":"-","Description":"","Authority":"VRR","DelfiName":"-","THID":"-","LastOperationDate":"","SEV":"nein","longitude":"7,383505","latitude":"51,488439","geojson_lng":7.383505,"geojson_lat":51.488439},"geometry":{"type":"Point","coordinates":[7.383505,51.488439]}},{"type":"Feature","properties":{"SeqNo":"666841","Type":"A","DHID":"de:05913:640:98","Parent":"de:05913:640","Name":"S-Bahn->DO-Hbf","MunicipalityCode":"00000000","Municipality":"-","DistrictCode":"-","District":"-","Description":"","Authority":"VRR","DelfiName":"-","THID":"-","LastOperationDate":"","SEV":"nein","longitude":"7,383496","latitude":"51,488355","geojson_lng":7.383496,"geojson_lat":51.488355},"geometry":{"type":"Point","coordinates":[7.383496,51.488355]}},{"type":"Feature","properties":{"SeqNo":"666842","Type":"Q","DHID":"de:05913:640:1:01","Parent":"de:05913:640:1","Name":"Steig 1","MunicipalityCode":"00000000","Municipality":"-","DistrictCode":"-","District":"-","Description":"","Authority":"VRR","DelfiName":"-","THID":"-","LastOperationDate":"","SEV":"nein","longitude":"7,384448","latitude":"51,488523","geojson_lng":7.384448,"geojson_lat":51.488523},"geometry":{"type":"Point","coordinates":[7.384448,51.488523]}},{"type":"Feature","properties":{"SeqNo":"666843","Type":"Q","DHID":"de:05913:640:2:02","Parent":"de:05913:640:2","Name":"Steig 2","MunicipalityCode":"00000000","Municipality":"-","DistrictCode":"-","District":"-","Description":"","Authority":"VRR","DelfiName":"-","THID":"-","LastOperationDate":"","SEV":"nein","longitude":"7,384619","latitude":"51,48854","geojson_lng":7.384619,"geojson_lat":51.48854},"geometry":{"type":"Point","coordinates":[7.384619,51.48854]}},{"type":"Feature","properties":{"SeqNo":"666844","Type":"Q","DHID":"de:05913:640:97:1","Parent":"de:05913:640:97","Name":"Gleis 1","MunicipalityCode":"00000000","Municipality":"-","DistrictCode":"-","District":"-","Description":"","Authority":"VRR","DelfiName":"-","THID":"-","LastOperationDate":"","SEV":"nein","longitude":"7,383631","latitude":"51,488406","geojson_lng":7.383631,"geojson_lat":51.488406},"geometry":{"type":"Point","coordinates":[7.383631,51.488406]}},{"type":"Feature","properties":{"SeqNo":"666845","Type":"Q","DHID":"de:05913:640:98:2","Parent":"de:05913:640:98","Name":"Gleis 2","MunicipalityCode":"00000000","Municipality":"-","DistrictCode":"-","District":"-","Description":"","Authority":"VRR","DelfiName":"-","THID":"-","LastOperationDate":"","SEV":"nein","longitude":"7,383622","latitude":"51,488366","geojson_lng":7.383622,"geojson_lat":51.488366},"geometry":{"type":"Point","coordinates":[7.383622,51.488366]}}]}