{"type":"FeatureCollection","features":[{"type":"Feature","properties":{"SeqNo":"677015","Type":"S","DHID":"de:05913:252","Parent":"de:05913:252","Name":"Dortmund Im WeiÃŸen Feld","Latitude":"51,491482","Longitude":"7,390673","MunicipalityCode":"05913000","Municipality":"Dortmund","DistrictCode":"05913","District":"","Description":"","Authority":"VRR","DelfiName":"-","THID":"D917190000FC","TariffProvider":"-","LastOperationDate":"2025-12-13T00:00:00","SEV":"nein","geojson_lng":7.390673,"geojson_lat":51.491482},"geometry":{"type":"Point","coordinates":[7.390673,51.491482]}},{"type":"Feature","properties":{"SeqNo":"677016","Type":"A","DHID":"de:05913:252:1","Parent":"de:05913:252","Name":"1","Latitude":"51,491487","Longitude":"7,390682","MunicipalityCode":"00000000","Municipality":"-","DistrictCode":"-","District":"-","Description":"","Authority":"VRR","DelfiName":"-","THID":"-","TariffProvider":"-","LastOperationDate":"","SEV":"nein","geojson_lng":7.390682,"geojson_lat":51.491487},"geometry":{"type":"Point","coordinates":[7.390682,51.491487]}},{"type":"Feature","properties":{"SeqNo":"677017","Type":"Q","DHID":"de:05913:252:1:01","Parent":"de:05913:252:1","Name":"Steig 1","Latitude":"51,491482","Longitude":"7,39062","MunicipalityCode":"00000000","Municipality":"-","DistrictCode":"-","District":"-","Description":"","Authority":"VRR","DelfiName":"-","THID":"-","TariffProvider":"-","LastOperationDate":"","SEV":"nein","geojson_lng":7.39062,"geojson_lat":51.491482},"geometry":{"type":"Point","coordinates":[7.39062,51.491482]}},{"type":"Feature","properties":{"SeqNo":"677018","Type":"Q","DHID":"de:05913:252:1:02","Parent":"de:05913:252:1","Name":"Steig 2","Latitude":"51,491487","Longitude":"7,390745","MunicipalityCode":"00000000","Municipality":"-","DistrictCode":"-","District":"-","Description":"","Authority":"VRR","DelfiName":"-","THID":"-","TariffProvider":"-","LastOperationDate":"","SEV":"nein","geojson_lng":7.390745,"geojson_lat":51.491487},"geometry":{"type":"Point","coordinates":[7.390745,51.491487]}},{"type":"Feature","properties":{"SeqNo":"679582","Type":"S","DHID":"de:05913:640","Parent":"de:05913:640","Name":"Dortmund Oespel","Latitude":"51,488523","Longitude":"7,38452","MunicipalityCode":"05913000","Municipality":"Dortmund","DistrictCode":"","District":"","Description":"","Authority":"VRR","DelfiName":"-","THID":"D91719000280","TariffProvider":"-","LastOperationDate":"2025-12-13T00:00:00","SEV":"nein","geojson_lng":7.38452,"geojson_lat":51.488523},"geometry":{"type":"Point","coordinates":[7.38452,51.488523]}},{"type":"Feature","properties":{"SeqNo":"679583","Type":"A","DHID":"de:05913:640:1","Parent":"de:05913:640","Name":"1","Latitude":"51,488568","Longitude":"7,384421","MunicipalityCode":"00000000","Municipality":"-","DistrictCode":"-","District":"-","Description":"","Authority":"VRR","DelfiName":"-","THID":"-","TariffProvider":"-","LastOperationDate":"","SEV":"nein","geojson_lng":7.384421,"geojson_lat":51.488568},"geometry":{"type":"Point","coordinates":[7.384421,51.488568]}},{"type":"Feature","properties":{"SeqNo":"679584","Type":"A","DHID":"de:05913:640:2","Parent":"de:05913:640","Name":"2","Latitude":"51,488467","Longitude":"7,384691","MunicipalityCode":"00000000","Municipality":"-","DistrictCode":"-","District":"-","Description":"","Authority":"VRR","DelfiName":"-","THID":"-","TariffProvider":"-","LastOperationDate":"","SEV":"nein","geojson_lng":7.384691,"geojson_lat":51.488467},"geometry":{"type":"Point","coordinates":[7.384691,51.488467]}},{"type":"Feature","properties":{"SeqNo":"679585","Type":"A","DHID":"de:05913:640:60","Parent":"de:05913:640","Name":"Haupteingang","Latitude":"51,488378","Longitude":"7,383846","MunicipalityCode":"00000000","Municipality":"-","DistrictCode":"-","District":"-","Description":"","Authority":"VRR","DelfiName":"-","THID":"-","TariffProvider":"-","LastOperationDate":"","SEV":"nein","geojson_lng":7.383846,"geojson_lat":51.488378},"geometry":{"type":"Point","coordinates":[7.383846,51.488378]}},{"type":"Feature","properties":{"SeqNo":"679586","Type":"A","DHID":"de:05913:640:61","Parent":"de:05913:640","Name":"Eingang Gleis 1","Latitude":"51,488534","Longitude":"7,383649","MunicipalityCode":"00000000","Municipality":"-","DistrictCode":"-","District":"-","Description":"","Authority":"VRR","DelfiName":"-","THID":"-","TariffProvider":"-","LastOperationDate":"","SEV":"nein","geojson_lng":7.383649,"geojson_lat":51.488534},"geometry":{"type":"Point","coordinates":[7.383649,51.488534]}},{"type":"Feature","properties":{"SeqNo":"679587","Type":"A","DHID":"de:05913:640:62","Parent":"de:05913:640","Name":"Eingang Gleis 2","Latitude":"51,488277","Longitude":"7,383595","MunicipalityCode":"00000000","Municipality":"-","DistrictCode":"-","District":"-","Description":"","Authority":"VRR","DelfiName":"-","THID":"-","TariffProvider":"-","LastOperationDate":"","SEV":"nein","geojson_lng":7.383595,"geojson_lat":51.488277},"geometry":{"type":"Point","coordinates":[7.383595,51.488277]}},{"type":"Feature","properties":{"SeqNo":"679588","Type":"A","DHID":"de:05913:640:70","Parent":"de:05913:640","Name":"Verteilerebene","Latitude":"51,488389","Longitude":"7,383622","MunicipalityCode":"00000000","Municipality":"-","DistrictCode":"-","District":"-","Description":"","Authority":"VRR","DelfiName":"-","THID":"-","TariffProvider":"-","LastOperationDate":"","SEV":"nein","geojson_lng":7.383622,"geojson_lat":51.488389},"geometry":{"type":"Point","coordinates":[7.383622,51.488389]}},{"type":"Feature","properties":{"SeqNo":"679589","Type":"A","DHID":"de:05913:640:80","Parent":"de:05913:640","Name":"Parkplatz","Latitude":"51,488255","Longitude":"7,384493","MunicipalityCode":"00000000","Municipality":"-","DistrictCode":"-","District":"-","Description":"","Authority":"VRR","DelfiName":"-","THID":"-","TariffProvider":"-","LastOperationDate":"","SEV":"nein","geojson_lng":7.384493,"geojson_lat":51.488255},"geometry":{"type":"Point","coordinates":[7.384493,51.488255]}},{"type":"Feature","properties":{"SeqNo":"679590","Type":"A","DHID":"de:05913:640:81","Parent":"de:05913:640","Name":"B+R","Latitude":"51,488512","Longitude":"7,384071","MunicipalityCode":"00000000","Municipality":"-","DistrictCode":"-","District":"-","Description":"","Authority":"VRR","DelfiName":"-","THID":"-","TariffProvider":"-","LastOperationDate":"","SEV":"nein","geojson_lng":7.384071,"geojson_lat":51.488512},"geometry":{"type":"Point","coordinates":[7.384071,51.488512]}},{"type":"Feature","properties":{"SeqNo":"679591","Type":"A","DHID":"de:05913:640:97","Parent":"de:05913:640","Name":"S-Bahn->Solingen","Latitude":"51,488439","Longitude":"7,383505","MunicipalityCode":"00000000","Municipality":"-","DistrictCode":"-","District":"-","Description":"","Authority":"VRR","DelfiName":"-","THID":"-","TariffProvider":"-","LastOperationDate":"","SEV":"nein","geojson_lng":7.383505,"geojson_lat":51.488439},"geometry":{"type":"Point","coordinates":[7.383505,51.488439]}},{"type":"Feature","properties":{"SeqNo":"679592","Type":"A","DHID":"de:05913:640:98","Parent":"de:05913:640","Name":"S-Bahn->DO-Hbf","Latitude":"51,488355","Longitude":"7,383496","MunicipalityCode":"00000000","Municipality":"-","DistrictCode":"-","District":"-","Description":"","Authority":"VRR","DelfiName":"-","THID":"-","TariffProvider":"-","LastOperationDate":"","SEV":"nein","geojson_lng":7.383496,"geojson_lat":51.488355},"geometry":{"type":"Point","coordinates":[7.383496,51.488355]}},{"type":"Feature","properties":{"SeqNo":"679593","Type":"Q","DHID":"de:05913:640:1:01","Parent":"de:05913:640:1","Name":"-","Latitude":"51,488523","Longitude":"7,384448","MunicipalityCode":"00000000","Municipality":"-","DistrictCode":"-","District":"-","Description":"","Authority":"VRR","DelfiName":"-","THID":"-","TariffProvider":"-","LastOperationDate":"","SEV":"nein","geojson_lng":7.384448,"geojson_lat":51.488523},"geometry":{"type":"Point","coordinates":[7.384448,51.488523]}},{"type":"Feature","properties":{"SeqNo":"679594","Type":"Q","DHID":"de:05913:640:2:02","Parent":"de:05913:640:2","Name":"-","Latitude":"51,48854","Longitude":"7,384619","MunicipalityCode":"00000000","Municipality":"-","DistrictCode":"-","District":"-","Description":"","Authority":"VRR","DelfiName":"-","THID":"-","TariffProvider":"-","LastOperationDate":"","SEV":"nein","geojson_lng":7.384619,"geojson_lat":51.48854},"geometry":{"type":"Point","coordinates":[7.384619,51.48854]}},{"type":"Feature","properties":{"SeqNo":"679595","Type":"Q","DHID":"de:05913:640:97:1","Parent":"de:05913:640:97","Name":"-","Latitude":"51,488406","Longitude":"7,383631","MunicipalityCode":"00000000","Municipality":"-","DistrictCode":"-","District":"-","Description":"","Authority":"VRR","DelfiName":"-","THID":"-","TariffProvider":"-","LastOperationDate":"","SEV":"nein","geojson_lng":7.383631,"geojson_lat":51.488406},"geometry":{"type":"Point","coordinates":[7.383631,51.488406]}},{"type":"Feature","properties":{"SeqNo":"679596","Type":"Q","DHID":"de:05913:640:98:2","Parent":"de:05913:640:98","Name":"-","Latitude":"51,488366","Longitude":"7,383622","MunicipalityCode":"00000000","Municipality":"-","DistrictCode":"-","District":"-","Description":"","Authority":"VRR","DelfiName":"-","THID":"-","TariffProvider":"-","LastOperationDate":"","SEV":"nein","geojson_lng":7.383622,"geojson_lat":51.488366},"geometry":{"type":"Point","coordinates":[7.383622,51.488366]}}]}