{"type":"FeatureCollection","features":[{"type":"Feature","properties":{"SeqNo":"674555","Type":"S","DHID":"de:05954:8003","Parent":"de:05954:8003","Name":"Ennepetal Wiemerhofstr.","MunicipalityCode":"05954008","Municipality":"Ennepetal","DistrictCode":"","District":"","Description":"","Authority":"VRR","DelfiName":"-","THID":"D91742001F43","LastOperationDate":"2025-06-14T00:00:00","SEV":"nein","longitude":"7,385948","latitude":"51,310964","geojson_lng":7.385948,"geojson_lat":51.310964},"geometry":{"type":"Point","coordinates":[7.385948,51.310964]}},{"type":"Feature","properties":{"SeqNo":"674556","Type":"Q","DHID":"de:05954:8003:0:1","Parent":"de:05954:8003","Name":"Ri. Ennepetal Busbahnhof","MunicipalityCode":"00000000","Municipality":"-","DistrictCode":"-","District":"-","Description":"","Authority":"VRR","DelfiName":"-","THID":"-","LastOperationDate":"","SEV":"nein","longitude":"7,385688","latitude":"51,31084","geojson_lng":7.385688,"geojson_lat":51.31084},"geometry":{"type":"Point","coordinates":[7.385688,51.31084]}},{"type":"Feature","properties":{"SeqNo":"674557","Type":"Q","DHID":"de:05954:8003:0:2","Parent":"de:05954:8003","Name":"Ri Voerde","MunicipalityCode":"00000000","Municipality":"-","DistrictCode":"-","District":"-","Description":"","Authority":"VRR","DelfiName":"-","THID":"-","LastOperationDate":"","SEV":"nein","longitude":"7,386119","latitude":"51,311087","geojson_lng":7.386119,"geojson_lat":51.311087},"geometry":{"type":"Point","coordinates":[7.386119,51.311087]}},{"type":"Feature","properties":{"SeqNo":"674558","Type":"S","DHID":"de:05954:8004","Parent":"de:05954:8004","Name":"Ennepetal Elsternweg","MunicipalityCode":"05954008","Municipality":"Ennepetal","DistrictCode":"","District":"","Description":"","Authority":"VRR","DelfiName":"-","THID":"D91742001F44","LastOperationDate":"2025-06-14T00:00:00","SEV":"nein","longitude":"7,386927","latitude":"51,313923","geojson_lng":7.386927,"geojson_lat":51.313923},"geometry":{"type":"Point","coordinates":[7.386927,51.313923]}},{"type":"Feature","properties":{"SeqNo":"674559","Type":"Q","DHID":"de:05954:8004:0:1","Parent":"de:05954:8004","Name":"Ri. Ennepetal Busbahnhof","MunicipalityCode":"00000000","Municipality":"-","DistrictCode":"-","District":"-","Description":"","Authority":"VRR","DelfiName":"-","THID":"-","LastOperationDate":"","SEV":"nein","longitude":"7,386945","latitude":"51,314001","geojson_lng":7.386945,"geojson_lat":51.314001},"geometry":{"type":"Point","coordinates":[7.386945,51.314001]}},{"type":"Feature","properties":{"SeqNo":"674560","Type":"Q","DHID":"de:05954:8004:0:2","Parent":"de:05954:8004","Name":"Ri. Voerde","MunicipalityCode":"00000000","Municipality":"-","DistrictCode":"-","District":"-","Description":"","Authority":"VRR","DelfiName":"-","THID":"-","LastOperationDate":"","SEV":"nein","longitude":"7,3869","latitude":"51,313816","geojson_lng":7.3869,"geojson_lat":51.313816},"geometry":{"type":"Point","coordinates":[7.3869,51.313816]}},{"type":"Feature","properties":{"SeqNo":"674561","Type":"S","DHID":"de:05954:8005","Parent":"de:05954:8005","Name":"Ennepetal Falkenweg","MunicipalityCode":"05954008","Municipality":"Ennepetal","DistrictCode":"","District":"","Description":"","Authority":"VRR","DelfiName":"-","THID":"D91742001F45","LastOperationDate":"2025-06-14T00:00:00","SEV":"nein","longitude":"7,383047","latitude":"51,314967","geojson_lng":7.383047,"geojson_lat":51.314967},"geometry":{"type":"Point","coordinates":[7.383047,51.314967]}},{"type":"Feature","properties":{"SeqNo":"674562","Type":"Q","DHID":"de:05954:8005:0:1","Parent":"de:05954:8005","Name":"Ri. Ennepetal Busbahnhof","MunicipalityCode":"00000000","Municipality":"-","DistrictCode":"-","District":"-","Description":"","Authority":"VRR","DelfiName":"-","THID":"-","LastOperationDate":"","SEV":"nein","longitude":"7,382768","latitude":"51,314922","geojson_lng":7.382768,"geojson_lat":51.314922},"geometry":{"type":"Point","coordinates":[7.382768,51.314922]}},{"type":"Feature","properties":{"SeqNo":"674563","Type":"Q","DHID":"de:05954:8005:0:2","Parent":"de:05954:8005","Name":"Ri. Voerde","MunicipalityCode":"00000000","Municipality":"-","DistrictCode":"-","District":"-","Description":"","Authority":"VRR","DelfiName":"-","THID":"-","LastOperationDate":"","SEV":"nein","longitude":"7,383334","latitude":"51,31499","geojson_lng":7.383334,"geojson_lat":51.31499},"geometry":{"type":"Point","coordinates":[7.383334,51.31499]}},{"type":"Feature","properties":{"SeqNo":"675475","Type":"S","DHID":"de:05954:8213","Parent":"de:05954:8213","Name":"Ennepetal Febi","MunicipalityCode":"05954008","Municipality":"Ennepetal","DistrictCode":"","District":"","Description":"","Authority":"VRR","DelfiName":"-","THID":"D91742002015","LastOperationDate":"2025-06-14T00:00:00","SEV":"nein","longitude":"7,392722","latitude":"51,311469","geojson_lng":7.392722,"geojson_lat":51.311469},"geometry":{"type":"Point","coordinates":[7.392722,51.311469]}},{"type":"Feature","properties":{"SeqNo":"675476","Type":"A","DHID":"de:05954:8213:1","Parent":"de:05954:8213","Name":"","MunicipalityCode":"00000000","Municipality":"-","DistrictCode":"-","District":"-","Description":"","Authority":"VRR","DelfiName":"-","THID":"-","LastOperationDate":"","SEV":"nein","longitude":"7,392668","latitude":"51,311469","geojson_lng":7.392668,"geojson_lat":51.311469},"geometry":{"type":"Point","coordinates":[7.392668,51.311469]}},{"type":"Feature","properties":{"SeqNo":"675477","Type":"Q","DHID":"de:05954:8213:0:1","Parent":"de:05954:8213:1","Name":"Ri. Hagen","MunicipalityCode":"00000000","Municipality":"-","DistrictCode":"-","District":"-","Description":"","Authority":"VRR","DelfiName":"-","THID":"-","LastOperationDate":"","SEV":"nein","longitude":"7,39265","latitude":"51,311446","geojson_lng":7.39265,"geojson_lat":51.311446},"geometry":{"type":"Point","coordinates":[7.39265,51.311446]}},{"type":"Feature","properties":{"SeqNo":"675478","Type":"Q","DHID":"de:05954:8213:0:2","Parent":"de:05954:8213:1","Name":"Ri. Ennepetal BusBf","MunicipalityCode":"00000000","Municipality":"-","DistrictCode":"-","District":"-","Description":"","Authority":"VRR","DelfiName":"-","THID":"-","LastOperationDate":"","SEV":"nein","longitude":"7,392695","latitude":"51,311452","geojson_lng":7.392695,"geojson_lat":51.311452},"geometry":{"type":"Point","coordinates":[7.392695,51.311452]}}]}