{"type":"FeatureCollection","features":[{"type":"Feature","properties":{"highway":"bus_stop","public_transport":"platform","name":"Singaporestraat","ref:IFOPT":"NL:Q:31003233","_quaycode":"NL:Q:31003233","_town":"Rotterdam","_status":"available","_mode":"bus","_direction":250,"_visuallyAccessible":false,"_disabledAccessible":false,"geojson_lng":4.401974105908402,"geojson_lat":51.9444546847207},"geometry":{"type":"Point","coordinates":[4.401974105908402,51.9444546847207]}},{"type":"Feature","properties":{"highway":"bus_stop","public_transport":"platform","name":"Doenpad","ref:IFOPT":"NL:Q:31003603","_quaycode":"NL:Q:31003603","_town":"Rotterdam","_status":"available","_mode":"bus","_direction":315,"_visuallyAccessible":true,"_disabledAccessible":true,"geojson_lng":4.4117774274668395,"geojson_lat":51.94913867400229},"geometry":{"type":"Point","coordinates":[4.4117774274668395,51.94913867400229]}},{"type":"Feature","properties":{"highway":"bus_stop","public_transport":"platform","name":"Noorderlaan","ref:IFOPT":"NL:Q:31002178","_quaycode":"NL:Q:31002178","_town":"Rotterdam","_status":"available","_mode":"bus","_direction":134,"_visuallyAccessible":false,"_disabledAccessible":false,"geojson_lng":4.428475462808853,"geojson_lat":51.94578836063549},"geometry":{"type":"Point","coordinates":[4.428475462808853,51.94578836063549]}},{"type":"Feature","properties":{"highway":"bus_stop","public_transport":"platform","name":"Rotterdam Airport","ref:IFOPT":"NL:Q:31002378","_quaycode":"NL:Q:31002378","_town":"Rotterdam","_status":"available","_mode":"bus","_direction":329,"_visuallyAccessible":false,"_disabledAccessible":false,"geojson_lng":4.4341668273211425,"geojson_lat":51.94833350075985},"geometry":{"type":"Point","coordinates":[4.4341668273211425,51.94833350075985]}},{"type":"Feature","properties":{"highway":"bus_stop","public_transport":"platform","name":"Hofwijk","ref:IFOPT":"NL:Q:31003631","_quaycode":"NL:Q:31003631","_town":"Rotterdam","_status":"available","_mode":"bus","_direction":134,"_visuallyAccessible":false,"_disabledAccessible":false,"geojson_lng":4.398448619097079,"geojson_lat":51.95726108409121},"geometry":{"type":"Point","coordinates":[4.398448619097079,51.95726108409121]}},{"type":"Feature","properties":{"highway":"bus_stop","public_transport":"platform","name":"Molen","ref:IFOPT":"NL:Q:31003634","_quaycode":"NL:Q:31003634","_town":"Rotterdam","_status":"available","_mode":"bus","_direction":155,"_visuallyAccessible":false,"_disabledAccessible":false,"geojson_lng":4.416917487943855,"geojson_lat":51.94620591501754},"geometry":{"type":"Point","coordinates":[4.416917487943855,51.94620591501754]}},{"type":"Feature","properties":{"highway":"bus_stop","public_transport":"platform","name":"Innsbruckweg","ref:IFOPT":"NL:Q:31002784","_quaycode":"NL:Q:31002784","_town":"Rotterdam","_status":"available","_mode":"bus","_direction":331,"_visuallyAccessible":false,"_disabledAccessible":false,"geojson_lng":4.413458975575244,"geojson_lat":51.944712154343726},"geometry":{"type":"Point","coordinates":[4.413458975575244,51.944712154343726]}},{"type":"Feature","properties":{"highway":"bus_stop","public_transport":"platform","name":"Molen","ref:IFOPT":"NL:Q:31003602","_quaycode":"NL:Q:31003602","_town":"Rotterdam","_status":"available","_mode":"bus","_direction":318,"_visuallyAccessible":false,"_disabledAccessible":false,"geojson_lng":4.417018511114469,"geojson_lat":51.94624270368835},"geometry":{"type":"Point","coordinates":[4.417018511114469,51.94624270368835]}},{"type":"Feature","properties":{"highway":"bus_stop","public_transport":"platform","name":"Vliegveldweg","ref:IFOPT":"NL:Q:31002175","_quaycode":"NL:Q:31002175","_town":"Rotterdam","_status":"available","_mode":"bus","_direction":316,"_visuallyAccessible":true,"_disabledAccessible":true,"geojson_lng":4.427669799541245,"geojson_lat":51.94673459773529},"geometry":{"type":"Point","coordinates":[4.427669799541245,51.94673459773529]}},{"type":"Feature","properties":{"highway":"bus_stop","public_transport":"platform","name":"Vareseweg","ref:IFOPT":"NL:Q:31003223","_quaycode":"NL:Q:31003223","_town":"Rotterdam","_status":"available","_mode":"bus","_direction":258,"_visuallyAccessible":false,"_disabledAccessible":false,"geojson_lng":4.406578321086469,"geojson_lat":51.94541901882954},"geometry":{"type":"Point","coordinates":[4.406578321086469,51.94541901882954]}},{"type":"Feature","properties":{"highway":"bus_stop","public_transport":"platform","name":"Doenpad","ref:IFOPT":"NL:Q:31003633","_quaycode":"NL:Q:31003633","_town":"Rotterdam","_status":"available","_mode":"bus","_direction":131,"_visuallyAccessible":true,"_disabledAccessible":false,"geojson_lng":4.412809728133768,"geojson_lat":51.948491051824945},"geometry":{"type":"Point","coordinates":[4.412809728133768,51.948491051824945]}},{"type":"Feature","properties":{"highway":"bus_stop","public_transport":"platform","name":"De Tempel","ref:IFOPT":"NL:Q:31003604","_quaycode":"NL:Q:31003604","_town":"Rotterdam","_status":"available","_mode":"bus","_direction":310,"_visuallyAccessible":false,"_disabledAccessible":false,"geojson_lng":4.406258744394745,"geojson_lat":51.952724234122776},"geometry":{"type":"Point","coordinates":[4.406258744394745,51.952724234122776]}},{"type":"Feature","properties":{"highway":"bus_stop","public_transport":"platform","name":"Gatwickbaan","ref:IFOPT":"NL:Q:31002560","_quaycode":"NL:Q:31002560","_town":"Rotterdam","_status":"available","_mode":"bus","_direction":68,"_visuallyAccessible":false,"_disabledAccessible":false,"geojson_lng":4.430850510004065,"geojson_lat":51.94832455365576},"geometry":{"type":"Point","coordinates":[4.430850510004065,51.94832455365576]}},{"type":"Feature","properties":{"highway":"bus_stop","public_transport":"platform","name":"Hofwijk","ref:IFOPT":"NL:Q:31003605","_quaycode":"NL:Q:31003605","_town":"Rotterdam","_status":"available","_mode":"bus","_direction":315,"_visuallyAccessible":false,"_disabledAccessible":false,"geojson_lng":4.398697490240537,"geojson_lat":51.957191265929055},"geometry":{"type":"Point","coordinates":[4.398697490240537,51.957191265929055]}},{"type":"Feature","properties":{"highway":"bus_stop","public_transport":"platform","name":"De Tempel","ref:IFOPT":"NL:Q:31003632","_quaycode":"NL:Q:31003632","_town":"Rotterdam","_status":"available","_mode":"bus","_direction":127,"_visuallyAccessible":false,"_disabledAccessible":false,"geojson_lng":4.406245966727251,"geojson_lat":51.95264322852562},"geometry":{"type":"Point","coordinates":[4.406245966727251,51.95264322852562]}},{"type":"Feature","properties":{"highway":"bus_stop","public_transport":"platform","name":"Vliegveldweg","ref:IFOPT":"NL:Q:31002305","_quaycode":"NL:Q:31002305","_town":"Rotterdam","_status":"available","_mode":"bus","_direction":266,"_visuallyAccessible":false,"_disabledAccessible":false,"geojson_lng":4.4274682548916315,"geojson_lat":51.94731722242302},"geometry":{"type":"Point","coordinates":[4.4274682548916315,51.94731722242302]}},{"type":"Feature","properties":{"highway":"bus_stop","public_transport":"platform","name":"Rotterdam Airport","ref:IFOPT":"NL:Q:31002177","_quaycode":"NL:Q:31002177","_town":"Rotterdam","_status":"available","_mode":"bus","_direction":147,"_visuallyAccessible":false,"_disabledAccessible":false,"geojson_lng":4.43441483102144,"geojson_lat":51.94829955549083},"geometry":{"type":"Point","coordinates":[4.43441483102144,51.94829955549083]}},{"type":"Feature","properties":{"highway":"bus_stop","public_transport":"platform","name":"Gatwickbaan","ref:IFOPT":"NL:Q:31002573","_quaycode":"NL:Q:31002573","_town":"Rotterdam","_status":"available","_mode":"bus","_direction":248,"_visuallyAccessible":false,"_disabledAccessible":false,"geojson_lng":4.430918060133754,"geojson_lat":51.94856779942747},"geometry":{"type":"Point","coordinates":[4.430918060133754,51.94856779942747]}}]}