{"type":"FeatureCollection","features":[{"type":"Feature","properties":{"SeqNo":"36647","Type":"S","DHID":"de:08136:6612","Parent":"de:08136:6612","Name":"Lautern Rathaus","MunicipalityCode":"08136028","Municipality":"Heubach","DistrictCode":"-","District":"-","Description":"","Authority":"NVBW","DelfiName":"-","THID":"D91FC80019D4","LastOperationDate":"2025-06-13T00:00:00","SEV":"nein","longitude":"9,970976","latitude":"48,801406","geojson_lng":9.970976,"geojson_lat":48.801406},"geometry":{"type":"Point","coordinates":[9.970976,48.801406]}},{"type":"Feature","properties":{"SeqNo":"36648","Type":"Q","DHID":"de:08136:6612:0:1","Parent":"de:08136:6612","Name":"Ri Südost (Lauterburg)","MunicipalityCode":"00000000","Municipality":"-","DistrictCode":"-","District":"-","Description":"","Authority":"NVBW","DelfiName":"-","THID":"-","LastOperationDate":"","SEV":"nein","longitude":"9,97094","latitude":"48,801423","geojson_lng":9.97094,"geojson_lat":48.801423},"geometry":{"type":"Point","coordinates":[9.97094,48.801423]}},{"type":"Feature","properties":{"SeqNo":"36649","Type":"Q","DHID":"de:08136:6612:0:2","Parent":"de:08136:6612","Name":"Ri Nordwest (Heubach)","MunicipalityCode":"00000000","Municipality":"-","DistrictCode":"-","District":"-","Description":"","Authority":"NVBW","DelfiName":"-","THID":"-","LastOperationDate":"","SEV":"nein","longitude":"9,970976","latitude":"48,801447","geojson_lng":9.970976,"geojson_lat":48.801447},"geometry":{"type":"Point","coordinates":[9.970976,48.801447]}},{"type":"Feature","properties":{"SeqNo":"36664","Type":"S","DHID":"de:08136:6618","Parent":"de:08136:6618","Name":"Lautern Abzwg","MunicipalityCode":"08136028","Municipality":"Heubach","DistrictCode":"-","District":"-","Description":"","Authority":"NVBW","DelfiName":"-","THID":"D91FC80019DA","LastOperationDate":"2025-06-14T00:00:00","SEV":"nein","longitude":"9,970599","latitude":"48,801583","geojson_lng":9.970599,"geojson_lat":48.801583},"geometry":{"type":"Point","coordinates":[9.970599,48.801583]}},{"type":"Feature","properties":{"SeqNo":"36665","Type":"Q","DHID":"de:08136:6618:0:1","Parent":"de:08136:6618","Name":"Ri Nordwest (Heubach)","MunicipalityCode":"00000000","Municipality":"-","DistrictCode":"-","District":"-","Description":"","Authority":"NVBW","DelfiName":"-","THID":"-","LastOperationDate":"","SEV":"nein","longitude":"9,970635","latitude":"48,801565","geojson_lng":9.970635,"geojson_lat":48.801565},"geometry":{"type":"Point","coordinates":[9.970635,48.801565]}},{"type":"Feature","properties":{"SeqNo":"36666","Type":"Q","DHID":"de:08136:6618:0:2","Parent":"de:08136:6618","Name":"Ri Südost (Lautern)","MunicipalityCode":"00000000","Municipality":"-","DistrictCode":"-","District":"-","Description":"","Authority":"NVBW","DelfiName":"-","THID":"-","LastOperationDate":"","SEV":"nein","longitude":"9,970617","latitude":"48,801542","geojson_lng":9.970617,"geojson_lat":48.801542},"geometry":{"type":"Point","coordinates":[9.970617,48.801542]}}]}