{"type":"FeatureCollection","features":[{"type":"Feature","properties":{"SeqNo":"62240","Type":"S","DHID":"de:08317:19701","Parent":"de:08317:19701","Name":"Ettenheimmünster Sonne","MunicipalityCode":"08317026","Municipality":"Ettenheim","DistrictCode":"","District":"","Description":"","Authority":"NVBW","DelfiName":"-","THID":"D9207D004CF5","LastOperationDate":"2025-02-28T00:00:00","SEV":"nein","longitude":"7,88578","latitude":"48,24099","geojson_lng":7.88578,"geojson_lat":48.24099},"geometry":{"type":"Point","coordinates":[7.88578,48.24099]}},{"type":"Feature","properties":{"SeqNo":"62241","Type":"A","DHID":"de:08317:19701:1","Parent":"de:08317:19701","Name":"Bus","MunicipalityCode":"00000000","Municipality":"-","DistrictCode":"-","District":"-","Description":"","Authority":"NVBW","DelfiName":"-","THID":"-","LastOperationDate":"","SEV":"nein","longitude":"7,885825","latitude":"48,241014","geojson_lng":7.885825,"geojson_lat":48.241014},"geometry":{"type":"Point","coordinates":[7.885825,48.241014]}},{"type":"Feature","properties":{"SeqNo":"62242","Type":"Q","DHID":"de:08317:19701:1:1","Parent":"de:08317:19701:1","Name":"Steig 1","MunicipalityCode":"00000000","Municipality":"-","DistrictCode":"-","District":"-","Description":"","Authority":"NVBW","DelfiName":"-","THID":"-","LastOperationDate":"","SEV":"nein","longitude":"7,885771","latitude":"48,241038","geojson_lng":7.885771,"geojson_lat":48.241038},"geometry":{"type":"Point","coordinates":[7.885771,48.241038]}},{"type":"Feature","properties":{"SeqNo":"62243","Type":"S","DHID":"de:08317:19702","Parent":"de:08317:19702","Name":"Ettenheimmünster Altenheim","MunicipalityCode":"08317026","Municipality":"Ettenheim","DistrictCode":"","District":"","Description":"","Authority":"NVBW","DelfiName":"-","THID":"D9207D004CF6","LastOperationDate":"2025-02-28T00:00:00","SEV":"nein","longitude":"7,880022","latitude":"48,241612","geojson_lng":7.880022,"geojson_lat":48.241612},"geometry":{"type":"Point","coordinates":[7.880022,48.241612]}},{"type":"Feature","properties":{"SeqNo":"62244","Type":"A","DHID":"de:08317:19702:1","Parent":"de:08317:19702","Name":"Bus","MunicipalityCode":"00000000","Municipality":"-","DistrictCode":"-","District":"-","Description":"","Authority":"NVBW","DelfiName":"-","THID":"-","LastOperationDate":"","SEV":"nein","longitude":"7,880058","latitude":"48,241564","geojson_lng":7.880058,"geojson_lat":48.241564},"geometry":{"type":"Point","coordinates":[7.880058,48.241564]}},{"type":"Feature","properties":{"SeqNo":"62245","Type":"Q","DHID":"de:08317:19702:0:1","Parent":"de:08317:19702:1","Name":"Steig 1 Ri Ethm Sonne","MunicipalityCode":"00000000","Municipality":"-","DistrictCode":"-","District":"-","Description":"","Authority":"NVBW","DelfiName":"-","THID":"-","LastOperationDate":"","SEV":"nein","longitude":"7,879797","latitude":"48,241684","geojson_lng":7.879797,"geojson_lat":48.241684},"geometry":{"type":"Point","coordinates":[7.879797,48.241684]}},{"type":"Feature","properties":{"SeqNo":"62246","Type":"Q","DHID":"de:08317:19702:0:2","Parent":"de:08317:19702:1","Name":"Steig 1 Ri Ethm Sonne","MunicipalityCode":"00000000","Municipality":"-","DistrictCode":"-","District":"-","Description":"","Authority":"NVBW","DelfiName":"-","THID":"-","LastOperationDate":"","SEV":"nein","longitude":"7,880345","latitude":"48,241486","geojson_lng":7.880345,"geojson_lat":48.241486},"geometry":{"type":"Point","coordinates":[7.880345,48.241486]}}]}