{"type":"FeatureCollection","features":[{"type":"Feature","properties":{"SeqNo":"858534","Type":"S","DHID":"de:14627:5850","Parent":"de:14627:5850","Name":"Wülknitz Bahnhofstraße","MunicipalityCode":"14627340","Municipality":"Wülknitz","DistrictCode":"","District":"","Description":"","Authority":"VVO","DelfiName":"Wülknitz (Kr MEI), Bahnhofstraße","THID":"D939230016DA","LastOperationDate":"2025-02-28T00:00:00","SEV":"nein","longitude":"13,393504","latitude":"51,369241","geojson_lng":13.393504,"geojson_lat":51.369241},"geometry":{"type":"Point","coordinates":[13.393504,51.369241]}},{"type":"Feature","properties":{"SeqNo":"858535","Type":"Q","DHID":"de:14627:5850:0:1","Parent":"de:14627:5850","Name":"1","MunicipalityCode":"00000000","Municipality":"-","DistrictCode":"-","District":"-","Description":"","Authority":"VVO","DelfiName":"-","THID":"-","LastOperationDate":"","SEV":"nein","longitude":"13,393486","latitude":"51,369253","geojson_lng":13.393486,"geojson_lat":51.369253},"geometry":{"type":"Point","coordinates":[13.393486,51.369253]}},{"type":"Feature","properties":{"SeqNo":"858536","Type":"Q","DHID":"de:14627:5850:0:2","Parent":"de:14627:5850","Name":"2","MunicipalityCode":"00000000","Municipality":"-","DistrictCode":"-","District":"-","Description":"","Authority":"VVO","DelfiName":"-","THID":"-","LastOperationDate":"","SEV":"nein","longitude":"13,393575","latitude":"51,36923","geojson_lng":13.393575,"geojson_lat":51.36923},"geometry":{"type":"Point","coordinates":[13.393575,51.36923]}},{"type":"Feature","properties":{"SeqNo":"858537","Type":"Q","DHID":"de:14627:5850:0:97","Parent":"de:14627:5850","Name":"97","MunicipalityCode":"00000000","Municipality":"-","DistrictCode":"-","District":"-","Description":"","Authority":"VVO","DelfiName":"-","THID":"-","LastOperationDate":"","SEV":"nein","longitude":"13,393279","latitude":"51,368939","geojson_lng":13.393279,"geojson_lat":51.368939},"geometry":{"type":"Point","coordinates":[13.393279,51.368939]}},{"type":"Feature","properties":{"SeqNo":"858538","Type":"Q","DHID":"de:14627:5850:0:98","Parent":"de:14627:5850","Name":"98","MunicipalityCode":"00000000","Municipality":"-","DistrictCode":"-","District":"-","Description":"","Authority":"VVO","DelfiName":"-","THID":"-","LastOperationDate":"","SEV":"nein","longitude":"13,39327","latitude":"51,368922","geojson_lng":13.39327,"geojson_lat":51.368922},"geometry":{"type":"Point","coordinates":[13.39327,51.368922]}},{"type":"Feature","properties":{"SeqNo":"858539","Type":"S","DHID":"de:14627:5851","Parent":"de:14627:5851","Name":"Wülknitz Gartenstraße","MunicipalityCode":"14627340","Municipality":"Wülknitz","DistrictCode":"","District":"","Description":"","Authority":"VVO","DelfiName":"Wülknitz (Kr MEI), Gartenstraße","THID":"D939230016DB","LastOperationDate":"2025-02-28T00:00:00","SEV":"nein","longitude":"13,401705","latitude":"51,370189","geojson_lng":13.401705,"geojson_lat":51.370189},"geometry":{"type":"Point","coordinates":[13.401705,51.370189]}},{"type":"Feature","properties":{"SeqNo":"858540","Type":"A","DHID":"de:14627:5851:1","Parent":"de:14627:5851","Name":"Haltestelle","MunicipalityCode":"00000000","Municipality":"-","DistrictCode":"-","District":"-","Description":"","Authority":"VVO","DelfiName":"-","THID":"-","LastOperationDate":"","SEV":"nein","longitude":"13,401741","latitude":"51,370223","geojson_lng":13.401741,"geojson_lat":51.370223},"geometry":{"type":"Point","coordinates":[13.401741,51.370223]}},{"type":"Feature","properties":{"SeqNo":"858541","Type":"A","DHID":"de:14627:5851:2","Parent":"de:14627:5851","Name":"Umleitung","MunicipalityCode":"00000000","Municipality":"-","DistrictCode":"-","District":"-","Description":"","Authority":"VVO","DelfiName":"-","THID":"-","LastOperationDate":"","SEV":"nein","longitude":"13,400403","latitude":"51,366376","geojson_lng":13.400403,"geojson_lat":51.366376},"geometry":{"type":"Point","coordinates":[13.400403,51.366376]}},{"type":"Feature","properties":{"SeqNo":"858542","Type":"Q","DHID":"de:14627:5851:0:1","Parent":"de:14627:5851:1","Name":"1","MunicipalityCode":"00000000","Municipality":"-","DistrictCode":"-","District":"-","Description":"","Authority":"VVO","DelfiName":"-","THID":"-","LastOperationDate":"","SEV":"nein","longitude":"13,401768","latitude":"51,370386","geojson_lng":13.401768,"geojson_lat":51.370386},"geometry":{"type":"Point","coordinates":[13.401768,51.370386]}},{"type":"Feature","properties":{"SeqNo":"858543","Type":"Q","DHID":"de:14627:5851:0:2","Parent":"de:14627:5851:1","Name":"2","MunicipalityCode":"00000000","Municipality":"-","DistrictCode":"-","District":"-","Description":"","Authority":"VVO","DelfiName":"-","THID":"-","LastOperationDate":"","SEV":"nein","longitude":"13,401822","latitude":"51,370408","geojson_lng":13.401822,"geojson_lat":51.370408},"geometry":{"type":"Point","coordinates":[13.401822,51.370408]}},{"type":"Feature","properties":{"SeqNo":"858544","Type":"Q","DHID":"de:14627:5851:2:97","Parent":"de:14627:5851:2","Name":"97","MunicipalityCode":"00000000","Municipality":"-","DistrictCode":"-","District":"-","Description":"","Authority":"VVO","DelfiName":"-","THID":"-","LastOperationDate":"","SEV":"nein","longitude":"13,400403","latitude":"51,366376","geojson_lng":13.400403,"geojson_lat":51.366376},"geometry":{"type":"Point","coordinates":[13.400403,51.366376]}},{"type":"Feature","properties":{"SeqNo":"858545","Type":"Q","DHID":"de:14627:5851:2:98","Parent":"de:14627:5851:2","Name":"98","MunicipalityCode":"00000000","Municipality":"-","DistrictCode":"-","District":"-","Description":"","Authority":"VVO","DelfiName":"-","THID":"-","LastOperationDate":"","SEV":"nein","longitude":"13,400394","latitude":"51,366376","geojson_lng":13.400394,"geojson_lat":51.366376},"geometry":{"type":"Point","coordinates":[13.400394,51.366376]}},{"type":"Feature","properties":{"SeqNo":"858562","Type":"S","DHID":"de:14627:5856","Parent":"de:14627:5856","Name":"Wülknitz Am Fußweg","MunicipalityCode":"14627340","Municipality":"Wülknitz","DistrictCode":"","District":"","Description":"","Authority":"VVO","DelfiName":"Wülknitz (Kr MEI), Am Fußweg","THID":"D939230016E0","LastOperationDate":"2025-02-14T00:00:00","SEV":"nein","longitude":"13,399648","latitude":"51,369118","geojson_lng":13.399648,"geojson_lat":51.369118},"geometry":{"type":"Point","coordinates":[13.399648,51.369118]}},{"type":"Feature","properties":{"SeqNo":"858563","Type":"A","DHID":"de:14627:5856:1","Parent":"de:14627:5856","Name":"Haltestelle","MunicipalityCode":"00000000","Municipality":"-","DistrictCode":"-","District":"-","Description":"","Authority":"VVO","DelfiName":"-","THID":"-","LastOperationDate":"","SEV":"nein","longitude":"13,399612","latitude":"51,369141","geojson_lng":13.399612,"geojson_lat":51.369141},"geometry":{"type":"Point","coordinates":[13.399612,51.369141]}},{"type":"Feature","properties":{"SeqNo":"858564","Type":"Q","DHID":"de:14627:5856:1:1","Parent":"de:14627:5856:1","Name":"1","MunicipalityCode":"00000000","Municipality":"-","DistrictCode":"-","District":"-","Description":"","Authority":"VVO","DelfiName":"-","THID":"-","LastOperationDate":"","SEV":"nein","longitude":"13,399648","latitude":"51,369118","geojson_lng":13.399648,"geojson_lat":51.369118},"geometry":{"type":"Point","coordinates":[13.399648,51.369118]}},{"type":"Feature","properties":{"SeqNo":"858565","Type":"S","DHID":"de:14627:5859","Parent":"de:14627:5859","Name":"Wülknitz Siedlung","MunicipalityCode":"14627340","Municipality":"Wülknitz","DistrictCode":"","District":"","Description":"","Authority":"VVO","DelfiName":"Wülknitz (Kr MEI), Siedlung","THID":"D939230016E3","LastOperationDate":"2025-02-14T00:00:00","SEV":"nein","longitude":"13,392309","latitude":"51,367879","geojson_lng":13.392309,"geojson_lat":51.367879},"geometry":{"type":"Point","coordinates":[13.392309,51.367879]}},{"type":"Feature","properties":{"SeqNo":"858566","Type":"Q","DHID":"de:14627:5859:0:1","Parent":"de:14627:5859","Name":"1","MunicipalityCode":"00000000","Municipality":"-","DistrictCode":"-","District":"-","Description":"","Authority":"VVO","DelfiName":"-","THID":"-","LastOperationDate":"","SEV":"nein","longitude":"13,392309","latitude":"51,367879","geojson_lng":13.392309,"geojson_lat":51.367879},"geometry":{"type":"Point","coordinates":[13.392309,51.367879]}},{"type":"Feature","properties":{"SeqNo":"858567","Type":"Q","DHID":"de:14627:5859:0:2","Parent":"de:14627:5859","Name":"2","MunicipalityCode":"00000000","Municipality":"-","DistrictCode":"-","District":"-","Description":"","Authority":"VVO","DelfiName":"-","THID":"-","LastOperationDate":"","SEV":"nein","longitude":"13,392524","latitude":"51,367935","geojson_lng":13.392524,"geojson_lat":51.367935},"geometry":{"type":"Point","coordinates":[13.392524,51.367935]}}]}