{"type":"FeatureCollection","features":[{"type":"Feature","properties":{"highway":"bus_stop","public_transport":"platform","name":"Jutten","ref:IFOPT":"NL:Q:46510050","_quaycode":"NL:Q:46510050","_town":"Varsen","_status":"available","_mode":"bus","_direction":286,"_visuallyAccessible":false,"_disabledAccessible":false,"geojson_lng":6.359882866982341,"geojson_lat":52.527468611290075},"geometry":{"type":"Point","coordinates":[6.359882866982341,52.527468611290075]}},{"type":"Feature","properties":{"highway":"bus_stop","public_transport":"platform","name":"Stadshaghen","ref:IFOPT":"NL:Q:46610060","_quaycode":"NL:Q:46610060","_town":"Ommen","_status":"available","_mode":"bus","_direction":99,"_visuallyAccessible":false,"_disabledAccessible":true,"geojson_lng":6.415168485083451,"geojson_lat":52.519605396755594},"geometry":{"type":"Point","coordinates":[6.415168485083451,52.519605396755594]}},{"type":"Feature","properties":{"highway":"bus_stop","public_transport":"platform","name":"Danteweg","ref:IFOPT":"NL:Q:46613020","_quaycode":"NL:Q:46613020","_town":"Ommen","_status":"available","_mode":"bus","_direction":209,"_visuallyAccessible":false,"_disabledAccessible":true,"geojson_lng":6.412871662707683,"geojson_lat":52.52094650190175},"geometry":{"type":"Point","coordinates":[6.412871662707683,52.52094650190175]}},{"type":"Feature","properties":{"highway":"bus_stop","public_transport":"platform","name":"Varsenerdijk","ref:IFOPT":"NL:Q:46510260","_quaycode":"NL:Q:46510260","_town":"Varsen","_status":"available","_mode":"bus","_direction":259,"_visuallyAccessible":false,"_disabledAccessible":false,"geojson_lng":6.39988510961513,"geojson_lat":52.52327808819702},"geometry":{"type":"Point","coordinates":[6.39988510961513,52.52327808819702]}},{"type":"Feature","properties":{"highway":"bus_stop","public_transport":"platform","name":"Woestenweg","ref:IFOPT":"NL:Q:46350020","_quaycode":"NL:Q:46350020","_town":"Balkbrug","_status":"available","_mode":"bus","_direction":184,"_visuallyAccessible":false,"_disabledAccessible":false,"geojson_lng":6.395254435642812,"geojson_lat":52.57600419284504},"geometry":{"type":"Point","coordinates":[6.395254435642812,52.57600419284504]}},{"type":"Feature","properties":{"highway":"bus_stop","public_transport":"platform","name":"Danteweg","ref:IFOPT":"NL:Q:46613030","_quaycode":"NL:Q:46613030","_town":"Ommen","_status":"available","_mode":"bus","_direction":29,"_visuallyAccessible":false,"_disabledAccessible":true,"geojson_lng":6.413008423738987,"geojson_lat":52.52112507753803},"geometry":{"type":"Point","coordinates":[6.413008423738987,52.52112507753803]}},{"type":"Feature","properties":{"highway":"bus_stop","public_transport":"platform","name":"Sogenbosstraat","ref:IFOPT":"NL:Q:46613040","_quaycode":"NL:Q:46613040","_town":"Ommen","_status":"available","_mode":"bus","_direction":84,"_visuallyAccessible":false,"_disabledAccessible":false,"geojson_lng":6.43233083310926,"geojson_lat":52.524461704462425},"geometry":{"type":"Point","coordinates":[6.43233083310926,52.524461704462425]}},{"type":"Feature","properties":{"highway":"bus_stop","public_transport":"platform","name":"De Haar","ref:IFOPT":"NL:Q:46250070","_quaycode":"NL:Q:46250070","_town":"Witharen","_status":"available","_mode":"bus","_direction":325,"_visuallyAccessible":false,"_disabledAccessible":false,"geojson_lng":6.3975516220079465,"geojson_lat":52.55586996942692},"geometry":{"type":"Point","coordinates":[6.3975516220079465,52.55586996942692]}},{"type":"Feature","properties":{"highway":"bus_stop","public_transport":"platform","name":"Huize Vilsteren","ref:IFOPT":"NL:Q:46050040","_quaycode":"NL:Q:46050040","_town":"Vilsteren","_status":"available","_mode":"bus","_direction":245,"_visuallyAccessible":false,"_disabledAccessible":false,"geojson_lng":6.350817786579961,"geojson_lat":52.51117573278398},"geometry":{"type":"Point","coordinates":[6.350817786579961,52.51117573278398]}},{"type":"Feature","properties":{"highway":"bus_stop","public_transport":"platform","name":"Kaasboerderij Heileuver","ref:IFOPT":"NL:Q:46050070","_quaycode":"NL:Q:46050070","_town":"Dalmsholte","_status":"available","_mode":"bus","_direction":280,"_visuallyAccessible":false,"_disabledAccessible":false,"geojson_lng":6.3440233197409,"geojson_lat":52.48178645490023},"geometry":{"type":"Point","coordinates":[6.3440233197409,52.48178645490023]}},{"type":"Feature","properties":{"highway":"bus_stop","public_transport":"platform","name":"Besthmen","ref:IFOPT":"NL:Q:46600200","_quaycode":"NL:Q:46600200","_town":"Ommen","_status":"available","_mode":"bus","_direction":344,"_visuallyAccessible":false,"_disabledAccessible":false,"geojson_lng":6.4221455986344775,"geojson_lat":52.497317534185406},"geometry":{"type":"Point","coordinates":[6.4221455986344775,52.497317534185406]}},{"type":"Feature","properties":{"highway":"bus_stop","public_transport":"platform","name":"Strangeweg","ref:IFOPT":"NL:Q:46611500","_quaycode":"NL:Q:46611500","_town":"Ommen","_status":"available","_mode":"bus","_direction":268,"_visuallyAccessible":false,"_disabledAccessible":true,"geojson_lng":6.425338933328623,"geojson_lat":52.52478374675819},"geometry":{"type":"Point","coordinates":[6.425338933328623,52.52478374675819]}},{"type":"Feature","properties":{"highway":"bus_stop","public_transport":"platform","name":"Station","ref:IFOPT":"NL:Q:46610650","_quaycode":"NL:Q:46610650","_town":"Ommen","_status":"available","_mode":"bus","_direction":77,"_visuallyAccessible":true,"_disabledAccessible":true,"geojson_lng":6.417330954962091,"geojson_lat":52.50998752927315},"geometry":{"type":"Point","coordinates":[6.417330954962091,52.50998752927315]}},{"type":"Feature","properties":{"highway":"bus_stop","public_transport":"platform","name":"Hessenweg West","ref:IFOPT":"NL:Q:46510150","_quaycode":"NL:Q:46510150","_town":"Varsen","_status":"available","_mode":"bus","_direction":317,"_visuallyAccessible":false,"_disabledAccessible":false,"geojson_lng":6.378550900063233,"geojson_lat":52.527979186051404},"geometry":{"type":"Point","coordinates":[6.378550900063233,52.527979186051404]}},{"type":"Feature","properties":{"highway":"bus_stop","public_transport":"platform","name":"Centrum","ref:IFOPT":"NL:Q:46613060","_quaycode":"NL:Q:46613060","_town":"Ommen","_status":"available","_mode":"bus","_direction":0,"_visuallyAccessible":false,"_disabledAccessible":true,"geojson_lng":6.425633048519501,"geojson_lat":52.51974793515319},"geometry":{"type":"Point","coordinates":[6.425633048519501,52.51974793515319]}},{"type":"Feature","properties":{"highway":"bus_stop","public_transport":"platform","name":"Mooirivier","ref:IFOPT":"NL:Q:46510100","_quaycode":"NL:Q:46510100","_town":"Oudleusen","_status":"available","_mode":"bus","_direction":89,"_visuallyAccessible":false,"_disabledAccessible":false,"geojson_lng":6.33481463555054,"geojson_lat":52.52809392163255},"geometry":{"type":"Point","coordinates":[6.33481463555054,52.52809392163255]}},{"type":"Feature","properties":{"highway":"bus_stop","public_transport":"platform","name":"Emslandweg","ref:IFOPT":"NL:Q:46250130","_quaycode":"NL:Q:46250130","_town":"Ommen","_status":"available","_mode":"bus","_direction":332,"_visuallyAccessible":false,"_disabledAccessible":false,"geojson_lng":6.408979377377457,"geojson_lat":52.537391978570966},"geometry":{"type":"Point","coordinates":[6.408979377377457,52.537391978570966]}},{"type":"Feature","properties":{"highway":"bus_stop","public_transport":"platform","name":"Woestenweg","ref:IFOPT":"NL:Q:46350010","_quaycode":"NL:Q:46350010","_town":"Balkbrug","_status":"available","_mode":"bus","_direction":357,"_visuallyAccessible":false,"_disabledAccessible":false,"geojson_lng":6.395247496990547,"geojson_lat":52.576345787255846},"geometry":{"type":"Point","coordinates":[6.395247496990547,52.576345787255846]}},{"type":"Feature","properties":{"highway":"bus_stop","public_transport":"platform","name":"Strangeweg","ref:IFOPT":"NL:Q:46611350","_quaycode":"NL:Q:46611350","_town":"Ommen","_status":"available","_mode":"bus","_direction":86,"_visuallyAccessible":false,"_disabledAccessible":true,"geojson_lng":6.425824269919028,"geojson_lat":52.52474354689403},"geometry":{"type":"Point","coordinates":[6.425824269919028,52.52474354689403]}},{"type":"Feature","properties":{"highway":"bus_stop","public_transport":"platform","name":"Ommerschans","ref:IFOPT":"NL:Q:46350520","_quaycode":"NL:Q:46350520","_town":"Balkbrug","_status":"available","_mode":"bus","_direction":141,"_visuallyAccessible":false,"_disabledAccessible":false,"geojson_lng":6.392128955453713,"geojson_lat":52.58774174035002},"geometry":{"type":"Point","coordinates":[6.392128955453713,52.58774174035002]}},{"type":"Feature","properties":{"highway":"bus_stop","public_transport":"platform","name":"Weth. Petterweg","ref:IFOPT":"NL:Q:46250090","_quaycode":"NL:Q:46250090","_town":"Ommen","_status":"available","_mode":"bus","_direction":325,"_visuallyAccessible":false,"_disabledAccessible":false,"geojson_lng":6.404817040067404,"geojson_lat":52.54545390748949},"geometry":{"type":"Point","coordinates":[6.404817040067404,52.54545390748949]}},{"type":"Feature","properties":{"highway":"bus_stop","public_transport":"platform","name":"Hessenweg West","ref:IFOPT":"NL:Q:46510300","_quaycode":"NL:Q:46510300","_town":"Varsen","_status":"available","_mode":"bus","_direction":103,"_visuallyAccessible":false,"_disabledAccessible":false,"geojson_lng":6.380088471498885,"geojson_lat":52.52754389854253},"geometry":{"type":"Point","coordinates":[6.380088471498885,52.52754389854253]}},{"type":"Feature","properties":{"highway":"bus_stop","public_transport":"platform","name":"Kasteel Eerde","ref:IFOPT":"NL:Q:46601010","_quaycode":"NL:Q:46601010","_town":"Eerde","_status":"available","_mode":"bus","_direction":276,"_visuallyAccessible":false,"_disabledAccessible":true,"geojson_lng":6.4562436852706435,"geojson_lat":52.48782027712541},"geometry":{"type":"Point","coordinates":[6.4562436852706435,52.48782027712541]}},{"type":"Feature","properties":{"highway":"bus_stop","public_transport":"platform","name":"Camping Nieuwe Brug","ref:IFOPT":"NL:Q:46060030","_quaycode":"NL:Q:46060030","_town":"Nieuwe Brug","_status":"available","_mode":"bus","_direction":181,"_visuallyAccessible":false,"_disabledAccessible":false,"geojson_lng":6.423873616869066,"geojson_lat":52.48874588262418},"geometry":{"type":"Point","coordinates":[6.423873616869066,52.48874588262418]}},{"type":"Feature","properties":{"highway":"bus_stop","public_transport":"platform","name":"Steile Oever","ref:IFOPT":"NL:Q:46601050","_quaycode":"NL:Q:46601050","_town":"Ommen","_status":"available","_mode":"bus","_direction":297,"_visuallyAccessible":false,"_disabledAccessible":false,"geojson_lng":6.429788875916037,"geojson_lat":52.494203651623586},"geometry":{"type":"Point","coordinates":[6.429788875916037,52.494203651623586]}},{"type":"Feature","properties":{"highway":"bus_stop","public_transport":"platform","name":"Steile Oever","ref:IFOPT":"NL:Q:46601060","_quaycode":"NL:Q:46601060","_town":"Ommen","_status":"available","_mode":"bus","_direction":117,"_visuallyAccessible":false,"_disabledAccessible":false,"geojson_lng":6.429671519330663,"geojson_lat":52.49422265943621},"geometry":{"type":"Point","coordinates":[6.429671519330663,52.49422265943621]}},{"type":"Feature","properties":{"highway":"bus_stop","public_transport":"platform","name":"Tussenweg","ref:IFOPT":"NL:Q:46250120","_quaycode":"NL:Q:46250120","_town":"Ommen","_status":"available","_mode":"bus","_direction":153,"_visuallyAccessible":false,"_disabledAccessible":false,"geojson_lng":6.406730471199896,"geojson_lat":52.54212995265741},"geometry":{"type":"Point","coordinates":[6.406730471199896,52.54212995265741]}},{"type":"Feature","properties":{"highway":"bus_stop","public_transport":"platform","name":"Gasunie","ref:IFOPT":"NL:Q:46050060","_quaycode":"NL:Q:46050060","_town":"Vilsteren","_status":"available","_mode":"bus","_direction":355,"_visuallyAccessible":false,"_disabledAccessible":false,"geojson_lng":6.357153178153452,"geojson_lat":52.49713895355351},"geometry":{"type":"Point","coordinates":[6.357153178153452,52.49713895355351]}},{"type":"Feature","properties":{"highway":"bus_stop","public_transport":"platform","name":"Giethemer Kerkpad","ref:IFOPT":"NL:Q:46600100","_quaycode":"NL:Q:46600100","_town":"Ommen","_status":"available","_mode":"bus","_direction":356,"_visuallyAccessible":false,"_disabledAccessible":false,"geojson_lng":6.421447764853354,"geojson_lat":52.50462184730112},"geometry":{"type":"Point","coordinates":[6.421447764853354,52.50462184730112]}},{"type":"Feature","properties":{"highway":"bus_stop","public_transport":"platform","name":"Chevalleraustraat","ref:IFOPT":"NL:Q:46611250","_quaycode":"NL:Q:46611250","_town":"Ommen","_status":"available","_mode":"bus","_direction":94,"_visuallyAccessible":false,"_disabledAccessible":false,"geojson_lng":6.421552178066926,"geojson_lat":52.524798848487556},"geometry":{"type":"Point","coordinates":[6.421552178066926,52.524798848487556]}},{"type":"Feature","properties":{"highway":"bus_stop","public_transport":"platform","name":"Maatschappij Wijk","ref:IFOPT":"NL:Q:46250040","_quaycode":"NL:Q:46250040","_town":"Balkbrug","_status":"available","_mode":"bus","_direction":180,"_visuallyAccessible":false,"_disabledAccessible":false,"geojson_lng":6.394687271498195,"geojson_lat":52.57120054413647},"geometry":{"type":"Point","coordinates":[6.394687271498195,52.57120054413647]}},{"type":"Feature","properties":{"highway":"bus_stop","public_transport":"platform","name":"Station","ref:IFOPT":"NL:Q:46160660","_quaycode":"NL:Q:46160660","_town":"Ommen","_status":"available","_mode":"bus","_direction":323,"_visuallyAccessible":true,"_disabledAccessible":true,"geojson_lng":6.417583845726327,"geojson_lat":52.51009318775755},"geometry":{"type":"Point","coordinates":[6.417583845726327,52.51009318775755]}},{"type":"Feature","properties":{"highway":"bus_stop","public_transport":"platform","name":"Stadshaghen","ref:IFOPT":"NL:Q:46610050","_quaycode":"NL:Q:46610050","_town":"Ommen","_status":"available","_mode":"bus","_direction":278,"_visuallyAccessible":false,"_disabledAccessible":true,"geojson_lng":6.415271602886086,"geojson_lat":52.519604503089916},"geometry":{"type":"Point","coordinates":[6.415271602886086,52.519604503089916]}},{"type":"Feature","properties":{"highway":"bus_stop","public_transport":"platform","name":"Koloniedijk","ref:IFOPT":"NL:Q:46350510","_quaycode":"NL:Q:46350510","_town":"Balkbrug","_status":"available","_mode":"bus","_direction":2,"_visuallyAccessible":false,"_disabledAccessible":false,"geojson_lng":6.394967347248415,"geojson_lat":52.583448502348276},"geometry":{"type":"Point","coordinates":[6.394967347248415,52.583448502348276]}},{"type":"Feature","properties":{"highway":"bus_stop","public_transport":"platform","name":"Chevalleraustraat","ref:IFOPT":"NL:Q:46611400","_quaycode":"NL:Q:46611400","_town":"Ommen","_status":"available","_mode":"bus","_direction":274,"_visuallyAccessible":false,"_disabledAccessible":false,"geojson_lng":6.420802698010788,"geojson_lat":52.524886272130466},"geometry":{"type":"Point","coordinates":[6.420802698010788,52.524886272130466]}},{"type":"Feature","properties":{"highway":"bus_stop","public_transport":"platform","name":"Markt","ref:IFOPT":"NL:Q:46611200","_quaycode":"NL:Q:46611200","_town":"Ommen","_status":"available","_mode":"bus","_direction":221,"_visuallyAccessible":false,"_disabledAccessible":true,"geojson_lng":6.4189135741852885,"geojson_lat":52.519087534851195},"geometry":{"type":"Point","coordinates":[6.4189135741852885,52.519087534851195]}},{"type":"Feature","properties":{"highway":"bus_stop","public_transport":"platform","name":"Tolhuisweg","ref:IFOPT":"NL:Q:46250060","_quaycode":"NL:Q:46250060","_town":"Witharen","_status":"available","_mode":"bus","_direction":168,"_visuallyAccessible":false,"_disabledAccessible":false,"geojson_lng":6.395858100932602,"geojson_lat":52.56177139095796},"geometry":{"type":"Point","coordinates":[6.395858100932602,52.56177139095796]}},{"type":"Feature","properties":{"highway":"bus_stop","public_transport":"platform","name":"Varsenerdijk","ref:IFOPT":"NL:Q:46610110","_quaycode":"NL:Q:46610110","_town":"Varsen","_status":"available","_mode":"bus","_direction":102,"_visuallyAccessible":false,"_disabledAccessible":false,"geojson_lng":6.400175838857065,"geojson_lat":52.52310483605742},"geometry":{"type":"Point","coordinates":[6.400175838857065,52.52310483605742]}},{"type":"Feature","properties":{"highway":"bus_stop","public_transport":"platform","name":"Besthmen","ref:IFOPT":"NL:Q:46601080","_quaycode":"NL:Q:46601080","_town":"Ommen","_status":"available","_mode":"bus","_direction":85,"_visuallyAccessible":false,"_disabledAccessible":false,"geojson_lng":6.423228584074339,"geojson_lat":52.49640029184658},"geometry":{"type":"Point","coordinates":[6.423228584074339,52.49640029184658]}},{"type":"Feature","properties":{"highway":"bus_stop","public_transport":"platform","name":"Mooirivier","ref:IFOPT":"NL:Q:46410350","_quaycode":"NL:Q:46410350","_town":"Oudleusen","_status":"available","_mode":"bus","_direction":254,"_visuallyAccessible":false,"_disabledAccessible":false,"geojson_lng":6.33316728986816,"geojson_lat":52.52824188545388},"geometry":{"type":"Point","coordinates":[6.33316728986816,52.52824188545388]}},{"type":"Feature","properties":{"highway":"bus_stop","public_transport":"platform","name":"Tolhuisweg","ref:IFOPT":"NL:Q:46250050","_quaycode":"NL:Q:46250050","_town":"Witharen","_status":"available","_mode":"bus","_direction":348,"_visuallyAccessible":false,"_disabledAccessible":false,"geojson_lng":6.395871818186033,"geojson_lat":52.56172633536081},"geometry":{"type":"Point","coordinates":[6.395871818186033,52.56172633536081]}},{"type":"Feature","properties":{"highway":"bus_stop","public_transport":"platform","name":"Camping Nieuwe Brug","ref:IFOPT":"NL:Q:46060040","_quaycode":"NL:Q:46060040","_town":"Nieuwe Brug","_status":"available","_mode":"bus","_direction":359,"_visuallyAccessible":false,"_disabledAccessible":false,"geojson_lng":6.423961941632906,"geojson_lat":52.488745110301714},"geometry":{"type":"Point","coordinates":[6.423961941632906,52.488745110301714]}},{"type":"Feature","properties":{"highway":"bus_stop","public_transport":"platform","name":"Huize Vilsteren","ref:IFOPT":"NL:Q:46050030","_quaycode":"NL:Q:46050030","_town":"Vilsteren","_status":"available","_mode":"bus","_direction":65,"_visuallyAccessible":false,"_disabledAccessible":false,"geojson_lng":6.350860991496556,"geojson_lat":52.511130442471234},"geometry":{"type":"Point","coordinates":[6.350860991496556,52.511130442471234]}},{"type":"Feature","properties":{"highway":"bus_stop","public_transport":"platform","name":"Centrum","ref:IFOPT":"NL:Q:46613050","_quaycode":"NL:Q:46613050","_town":"Ommen","_status":"available","_mode":"bus","_direction":180,"_visuallyAccessible":false,"_disabledAccessible":true,"geojson_lng":6.425518727347842,"geojson_lat":52.5192725756343},"geometry":{"type":"Point","coordinates":[6.425518727347842,52.5192725756343]}},{"type":"Feature","properties":{"highway":"bus_stop","public_transport":"platform","name":"Maatschappij Wijk","ref:IFOPT":"NL:Q:46250030","_quaycode":"NL:Q:46250030","_town":"Balkbrug","_status":"available","_mode":"bus","_direction":9,"_visuallyAccessible":false,"_disabledAccessible":false,"geojson_lng":6.394738295968138,"geojson_lat":52.57149670804514},"geometry":{"type":"Point","coordinates":[6.394738295968138,52.57149670804514]}},{"type":"Feature","properties":{"highway":"bus_stop","public_transport":"platform","name":"De Haar","ref:IFOPT":"NL:Q:46250080","_quaycode":"NL:Q:46250080","_town":"Witharen","_status":"available","_mode":"bus","_direction":145,"_visuallyAccessible":false,"_disabledAccessible":false,"geojson_lng":6.397965787815358,"geojson_lat":52.555282234664716},"geometry":{"type":"Point","coordinates":[6.397965787815358,52.555282234664716]}},{"type":"Feature","properties":{"highway":"bus_stop","public_transport":"platform","name":"Ommerschans","ref:IFOPT":"NL:Q:46350530","_quaycode":"NL:Q:46350530","_town":"Balkbrug","_status":"available","_mode":"bus","_direction":342,"_visuallyAccessible":false,"_disabledAccessible":false,"geojson_lng":6.3917566227819265,"geojson_lat":52.588239216728454},"geometry":{"type":"Point","coordinates":[6.3917566227819265,52.588239216728454]}},{"type":"Feature","properties":{"highway":"bus_stop","public_transport":"platform","name":"Weth. Petterweg","ref:IFOPT":"NL:Q:46250100","_quaycode":"NL:Q:46250100","_town":"Ommen","_status":"available","_mode":"bus","_direction":145,"_visuallyAccessible":false,"_disabledAccessible":false,"geojson_lng":6.405130738379013,"geojson_lat":52.54499283659638},"geometry":{"type":"Point","coordinates":[6.405130738379013,52.54499283659638]}},{"type":"Feature","properties":{"highway":"bus_stop","public_transport":"platform","name":"Giethemer Kerkpad","ref:IFOPT":"NL:Q:46600150","_quaycode":"NL:Q:46600150","_town":"Ommen","_status":"available","_mode":"bus","_direction":173,"_visuallyAccessible":false,"_disabledAccessible":false,"geojson_lng":6.421298610029426,"geojson_lat":52.50454225641063},"geometry":{"type":"Point","coordinates":[6.421298610029426,52.50454225641063]}},{"type":"Feature","properties":{"highway":"bus_stop","public_transport":"platform","name":"Markt","ref:IFOPT":"NL:Q:46611210","_quaycode":"NL:Q:46611210","_town":"Ommen","_status":"available","_mode":"bus","_direction":36,"_visuallyAccessible":false,"_disabledAccessible":true,"geojson_lng":6.418825818666419,"geojson_lat":52.519115261852306},"geometry":{"type":"Point","coordinates":[6.418825818666419,52.519115261852306]}},{"type":"Feature","properties":{"highway":"bus_stop","public_transport":"platform","name":"Koloniedijk","ref:IFOPT":"NL:Q:46350500","_quaycode":"NL:Q:46350500","_town":"Balkbrug","_status":"available","_mode":"bus","_direction":182,"_visuallyAccessible":false,"_disabledAccessible":false,"geojson_lng":6.394948894883978,"geojson_lat":52.58328687925504},"geometry":{"type":"Point","coordinates":[6.394948894883978,52.58328687925504]}},{"type":"Feature","properties":{"highway":"bus_stop","public_transport":"platform","name":"Kasteel Eerde","ref:IFOPT":"NL:Q:46601020","_quaycode":"NL:Q:46601020","_town":"Eerde","_status":"available","_mode":"bus","_direction":102,"_visuallyAccessible":false,"_disabledAccessible":true,"geojson_lng":6.454044092337679,"geojson_lat":52.48819062333595},"geometry":{"type":"Point","coordinates":[6.454044092337679,52.48819062333595]}},{"type":"Feature","properties":{"highway":"bus_stop","public_transport":"platform","name":"Gasunie","ref:IFOPT":"NL:Q:46050050","_quaycode":"NL:Q:46050050","_town":"Vilsteren","_status":"available","_mode":"bus","_direction":174,"_visuallyAccessible":false,"_disabledAccessible":false,"geojson_lng":6.357078177719742,"geojson_lat":52.49707665178737},"geometry":{"type":"Point","coordinates":[6.357078177719742,52.49707665178737]}},{"type":"Feature","properties":{"highway":"bus_stop","public_transport":"platform","name":"Jutten","ref:IFOPT":"NL:Q:46510200","_quaycode":"NL:Q:46510200","_town":"Varsen","_status":"available","_mode":"bus","_direction":88,"_visuallyAccessible":false,"_disabledAccessible":false,"geojson_lng":6.362194704818026,"geojson_lat":52.52738671934168},"geometry":{"type":"Point","coordinates":[6.362194704818026,52.52738671934168]}},{"type":"Feature","properties":{"highway":"bus_stop","public_transport":"platform","name":"Emslandweg","ref:IFOPT":"NL:Q:46250140","_quaycode":"NL:Q:46250140","_town":"Ommen","_status":"available","_mode":"bus","_direction":152,"_visuallyAccessible":false,"_disabledAccessible":false,"geojson_lng":6.40902150726558,"geojson_lat":52.537301737037886},"geometry":{"type":"Point","coordinates":[6.40902150726558,52.537301737037886]}},{"type":"Feature","properties":{"highway":"bus_stop","public_transport":"platform","name":"Tussenweg","ref:IFOPT":"NL:Q:46250110","_quaycode":"NL:Q:46250110","_town":"Ommen","_status":"available","_mode":"bus","_direction":333,"_visuallyAccessible":false,"_disabledAccessible":false,"geojson_lng":6.406730678896192,"geojson_lat":52.5421389387334},"geometry":{"type":"Point","coordinates":[6.406730678896192,52.5421389387334]}}]}