{"type":"FeatureCollection","features":[{"type":"Feature","properties":{"highway":"bus_stop","public_transport":"platform","name":"Zuiderkroon","ref:IFOPT":"NL:Q:12558850","_quaycode":"NL:Q:12558850","_town":"Hoogezand","_status":"available","_mode":"bus","_direction":316,"_visuallyAccessible":false,"_disabledAccessible":false,"geojson_lng":6.742689307352251,"geojson_lat":53.14689024275522},"geometry":{"type":"Point","coordinates":[6.742689307352251,53.14689024275522]}},{"type":"Feature","properties":{"highway":"bus_stop","public_transport":"platform","name":"Raketlaan","ref:IFOPT":"NL:Q:12558210","_quaycode":"NL:Q:12558210","_town":"Hoogezand","_status":"available","_mode":"bus","_direction":269,"_visuallyAccessible":false,"_disabledAccessible":true,"geojson_lng":6.737519888255925,"geojson_lat":53.15176555461956},"geometry":{"type":"Point","coordinates":[6.737519888255925,53.15176555461956]}},{"type":"Feature","properties":{"highway":"bus_stop","public_transport":"platform","name":"Raketlaan","ref:IFOPT":"NL:Q:12558220","_quaycode":"NL:Q:12558220","_town":"Hoogezand","_status":"available","_mode":"bus","_direction":89,"_visuallyAccessible":false,"_disabledAccessible":true,"geojson_lng":6.737770857483928,"geojson_lat":53.15166387148673},"geometry":{"type":"Point","coordinates":[6.737770857483928,53.15166387148673]}},{"type":"Feature","properties":{"highway":"bus_stop","public_transport":"platform","name":"Van Limburg Stirumlaan","ref:IFOPT":"NL:Q:12558860","_quaycode":"NL:Q:12558860","_town":"Hoogezand","_status":"available","_mode":"bus","_direction":358,"_visuallyAccessible":false,"_disabledAccessible":false,"geojson_lng":6.741707662678462,"geojson_lat":53.14895933415314},"geometry":{"type":"Point","coordinates":[6.741707662678462,53.14895933415314]}},{"type":"Feature","properties":{"highway":"bus_stop","public_transport":"platform","name":"Abraham Kuypersingel","ref:IFOPT":"NL:Q:12558120","_quaycode":"NL:Q:12558120","_town":"Hoogezand","_status":"available","_mode":"bus","_direction":98,"_visuallyAccessible":false,"_disabledAccessible":true,"geojson_lng":6.744200475170476,"geojson_lat":53.15170807584929},"geometry":{"type":"Point","coordinates":[6.744200475170476,53.15170807584929]}},{"type":"Feature","properties":{"highway":"bus_stop","public_transport":"platform","name":"Abraham Kuypersingel","ref:IFOPT":"NL:Q:12558110","_quaycode":"NL:Q:12558110","_town":"Hoogezand","_status":"available","_mode":"bus","_direction":274,"_visuallyAccessible":false,"_disabledAccessible":true,"geojson_lng":6.7440851438828595,"geojson_lat":53.15184418449553},"geometry":{"type":"Point","coordinates":[6.7440851438828595,53.15184418449553]}}]}