{"type":"FeatureCollection","features":[{"type":"Feature","properties":{"highway":"bus_stop","public_transport":"platform","name":"Punter","ref:IFOPT":"NL:Q:57242550","_quaycode":"NL:Q:57242550","_town":"Amstelveen","_status":"available","_mode":"bus","_direction":103,"_visuallyAccessible":true,"_disabledAccessible":true,"geojson_lng":4.8649136158321395,"geojson_lat":52.2828505880751},"geometry":{"type":"Point","coordinates":[4.8649136158321395,52.2828505880751]}},{"type":"Feature","properties":{"highway":"bus_stop","public_transport":"platform","name":"Hoofdenburg","ref:IFOPT":"NL:Q:58252520","_quaycode":"NL:Q:58252520","_town":"Ouderkerk a/d Amstel","_status":"available","_mode":"bus","_direction":69,"_visuallyAccessible":true,"_disabledAccessible":true,"geojson_lng":4.919241781927815,"geojson_lat":52.296496936761415},"geometry":{"type":"Point","coordinates":[4.919241781927815,52.296496936761415]}},{"type":"Feature","properties":{"highway":"bus_stop","public_transport":"platform","name":"Busstation","ref:IFOPT":"NL:Q:57240023","_quaycode":"NL:Q:57240023","_town":"Amstelveen","_status":"available","_mode":"bus","_direction":20,"_visuallyAccessible":true,"_disabledAccessible":true,"geojson_lng":4.857862643523124,"geojson_lat":52.302718378086276},"geometry":{"type":"Point","coordinates":[4.857862643523124,52.302718378086276]}},{"type":"Feature","properties":{"highway":"bus_stop","public_transport":"platform","name":"Nesserlaan","ref:IFOPT":"NL:Q:58352211","_quaycode":"NL:Q:58352211","_town":"Nes a/d Amstel","_status":"available","_mode":"bus","_direction":27,"_visuallyAccessible":false,"_disabledAccessible":false,"geojson_lng":4.880280440568463,"geojson_lat":52.270523177473095},"geometry":{"type":"Point","coordinates":[4.880280440568463,52.270523177473095]}},{"type":"Feature","properties":{"highway":"bus_stop","public_transport":"platform","name":"Ouderkerk Oost","ref:IFOPT":"NL:Q:58252000","_quaycode":"NL:Q:58252000","_town":"Ouderkerk a/d Amstel","_status":"available","_mode":"bus","_direction":67,"_visuallyAccessible":true,"_disabledAccessible":true,"geojson_lng":4.91141002111502,"geojson_lat":52.299584464948765},"geometry":{"type":"Point","coordinates":[4.91141002111502,52.299584464948765]}},{"type":"Feature","properties":{"highway":"bus_stop","public_transport":"platform","name":"Oranjebaan","ref:IFOPT":"NL:Q:30007198","_quaycode":"NL:Q:30007198","_town":"Amstelveen","_status":"available","_mode":"bus","_direction":354,"_visuallyAccessible":true,"_disabledAccessible":false,"geojson_lng":4.87336783862401,"geojson_lat":52.30328108871885},"geometry":{"type":"Point","coordinates":[4.87336783862401,52.30328108871885]}},{"type":"Feature","properties":{"highway":"bus_stop","public_transport":"platform","name":"Kruiskerk","ref:IFOPT":"NL:Q:57243210","_quaycode":"NL:Q:57243210","_town":"Amstelveen","_status":"available","_mode":"bus","_direction":357,"_visuallyAccessible":true,"_disabledAccessible":true,"geojson_lng":4.856791974367133,"geojson_lat":52.311350902843195},"geometry":{"type":"Point","coordinates":[4.856791974367133,52.311350902843195]}},{"type":"Feature","properties":{"highway":"bus_stop","public_transport":"platform","name":"Burg. Wiegelweg","ref:IFOPT":"NL:Q:58342020","_quaycode":"NL:Q:58342020","_town":"Amstelveen","_status":"available","_mode":"bus","_direction":200,"_visuallyAccessible":true,"_disabledAccessible":true,"geojson_lng":4.837753585114511,"geojson_lat":52.2737395809882},"geometry":{"type":"Point","coordinates":[4.837753585114511,52.2737395809882]}},{"type":"Feature","properties":{"highway":"bus_stop","public_transport":"platform","name":"Graaf Aelbrechtlaan","ref:IFOPT":"NL:Q:57242230","_quaycode":"NL:Q:57242230","_town":"Amstelveen","_status":"available","_mode":"bus","_direction":9,"_visuallyAccessible":true,"_disabledAccessible":true,"geojson_lng":4.863222532113004,"geojson_lat":52.30821584398093},"geometry":{"type":"Point","coordinates":[4.863222532113004,52.30821584398093]}},{"type":"Feature","properties":{"highway":"bus_stop","public_transport":"platform","name":"Molenweg","ref:IFOPT":"NL:Q:57243850","_quaycode":"NL:Q:57243850","_town":"Amstelveen","_status":"available","_mode":"bus","_direction":1,"_visuallyAccessible":true,"_disabledAccessible":true,"geojson_lng":4.846865470998014,"geojson_lat":52.30884330421986},"geometry":{"type":"Point","coordinates":[4.846865470998014,52.30884330421986]}},{"type":"Feature","properties":{"highway":"bus_stop","public_transport":"platform","name":"Oakpark","ref:IFOPT":"NL:Q:57242050","_quaycode":"NL:Q:57242050","_town":"Amstelveen","_status":"available","_mode":"bus","_direction":17,"_visuallyAccessible":true,"_disabledAccessible":true,"geojson_lng":4.845746711684506,"geojson_lat":52.29957170495829},"geometry":{"type":"Point","coordinates":[4.845746711684506,52.29957170495829]}},{"type":"Feature","properties":{"highway":"bus_stop","public_transport":"platform","name":"Ziekenhuis","ref:IFOPT":"NL:Q:57242880","_quaycode":"NL:Q:57242880","_town":"Amstelveen","_status":"available","_mode":"bus","_direction":200,"_visuallyAccessible":true,"_disabledAccessible":false,"geojson_lng":4.871540010554593,"geojson_lat":52.294015645190655},"geometry":{"type":"Point","coordinates":[4.871540010554593,52.294015645190655]}},{"type":"Feature","properties":{"highway":"bus_stop","public_transport":"platform","name":"Seine","ref:IFOPT":"NL:Q:57242570","_quaycode":"NL:Q:57242570","_town":"Amstelveen","_status":"available","_mode":"bus","_direction":20,"_visuallyAccessible":true,"_disabledAccessible":true,"geojson_lng":4.866641771240443,"geojson_lat":52.28419740380156},"geometry":{"type":"Point","coordinates":[4.866641771240443,52.28419740380156]}},{"type":"Feature","properties":{"highway":"bus_stop","public_transport":"platform","name":"Oranjebaan","ref:IFOPT":"NL:Q:57240050","_quaycode":"NL:Q:57240050","_town":"Amstelveen","_status":"available","_mode":"bus","_direction":284,"_visuallyAccessible":false,"_disabledAccessible":true,"geojson_lng":4.870930182191653,"geojson_lat":52.30361201136119},"geometry":{"type":"Point","coordinates":[4.870930182191653,52.30361201136119]}},{"type":"Feature","properties":{"highway":"bus_stop","public_transport":"platform","name":"Poortwachter","ref:IFOPT":"NL:Q:57243170","_quaycode":"NL:Q:57243170","_town":"Amstelveen","_status":"available","_mode":"bus","_direction":96,"_visuallyAccessible":true,"_disabledAccessible":true,"geojson_lng":4.844788636286657,"geojson_lat":52.283173417461434},"geometry":{"type":"Point","coordinates":[4.844788636286657,52.283173417461434]}},{"type":"Feature","properties":{"highway":"bus_stop","public_transport":"platform","name":"Ouderkerk Oost","ref:IFOPT":"NL:Q:58252050","_quaycode":"NL:Q:58252050","_town":"Ouderkerk a/d Amstel","_status":"available","_mode":"bus","_direction":250,"_visuallyAccessible":true,"_disabledAccessible":true,"geojson_lng":4.910677617597234,"geojson_lat":52.2995275892879},"geometry":{"type":"Point","coordinates":[4.910677617597234,52.2995275892879]}},{"type":"Feature","properties":{"highway":"bus_stop","public_transport":"platform","name":"Burg. Wiegelweg","ref:IFOPT":"NL:Q:57243840","_quaycode":"NL:Q:57243840","_town":"Amstelveen","_status":"available","_mode":"bus","_direction":290,"_visuallyAccessible":false,"_disabledAccessible":true,"geojson_lng":4.837041223857781,"geojson_lat":52.27447327702984},"geometry":{"type":"Point","coordinates":[4.837041223857781,52.27447327702984]}},{"type":"Feature","properties":{"highway":"bus_stop","public_transport":"platform","name":"Grote Beer","ref:IFOPT":"NL:Q:57243150","_quaycode":"NL:Q:57243150","_town":"Amstelveen","_status":"available","_mode":"bus","_direction":100,"_visuallyAccessible":true,"_disabledAccessible":true,"geojson_lng":4.851304516633748,"geojson_lat":52.283634549328504},"geometry":{"type":"Point","coordinates":[4.851304516633748,52.283634549328504]}},{"type":"Feature","properties":{"highway":"bus_stop","public_transport":"platform","name":"Bankrashof","ref:IFOPT":"NL:Q:57243030","_quaycode":"NL:Q:57243030","_town":"Amstelveen","_status":"available","_mode":"bus","_direction":293,"_visuallyAccessible":false,"_disabledAccessible":true,"geojson_lng":4.875841811398449,"geojson_lat":52.30233909958364},"geometry":{"type":"Point","coordinates":[4.875841811398449,52.30233909958364]}},{"type":"Feature","properties":{"highway":"bus_stop","public_transport":"platform","name":"Zonnestein","ref:IFOPT":"NL:Q:57242140","_quaycode":"NL:Q:57242140","_town":"Amstelveen","_status":"available","_mode":"bus","_direction":180,"_visuallyAccessible":true,"_disabledAccessible":false,"geojson_lng":4.863203389174521,"geojson_lat":52.311082879830984},"geometry":{"type":"Point","coordinates":[4.863203389174521,52.311082879830984]}},{"type":"Feature","properties":{"highway":"bus_stop","public_transport":"platform","name":"Saskia van Uylenburgweg","ref:IFOPT":"NL:Q:57243080","_quaycode":"NL:Q:57243080","_town":"Amstelveen","_status":"available","_mode":"bus","_direction":81,"_visuallyAccessible":true,"_disabledAccessible":true,"geojson_lng":4.8737296828707,"geojson_lat":52.316377931686525},"geometry":{"type":"Point","coordinates":[4.8737296828707,52.316377931686525]}},{"type":"Feature","properties":{"highway":"bus_stop","public_transport":"platform","name":"Raadhuis","ref:IFOPT":"NL:Q:57242740","_quaycode":"NL:Q:57242740","_town":"Amstelveen","_status":"available","_mode":"bus","_direction":133,"_visuallyAccessible":true,"_disabledAccessible":true,"geojson_lng":4.844836107402259,"geojson_lat":52.302111098442005},"geometry":{"type":"Point","coordinates":[4.844836107402259,52.302111098442005]}},{"type":"Feature","properties":{"highway":"bus_stop","public_transport":"platform","name":"Nesserlaan","ref:IFOPT":"NL:Q:57242280","_quaycode":"NL:Q:57242280","_town":"Amstelveen","_status":"available","_mode":"bus","_direction":197,"_visuallyAccessible":false,"_disabledAccessible":true,"geojson_lng":4.838900988343154,"geojson_lat":52.27693561764191},"geometry":{"type":"Point","coordinates":[4.838900988343154,52.27693561764191]}},{"type":"Feature","properties":{"highway":"bus_stop","public_transport":"platform","name":"Bovenkerkerweg","ref:IFOPT":"NL:Q:57242010","_quaycode":"NL:Q:57242010","_town":"Amstelveen","_status":"available","_mode":"bus","_direction":203,"_visuallyAccessible":false,"_disabledAccessible":true,"geojson_lng":4.842130197034501,"geojson_lat":52.287241695630655},"geometry":{"type":"Point","coordinates":[4.842130197034501,52.287241695630655]}},{"type":"Feature","properties":{"highway":"bus_stop","public_transport":"platform","name":"Onderuit","ref:IFOPT":"NL:Q:30007623","_quaycode":"NL:Q:30007623","_town":"Amstelveen","_status":"available","_mode":"bus","_direction":0,"_visuallyAccessible":false,"_disabledAccessible":false,"geojson_lng":4.872765471694623,"geojson_lat":52.308455465857044},"geometry":{"type":"Point","coordinates":[4.872765471694623,52.308455465857044]}},{"type":"Feature","properties":{"highway":"bus_stop","public_transport":"platform","name":"Busstation","ref:IFOPT":"NL:Q:57240010","_quaycode":"NL:Q:57240010","_town":"Amstelveen","_status":"available","_mode":"bus","_direction":20,"_visuallyAccessible":true,"_disabledAccessible":true,"geojson_lng":4.8582594414950995,"geojson_lat":52.30263926266454},"geometry":{"type":"Point","coordinates":[4.8582594414950995,52.30263926266454]}},{"type":"Feature","properties":{"highway":"bus_stop","public_transport":"platform","name":"Raadhuis/Dorpsstraat","ref:IFOPT":"NL:Q:57242240","_quaycode":"NL:Q:57242240","_town":"Amstelveen","_status":"available","_mode":"bus","_direction":282,"_visuallyAccessible":false,"_disabledAccessible":false,"geojson_lng":4.845537268623323,"geojson_lat":52.30352540615629},"geometry":{"type":"Point","coordinates":[4.845537268623323,52.30352540615629]}},{"type":"Feature","properties":{"highway":"bus_stop","public_transport":"platform","name":"Langerhuize","ref:IFOPT":"NL:Q:57240160","_quaycode":"NL:Q:57240160","_town":"Amstelveen","_status":"available","_mode":"bus","_direction":220,"_visuallyAccessible":true,"_disabledAccessible":true,"geojson_lng":4.877934322097088,"geojson_lat":52.295014043586946},"geometry":{"type":"Point","coordinates":[4.877934322097088,52.295014043586946]}},{"type":"Feature","properties":{"highway":"bus_stop","public_transport":"platform","name":"Hoofdenburg","ref:IFOPT":"NL:Q:58252510","_quaycode":"NL:Q:58252510","_town":"Ouderkerk a/d Amstel","_status":"available","_mode":"bus","_direction":249,"_visuallyAccessible":true,"_disabledAccessible":true,"geojson_lng":4.918860468262862,"geojson_lat":52.296513402983365},"geometry":{"type":"Point","coordinates":[4.918860468262862,52.296513402983365]}},{"type":"Feature","properties":{"highway":"bus_stop","public_transport":"platform","name":"Ouderkerk West","ref:IFOPT":"NL:Q:58252070","_quaycode":"NL:Q:58252070","_town":"Ouderkerk a/d Amstel","_status":"available","_mode":"bus","_direction":254,"_visuallyAccessible":true,"_disabledAccessible":true,"geojson_lng":4.900434299130646,"geojson_lat":52.29914433594713},"geometry":{"type":"Point","coordinates":[4.900434299130646,52.29914433594713]}},{"type":"Feature","properties":{"highway":"bus_stop","public_transport":"platform","name":"Busstation","ref:IFOPT":"NL:Q:57240610","_quaycode":"NL:Q:57240610","_town":"Amstelveen","_status":"available","_mode":"bus","_direction":290,"_visuallyAccessible":false,"_disabledAccessible":true,"geojson_lng":4.858339909057618,"geojson_lat":52.30203743624504},"geometry":{"type":"Point","coordinates":[4.858339909057618,52.30203743624504]}},{"type":"Feature","properties":{"highway":"bus_stop","public_transport":"platform","name":"Logger","ref:IFOPT":"NL:Q:57242520","_quaycode":"NL:Q:57242520","_town":"Amstelveen","_status":"available","_mode":"bus","_direction":246,"_visuallyAccessible":false,"_disabledAccessible":false,"geojson_lng":4.8594561340896085,"geojson_lat":52.283347651547324},"geometry":{"type":"Point","coordinates":[4.8594561340896085,52.283347651547324]}},{"type":"Feature","properties":{"highway":"bus_stop","public_transport":"platform","name":"Kruiskerk","ref:IFOPT":"NL:Q:57243220","_quaycode":"NL:Q:57243220","_town":"Amstelveen","_status":"available","_mode":"bus","_direction":190,"_visuallyAccessible":true,"_disabledAccessible":true,"geojson_lng":4.856501174822737,"geojson_lat":52.31114287818073},"geometry":{"type":"Point","coordinates":[4.856501174822737,52.31114287818073]}},{"type":"Feature","properties":{"highway":"bus_stop","public_transport":"platform","name":"Graaf Aelbrechtlaan","ref:IFOPT":"NL:Q:57242220","_quaycode":"NL:Q:57242220","_town":"Amstelveen","_status":"available","_mode":"bus","_direction":183,"_visuallyAccessible":true,"_disabledAccessible":true,"geojson_lng":4.86308654274442,"geojson_lat":52.30855677944806},"geometry":{"type":"Point","coordinates":[4.86308654274442,52.30855677944806]}},{"type":"Feature","properties":{"highway":"bus_stop","public_transport":"platform","name":"Julianapark","ref:IFOPT":"NL:Q:57242810","_quaycode":"NL:Q:57242810","_town":"Amstelveen","_status":"available","_mode":"bus","_direction":90,"_visuallyAccessible":false,"_disabledAccessible":false,"geojson_lng":4.853546239714116,"geojson_lat":52.31542577069677},"geometry":{"type":"Point","coordinates":[4.853546239714116,52.31542577069677]}},{"type":"Feature","properties":{"highway":"bus_stop","public_transport":"platform","name":"Zagerij","ref:IFOPT":"NL:Q:57243820","_quaycode":"NL:Q:57243820","_town":"Amstelveen","_status":"available","_mode":"bus","_direction":277,"_visuallyAccessible":true,"_disabledAccessible":true,"geojson_lng":4.841793921356277,"geojson_lat":52.28120027860057},"geometry":{"type":"Point","coordinates":[4.841793921356277,52.28120027860057]}},{"type":"Feature","properties":{"highway":"bus_stop","public_transport":"platform","name":"Oranjebaan","ref:IFOPT":"NL:Q:57240060","_quaycode":"NL:Q:57240060","_town":"Amstelveen","_status":"available","_mode":"bus","_direction":106,"_visuallyAccessible":false,"_disabledAccessible":true,"geojson_lng":4.873109661914296,"geojson_lat":52.30278563535607},"geometry":{"type":"Point","coordinates":[4.873109661914296,52.30278563535607]}},{"type":"Feature","properties":{"highway":"bus_stop","public_transport":"platform","name":"Zagerij","ref:IFOPT":"NL:Q:57243770","_quaycode":"NL:Q:57243770","_town":"Amstelveen","_status":"available","_mode":"bus","_direction":96,"_visuallyAccessible":true,"_disabledAccessible":true,"geojson_lng":4.841561340754269,"geojson_lat":52.28104641111235},"geometry":{"type":"Point","coordinates":[4.841561340754269,52.28104641111235]}},{"type":"Feature","properties":{"highway":"bus_stop","public_transport":"platform","name":"Busstation","ref:IFOPT":"NL:Q:57240024","_quaycode":"NL:Q:57240024","_town":"Amstelveen","_status":"available","_mode":"bus","_direction":200,"_visuallyAccessible":true,"_disabledAccessible":false,"geojson_lng":4.85749977099522,"geojson_lat":52.302411166369865},"geometry":{"type":"Point","coordinates":[4.85749977099522,52.302411166369865]}},{"type":"Feature","properties":{"highway":"bus_stop","public_transport":"platform","name":"Uilenstede","ref:IFOPT":"NL:Q:57142250","_quaycode":"NL:Q:57142250","_town":"Amstelveen","_status":"available","_mode":"bus","_direction":348,"_visuallyAccessible":false,"_disabledAccessible":false,"geojson_lng":4.869394472491116,"geojson_lat":52.32216516591897},"geometry":{"type":"Point","coordinates":[4.869394472491116,52.32216516591897]}},{"type":"Feature","properties":{"highway":"bus_stop","public_transport":"platform","name":"Ouderkerk Oost","ref:IFOPT":"NL:Q:58252010","_quaycode":"NL:Q:58252010","_town":"Ouderkerk a/d Amstel","_status":"available","_mode":"bus","_direction":246,"_visuallyAccessible":true,"_disabledAccessible":true,"geojson_lng":4.91099858862897,"geojson_lat":52.299672687337896},"geometry":{"type":"Point","coordinates":[4.91099858862897,52.299672687337896]}},{"type":"Feature","properties":{"highway":"bus_stop","public_transport":"platform","name":"Startbaan","ref:IFOPT":"NL:Q:57243130","_quaycode":"NL:Q:57243130","_town":"Amstelveen","_status":"available","_mode":"bus","_direction":20,"_visuallyAccessible":true,"_disabledAccessible":true,"geojson_lng":4.853915877041628,"geojson_lat":52.28707074128877},"geometry":{"type":"Point","coordinates":[4.853915877041628,52.28707074128877]}},{"type":"Feature","properties":{"highway":"bus_stop","public_transport":"platform","name":"Busstation","ref:IFOPT":"NL:Q:57240600","_quaycode":"NL:Q:57240600","_town":"Amstelveen","_status":"available","_mode":"bus","_direction":110,"_visuallyAccessible":true,"_disabledAccessible":true,"geojson_lng":4.858458474768231,"geojson_lat":52.30193011210895},"geometry":{"type":"Point","coordinates":[4.858458474768231,52.30193011210895]}},{"type":"Feature","properties":{"highway":"bus_stop","public_transport":"platform","name":"Laan Walcheren","ref:IFOPT":"NL:Q:57244640","_quaycode":"NL:Q:57244640","_town":"Amstelveen","_status":"available","_mode":"bus","_direction":228,"_visuallyAccessible":true,"_disabledAccessible":true,"geojson_lng":4.863383503775255,"geojson_lat":52.314463102979275},"geometry":{"type":"Point","coordinates":[4.863383503775255,52.314463102979275]}},{"type":"Feature","properties":{"highway":"bus_stop","public_transport":"platform","name":"De Eindhoeve","ref:IFOPT":"NL:Q:57243730","_quaycode":"NL:Q:57243730","_town":"Amstelveen","_status":"available","_mode":"bus","_direction":67,"_visuallyAccessible":true,"_disabledAccessible":true,"geojson_lng":4.846279947720612,"geojson_lat":52.279845739509035},"geometry":{"type":"Point","coordinates":[4.846279947720612,52.279845739509035]}},{"type":"Feature","properties":{"highway":"bus_stop","public_transport":"platform","name":"Binnenhof","ref:IFOPT":"NL:Q:57243070","_quaycode":"NL:Q:57243070","_town":"Amstelveen","_status":"available","_mode":"bus","_direction":284,"_visuallyAccessible":true,"_disabledAccessible":true,"geojson_lng":4.863140202508872,"geojson_lat":52.30151953295795},"geometry":{"type":"Point","coordinates":[4.863140202508872,52.30151953295795]}},{"type":"Feature","properties":{"highway":"bus_stop","public_transport":"platform","name":"Lindenlaan","ref:IFOPT":"NL:Q:57243420","_quaycode":"NL:Q:57243420","_town":"Amstelveen","_status":"available","_mode":"bus","_direction":255,"_visuallyAccessible":true,"_disabledAccessible":true,"geojson_lng":4.847131639072804,"geojson_lat":52.29659406496781},"geometry":{"type":"Point","coordinates":[4.847131639072804,52.29659406496781]}},{"type":"Feature","properties":{"highway":"bus_stop","public_transport":"platform","name":"Gieterij","ref:IFOPT":"NL:Q:57243720","_quaycode":"NL:Q:57243720","_town":"Amstelveen","_status":"available","_mode":"bus","_direction":272,"_visuallyAccessible":false,"_disabledAccessible":true,"geojson_lng":4.841915212197214,"geojson_lat":52.28804062663794},"geometry":{"type":"Point","coordinates":[4.841915212197214,52.28804062663794]}},{"type":"Feature","properties":{"highway":"bus_stop","public_transport":"platform","name":"Ziekenhuis","ref:IFOPT":"NL:Q:57242870","_quaycode":"NL:Q:57242870","_town":"Amstelveen","_status":"available","_mode":"bus","_direction":35,"_visuallyAccessible":true,"_disabledAccessible":true,"geojson_lng":4.87191913225714,"geojson_lat":52.29418806712042},"geometry":{"type":"Point","coordinates":[4.87191913225714,52.29418806712042]}},{"type":"Feature","properties":{"highway":"bus_stop","public_transport":"platform","name":"Lindenlaan","ref:IFOPT":"NL:Q:57243410","_quaycode":"NL:Q:57243410","_town":"Amstelveen","_status":"available","_mode":"bus","_direction":75,"_visuallyAccessible":true,"_disabledAccessible":true,"geojson_lng":4.84744023203208,"geojson_lat":52.296532558766714},"geometry":{"type":"Point","coordinates":[4.84744023203208,52.296532558766714]}},{"type":"Feature","properties":{"highway":"bus_stop","public_transport":"platform","name":"Poortwachter","ref:IFOPT":"NL:Q:57243160","_quaycode":"NL:Q:57243160","_town":"Amstelveen","_status":"available","_mode":"bus","_direction":276,"_visuallyAccessible":true,"_disabledAccessible":true,"geojson_lng":4.844993355365694,"geojson_lat":52.28321030805116},"geometry":{"type":"Point","coordinates":[4.844993355365694,52.28321030805116]}},{"type":"Feature","properties":{"highway":"bus_stop","public_transport":"platform","name":"Gr.v.Prinstererlaan","ref:IFOPT":"NL:Q:57242090","_quaycode":"NL:Q:57242090","_town":"Amstelveen","_status":"available","_mode":"bus","_direction":215,"_visuallyAccessible":true,"_disabledAccessible":true,"geojson_lng":4.862310464645352,"geojson_lat":52.30598281474556},"geometry":{"type":"Point","coordinates":[4.862310464645352,52.30598281474556]}},{"type":"Feature","properties":{"highway":"bus_stop","public_transport":"platform","name":"Raadhuis/Dorpsstraat","ref:IFOPT":"NL:Q:57242070","_quaycode":"NL:Q:57242070","_town":"Amstelveen","_status":"available","_mode":"bus","_direction":104,"_visuallyAccessible":true,"_disabledAccessible":true,"geojson_lng":4.845965277711458,"geojson_lat":52.30329368121746},"geometry":{"type":"Point","coordinates":[4.845965277711458,52.30329368121746]}},{"type":"Feature","properties":{"highway":"bus_stop","public_transport":"platform","name":"Startbaan","ref:IFOPT":"NL:Q:57243120","_quaycode":"NL:Q:57243120","_town":"Amstelveen","_status":"available","_mode":"bus","_direction":202,"_visuallyAccessible":true,"_disabledAccessible":true,"geojson_lng":4.85330876694952,"geojson_lat":52.286366946556505},"geometry":{"type":"Point","coordinates":[4.85330876694952,52.286366946556505]}},{"type":"Feature","properties":{"highway":"bus_stop","public_transport":"platform","name":"Laan Walcheren","ref:IFOPT":"NL:Q:57244630","_quaycode":"NL:Q:57244630","_town":"Amstelveen","_status":"available","_mode":"bus","_direction":354,"_visuallyAccessible":true,"_disabledAccessible":true,"geojson_lng":4.863479753441972,"geojson_lat":52.31376247831973},"geometry":{"type":"Point","coordinates":[4.863479753441972,52.31376247831973]}},{"type":"Feature","properties":{"highway":"bus_stop","public_transport":"platform","name":"Kalfjeslaan","ref:IFOPT":"NL:Q:57142040","_quaycode":"NL:Q:57142040","_town":"Amsterdam","_status":"available","_mode":"bus","_direction":358,"_visuallyAccessible":true,"_disabledAccessible":true,"geojson_lng":4.857616021877046,"geojson_lat":52.32218493043527},"geometry":{"type":"Point","coordinates":[4.857616021877046,52.32218493043527]}},{"type":"Feature","properties":{"highway":"bus_stop","public_transport":"platform","name":"Ziekenhuis Hoofdingang","ref:IFOPT":"NL:Q:57240270","_quaycode":"NL:Q:57240270","_town":"Amstelveen","_status":"available","_mode":"bus","_direction":286,"_visuallyAccessible":true,"_disabledAccessible":false,"geojson_lng":4.872574478004547,"geojson_lat":52.29329213481574},"geometry":{"type":"Point","coordinates":[4.872574478004547,52.29329213481574]}},{"type":"Feature","properties":{"highway":"bus_stop","public_transport":"platform","name":"Molenweg","ref:IFOPT":"NL:Q:57242300","_quaycode":"NL:Q:57242300","_town":"Amstelveen","_status":"available","_mode":"bus","_direction":183,"_visuallyAccessible":true,"_disabledAccessible":true,"geojson_lng":4.8466703616163125,"geojson_lat":52.30800654254813},"geometry":{"type":"Point","coordinates":[4.8466703616163125,52.30800654254813]}},{"type":"Feature","properties":{"highway":"bus_stop","public_transport":"platform","name":"Maalderij","ref:IFOPT":"NL:Q:57243550","_quaycode":"NL:Q:57243550","_town":"Amstelveen","_status":"available","_mode":"bus","_direction":103,"_visuallyAccessible":false,"_disabledAccessible":true,"geojson_lng":4.84169248351085,"geojson_lat":52.291859451130385},"geometry":{"type":"Point","coordinates":[4.84169248351085,52.291859451130385]}},{"type":"Feature","properties":{"highway":"bus_stop","public_transport":"platform","name":"Busstation","ref:IFOPT":"NL:Q:57240019","_quaycode":"NL:Q:57240019","_town":"Amstelveen","_status":"available","_mode":"bus","_direction":290,"_visuallyAccessible":true,"_disabledAccessible":true,"geojson_lng":4.858382713888973,"geojson_lat":52.30213649405302},"geometry":{"type":"Point","coordinates":[4.858382713888973,52.30213649405302]}},{"type":"Feature","properties":{"highway":"bus_stop","public_transport":"platform","name":"Jan Benninghstraat","ref:IFOPT":"NL:Q:57242460","_quaycode":"NL:Q:57242460","_town":"Amstelveen","_status":"available","_mode":"bus","_direction":264,"_visuallyAccessible":false,"_disabledAccessible":true,"geojson_lng":4.850860199813275,"geojson_lat":52.308322214647404},"geometry":{"type":"Point","coordinates":[4.850860199813275,52.308322214647404]}},{"type":"Feature","properties":{"highway":"bus_stop","public_transport":"platform","name":"Watercirkel","ref:IFOPT":"NL:Q:57242590","_quaycode":"NL:Q:57242590","_town":"Amstelveen","_status":"available","_mode":"bus","_direction":37,"_visuallyAccessible":true,"_disabledAccessible":true,"geojson_lng":4.868528699033896,"geojson_lat":52.2870189018248},"geometry":{"type":"Point","coordinates":[4.868528699033896,52.2870189018248]}},{"type":"Feature","properties":{"highway":"bus_stop","public_transport":"platform","name":"Grote Beer","ref:IFOPT":"NL:Q:57243140","_quaycode":"NL:Q:57243140","_town":"Amstelveen","_status":"available","_mode":"bus","_direction":280,"_visuallyAccessible":true,"_disabledAccessible":true,"geojson_lng":4.851141369733618,"geojson_lat":52.283795591793655},"geometry":{"type":"Point","coordinates":[4.851141369733618,52.283795591793655]}},{"type":"Feature","properties":{"highway":"bus_stop","public_transport":"platform","name":"Raadhuis","ref:IFOPT":"NL:Q:57242750","_quaycode":"NL:Q:57242750","_town":"Amstelveen","_status":"available","_mode":"bus","_direction":313,"_visuallyAccessible":true,"_disabledAccessible":true,"geojson_lng":4.84489277496094,"geojson_lat":52.30227313984405},"geometry":{"type":"Point","coordinates":[4.84489277496094,52.30227313984405]}},{"type":"Feature","properties":{"highway":"bus_stop","public_transport":"platform","name":"Pastoor Brouwerslaan","ref:IFOPT":"NL:Q:57243570","_quaycode":"NL:Q:57243570","_town":"Amstelveen","_status":"available","_mode":"bus","_direction":103,"_visuallyAccessible":false,"_disabledAccessible":true,"geojson_lng":4.836812469868955,"geojson_lat":52.29296032350769},"geometry":{"type":"Point","coordinates":[4.836812469868955,52.29296032350769]}},{"type":"Feature","properties":{"highway":"bus_stop","public_transport":"platform","name":"Praam","ref:IFOPT":"NL:Q:57243680","_quaycode":"NL:Q:57243680","_town":"Amstelveen","_status":"available","_mode":"bus","_direction":283,"_visuallyAccessible":true,"_disabledAccessible":false,"geojson_lng":4.855700551211752,"geojson_lat":52.27999632077511},"geometry":{"type":"Point","coordinates":[4.855700551211752,52.27999632077511]}},{"type":"Feature","properties":{"highway":"bus_stop","public_transport":"platform","name":"Biesbosch","ref:IFOPT":"NL:Q:30007203","_quaycode":"NL:Q:30007203","_town":"Amstelveen","_status":"available","_mode":"bus","_direction":346,"_visuallyAccessible":null,"_disabledAccessible":null,"geojson_lng":4.871763521670354,"geojson_lat":52.313924690646516},"geometry":{"type":"Point","coordinates":[4.871763521670354,52.313924690646516]}},{"type":"Feature","properties":{"highway":"bus_stop","public_transport":"platform","name":"Prins Bernhardlaan","ref:IFOPT":"NL:Q:57242790","_quaycode":"NL:Q:57242790","_town":"Amstelveen","_status":"available","_mode":"bus","_direction":94,"_visuallyAccessible":true,"_disabledAccessible":true,"geojson_lng":4.849498225516414,"geojson_lat":52.31545237897839},"geometry":{"type":"Point","coordinates":[4.849498225516414,52.31545237897839]}},{"type":"Feature","properties":{"highway":"bus_stop","public_transport":"platform","name":"Heemraadschapslaan","ref:IFOPT":"NL:Q:57242490","_quaycode":"NL:Q:57242490","_town":"Amstelveen","_status":"available","_mode":"bus","_direction":3,"_visuallyAccessible":false,"_disabledAccessible":false,"geojson_lng":4.85674007748789,"geojson_lat":52.30709941998069},"geometry":{"type":"Point","coordinates":[4.85674007748789,52.30709941998069]}},{"type":"Feature","properties":{"highway":"bus_stop","public_transport":"platform","name":"Nesserlaan","ref:IFOPT":"NL:Q:58352210","_quaycode":"NL:Q:58352210","_town":"Nes a/d Amstel","_status":"available","_mode":"bus","_direction":207,"_visuallyAccessible":false,"_disabledAccessible":false,"geojson_lng":4.880280440568463,"geojson_lat":52.270523177473095},"geometry":{"type":"Point","coordinates":[4.880280440568463,52.270523177473095]}},{"type":"Feature","properties":{"highway":"bus_stop","public_transport":"platform","name":"Dijkgravenlaan","ref:IFOPT":"NL:Q:57243240","_quaycode":"NL:Q:57243240","_town":"Amstelveen","_status":"available","_mode":"bus","_direction":182,"_visuallyAccessible":false,"_disabledAccessible":false,"geojson_lng":4.8565656508398645,"geojson_lat":52.31311150416348},"geometry":{"type":"Point","coordinates":[4.8565656508398645,52.31311150416348]}},{"type":"Feature","properties":{"highway":"bus_stop","public_transport":"platform","name":"Ouderkerkerlaan","ref:IFOPT":"NL:Q:57243400","_quaycode":"NL:Q:57243400","_town":"Amstelveen","_status":"available","_mode":"bus","_direction":103,"_visuallyAccessible":true,"_disabledAccessible":true,"geojson_lng":4.867963818041836,"geojson_lat":52.29666907200386},"geometry":{"type":"Point","coordinates":[4.867963818041836,52.29666907200386]}},{"type":"Feature","properties":{"highway":"bus_stop","public_transport":"platform","name":"Maalderij","ref:IFOPT":"NL:Q:57243560","_quaycode":"NL:Q:57243560","_town":"Amstelveen","_status":"available","_mode":"bus","_direction":284,"_visuallyAccessible":false,"_disabledAccessible":true,"geojson_lng":4.841662397663412,"geojson_lat":52.29192222751756},"geometry":{"type":"Point","coordinates":[4.841662397663412,52.29192222751756]}},{"type":"Feature","properties":{"highway":"bus_stop","public_transport":"platform","name":"Ouderkerkerlaan","ref:IFOPT":"NL:Q:57243010","_quaycode":"NL:Q:57243010","_town":"Amstelveen","_status":"available","_mode":"bus","_direction":283,"_visuallyAccessible":true,"_disabledAccessible":true,"geojson_lng":4.8678128461903905,"geojson_lat":52.296917049643554},"geometry":{"type":"Point","coordinates":[4.8678128461903905,52.296917049643554]}},{"type":"Feature","properties":{"highway":"bus_stop","public_transport":"platform","name":"Kalfjeslaan","ref:IFOPT":"NL:Q:57242840","_quaycode":"NL:Q:57242840","_town":"Amsterdam","_status":"available","_mode":"bus","_direction":178,"_visuallyAccessible":true,"_disabledAccessible":true,"geojson_lng":4.857408325823127,"geojson_lat":52.32238173258627},"geometry":{"type":"Point","coordinates":[4.857408325823127,52.32238173258627]}},{"type":"Feature","properties":{"highway":"bus_stop","public_transport":"platform","name":"Hueseplein","ref:IFOPT":"NL:Q:57242950","_quaycode":"NL:Q:57242950","_town":"Amstelveen","_status":"available","_mode":"bus","_direction":2,"_visuallyAccessible":true,"_disabledAccessible":false,"geojson_lng":4.855189242851218,"geojson_lat":52.29823941623481},"geometry":{"type":"Point","coordinates":[4.855189242851218,52.29823941623481]}},{"type":"Feature","properties":{"highway":"bus_stop","public_transport":"platform","name":"Busstation","ref:IFOPT":"NL:Q:57240018","_quaycode":"NL:Q:57240018","_town":"Amstelveen","_status":"available","_mode":"bus","_direction":110,"_visuallyAccessible":true,"_disabledAccessible":true,"geojson_lng":4.85875264265077,"geojson_lat":52.30185053617454},"geometry":{"type":"Point","coordinates":[4.85875264265077,52.30185053617454]}},{"type":"Feature","properties":{"highway":"bus_stop","public_transport":"platform","name":"Bankrashof","ref:IFOPT":"NL:Q:57243020","_quaycode":"NL:Q:57243020","_town":"Amstelveen","_status":"available","_mode":"bus","_direction":105,"_visuallyAccessible":true,"_disabledAccessible":false,"geojson_lng":4.8762566439531705,"geojson_lat":52.30196340298682},"geometry":{"type":"Point","coordinates":[4.8762566439531705,52.30196340298682]}},{"type":"Feature","properties":{"highway":"bus_stop","public_transport":"platform","name":"Nesserlaan","ref:IFOPT":"NL:Q:57242040","_quaycode":"NL:Q:57242040","_town":"Amstelveen","_status":"available","_mode":"bus","_direction":19,"_visuallyAccessible":true,"_disabledAccessible":true,"geojson_lng":4.839535939805411,"geojson_lat":52.27772949684177},"geometry":{"type":"Point","coordinates":[4.839535939805411,52.27772949684177]}},{"type":"Feature","properties":{"highway":"bus_stop","public_transport":"platform","name":"Graaf Florislaan","ref:IFOPT":"NL:Q:57242820","_quaycode":"NL:Q:57242820","_town":"Amstelveen","_status":"available","_mode":"bus","_direction":187,"_visuallyAccessible":true,"_disabledAccessible":true,"geojson_lng":4.856837228170435,"geojson_lat":52.31615959797361},"geometry":{"type":"Point","coordinates":[4.856837228170435,52.31615959797361]}},{"type":"Feature","properties":{"highway":"bus_stop","public_transport":"platform","name":"Heemraadschapslaan","ref:IFOPT":"NL:Q:57242480","_quaycode":"NL:Q:57242480","_town":"Amstelveen","_status":"available","_mode":"bus","_direction":172,"_visuallyAccessible":true,"_disabledAccessible":true,"geojson_lng":4.856568787101301,"geojson_lat":52.3054808388192},"geometry":{"type":"Point","coordinates":[4.856568787101301,52.3054808388192]}},{"type":"Feature","properties":{"highway":"bus_stop","public_transport":"platform","name":"Groenhof","ref:IFOPT":"NL:Q:57242610","_quaycode":"NL:Q:57242610","_town":"Amstelveen","_status":"available","_mode":"bus","_direction":49,"_visuallyAccessible":true,"_disabledAccessible":false,"geojson_lng":4.86835141912052,"geojson_lat":52.289651570686786},"geometry":{"type":"Point","coordinates":[4.86835141912052,52.289651570686786]}},{"type":"Feature","properties":{"highway":"bus_stop","public_transport":"platform","name":"In de Wolken","ref:IFOPT":"NL:Q:57242860","_quaycode":"NL:Q:57242860","_town":"Amstelveen","_status":"available","_mode":"bus","_direction":212,"_visuallyAccessible":true,"_disabledAccessible":true,"geojson_lng":4.869575963855898,"geojson_lat":52.291481474656536},"geometry":{"type":"Point","coordinates":[4.869575963855898,52.291481474656536]}},{"type":"Feature","properties":{"highway":"bus_stop","public_transport":"platform","name":"Pastoor Brouwerslaan","ref:IFOPT":"NL:Q:57243580","_quaycode":"NL:Q:57243580","_town":"Amstelveen","_status":"available","_mode":"bus","_direction":283,"_visuallyAccessible":false,"_disabledAccessible":true,"geojson_lng":4.836297236785214,"geojson_lat":52.2931376819689},"geometry":{"type":"Point","coordinates":[4.836297236785214,52.2931376819689]}},{"type":"Feature","properties":{"highway":"bus_stop","public_transport":"platform","name":"Saskia van Uylenburgweg","ref:IFOPT":"NL:Q:57242210","_quaycode":"NL:Q:57242210","_town":"Amstelveen","_status":"available","_mode":"bus","_direction":260,"_visuallyAccessible":true,"_disabledAccessible":true,"geojson_lng":4.874869312285881,"geojson_lat":52.31675137337731},"geometry":{"type":"Point","coordinates":[4.874869312285881,52.31675137337731]}},{"type":"Feature","properties":{"highway":"bus_stop","public_transport":"platform","name":"Sportlaan","ref:IFOPT":"NL:Q:57243280","_quaycode":"NL:Q:57243280","_town":"Amstelveen","_status":"available","_mode":"bus","_direction":182,"_visuallyAccessible":true,"_disabledAccessible":true,"geojson_lng":4.854422494357133,"geojson_lat":52.29127036500345},"geometry":{"type":"Point","coordinates":[4.854422494357133,52.29127036500345]}},{"type":"Feature","properties":{"highway":"bus_stop","public_transport":"platform","name":"Bovenkerkerweg","ref:IFOPT":"NL:Q:57243110","_quaycode":"NL:Q:57243110","_town":"Amstelveen","_status":"available","_mode":"bus","_direction":8,"_visuallyAccessible":true,"_disabledAccessible":true,"geojson_lng":4.842863211700651,"geojson_lat":52.28842248598235},"geometry":{"type":"Point","coordinates":[4.842863211700651,52.28842248598235]}},{"type":"Feature","properties":{"highway":"bus_stop","public_transport":"platform","name":"Groenhof","ref:IFOPT":"NL:Q:57242600","_quaycode":"NL:Q:57242600","_town":"Amstelveen","_status":"available","_mode":"bus","_direction":127,"_visuallyAccessible":true,"_disabledAccessible":true,"geojson_lng":4.8681147479608935,"geojson_lat":52.28858097528556},"geometry":{"type":"Point","coordinates":[4.8681147479608935,52.28858097528556]}},{"type":"Feature","properties":{"highway":"bus_stop","public_transport":"platform","name":"Zagerij","ref:IFOPT":"NL:Q:57242030","_quaycode":"NL:Q:57242030","_town":"Amstelveen","_status":"available","_mode":"bus","_direction":202,"_visuallyAccessible":true,"_disabledAccessible":false,"geojson_lng":4.840245520043779,"geojson_lat":52.28079765772544},"geometry":{"type":"Point","coordinates":[4.840245520043779,52.28079765772544]}},{"type":"Feature","properties":{"highway":"bus_stop","public_transport":"platform","name":"KLM Hoofdkantoor","ref:IFOPT":"NL:Q:57242270","_quaycode":"NL:Q:57242270","_town":"Amstelveen","_status":"available","_mode":"bus","_direction":0,"_visuallyAccessible":true,"_disabledAccessible":true,"geojson_lng":4.846720126229361,"geojson_lat":52.306326041292714},"geometry":{"type":"Point","coordinates":[4.846720126229361,52.306326041292714]}},{"type":"Feature","properties":{"highway":"bus_stop","public_transport":"platform","name":"KLM Hoofdkantoor","ref:IFOPT":"NL:Q:57242250","_quaycode":"NL:Q:57242250","_town":"Amstelveen","_status":"available","_mode":"bus","_direction":182,"_visuallyAccessible":true,"_disabledAccessible":true,"geojson_lng":4.846483788863194,"geojson_lat":52.306468766764695},"geometry":{"type":"Point","coordinates":[4.846483788863194,52.306468766764695]}},{"type":"Feature","properties":{"highway":"bus_stop","public_transport":"platform","name":"Zagerij","ref:IFOPT":"NL:Q:57242020","_quaycode":"NL:Q:57242020","_town":"Amstelveen","_status":"available","_mode":"bus","_direction":18,"_visuallyAccessible":true,"_disabledAccessible":true,"geojson_lng":4.840996785589012,"geojson_lat":52.281672957392836},"geometry":{"type":"Point","coordinates":[4.840996785589012,52.281672957392836]}},{"type":"Feature","properties":{"highway":"bus_stop","public_transport":"platform","name":"Seine","ref:IFOPT":"NL:Q:57242560","_quaycode":"NL:Q:57242560","_town":"Amstelveen","_status":"available","_mode":"bus","_direction":212,"_visuallyAccessible":true,"_disabledAccessible":true,"geojson_lng":4.866378832689677,"geojson_lat":52.28412434282282},"geometry":{"type":"Point","coordinates":[4.866378832689677,52.28412434282282]}},{"type":"Feature","properties":{"highway":"bus_stop","public_transport":"platform","name":"Molenweg","ref:IFOPT":"NL:Q:57242290","_quaycode":"NL:Q:57242290","_town":"Amstelveen","_status":"available","_mode":"bus","_direction":92,"_visuallyAccessible":false,"_disabledAccessible":false,"geojson_lng":4.847399437063475,"geojson_lat":52.308342422641495},"geometry":{"type":"Point","coordinates":[4.847399437063475,52.308342422641495]}},{"type":"Feature","properties":{"highway":"bus_stop","public_transport":"platform","name":"Brug/Amsteldijk","ref:IFOPT":"NL:Q:58252090","_quaycode":"NL:Q:58252090","_town":"Ouderkerk a/d Amstel","_status":"available","_mode":"bus","_direction":254,"_visuallyAccessible":false,"_disabledAccessible":false,"geojson_lng":4.897659888197995,"geojson_lat":52.29814422233197},"geometry":{"type":"Point","coordinates":[4.897659888197995,52.29814422233197]}},{"type":"Feature","properties":{"highway":"bus_stop","public_transport":"platform","name":"De Eindhoeve","ref:IFOPT":"NL:Q:57243760","_quaycode":"NL:Q:57243760","_town":"Amstelveen","_status":"available","_mode":"bus","_direction":252,"_visuallyAccessible":true,"_disabledAccessible":true,"geojson_lng":4.8460448435441785,"geojson_lat":52.27989859101124},"geometry":{"type":"Point","coordinates":[4.8460448435441785,52.27989859101124]}},{"type":"Feature","properties":{"highway":"bus_stop","public_transport":"platform","name":"Sportlaan","ref:IFOPT":"NL:Q:57243290","_quaycode":"NL:Q:57243290","_town":"Amstelveen","_status":"available","_mode":"bus","_direction":358,"_visuallyAccessible":true,"_disabledAccessible":true,"geojson_lng":4.854669506836009,"geojson_lat":52.29145123519723},"geometry":{"type":"Point","coordinates":[4.854669506836009,52.29145123519723]}},{"type":"Feature","properties":{"highway":"bus_stop","public_transport":"platform","name":"Sacharovlaan","ref:IFOPT":"NL:Q:57240080","_quaycode":"NL:Q:57240080","_town":"Amstelveen","_status":"available","_mode":"bus","_direction":217,"_visuallyAccessible":true,"_disabledAccessible":true,"geojson_lng":4.832945341436564,"geojson_lat":52.28334318857772},"geometry":{"type":"Point","coordinates":[4.832945341436564,52.28334318857772]}},{"type":"Feature","properties":{"highway":"bus_stop","public_transport":"platform","name":"Ziekenhuis Hoofdingang","ref:IFOPT":"NL:Q:57240280","_quaycode":"NL:Q:57240280","_town":"Amstelveen","_status":"available","_mode":"bus","_direction":104,"_visuallyAccessible":true,"_disabledAccessible":true,"geojson_lng":4.87338385976385,"geojson_lat":52.29301703067885},"geometry":{"type":"Point","coordinates":[4.87338385976385,52.29301703067885]}},{"type":"Feature","properties":{"highway":"bus_stop","public_transport":"platform","name":"Brug/Amsteldijk","ref:IFOPT":"NL:Q:58252100","_quaycode":"NL:Q:58252100","_town":"Ouderkerk a/d Amstel","_status":"available","_mode":"bus","_direction":56,"_visuallyAccessible":false,"_disabledAccessible":false,"geojson_lng":4.897807864727456,"geojson_lat":52.29801900503336},"geometry":{"type":"Point","coordinates":[4.897807864727456,52.29801900503336]}},{"type":"Feature","properties":{"highway":"bus_stop","public_transport":"platform","name":"Langerhuize","ref:IFOPT":"NL:Q:57240170","_quaycode":"NL:Q:57240170","_town":"Amstelveen","_status":"available","_mode":"bus","_direction":39,"_visuallyAccessible":true,"_disabledAccessible":true,"geojson_lng":4.878695102384533,"geojson_lat":52.29514314734116},"geometry":{"type":"Point","coordinates":[4.878695102384533,52.29514314734116]}},{"type":"Feature","properties":{"highway":"bus_stop","public_transport":"platform","name":"Oranjebaan","ref:IFOPT":"NL:Q:30007197","_quaycode":"NL:Q:30007197","_town":"Amstelveen","_status":"available","_mode":"bus","_direction":16,"_visuallyAccessible":false,"_disabledAccessible":false,"geojson_lng":4.870673075222809,"geojson_lat":52.30302667884435},"geometry":{"type":"Point","coordinates":[4.870673075222809,52.30302667884435]}},{"type":"Feature","properties":{"highway":"bus_stop","public_transport":"platform","name":"Zetterij","ref:IFOPT":"NL:Q:57243740","_quaycode":"NL:Q:57243740","_town":"Amstelveen","_status":"available","_mode":"bus","_direction":279,"_visuallyAccessible":true,"_disabledAccessible":true,"geojson_lng":4.835197034824494,"geojson_lat":52.289663226308214},"geometry":{"type":"Point","coordinates":[4.835197034824494,52.289663226308214]}},{"type":"Feature","properties":{"highway":"bus_stop","public_transport":"platform","name":"Ouderkerk West","ref:IFOPT":"NL:Q:58252080","_quaycode":"NL:Q:58252080","_town":"Ouderkerk a/d Amstel","_status":"available","_mode":"bus","_direction":70,"_visuallyAccessible":true,"_disabledAccessible":false,"geojson_lng":4.901065147744259,"geojson_lat":52.29910199155008},"geometry":{"type":"Point","coordinates":[4.901065147744259,52.29910199155008]}},{"type":"Feature","properties":{"highway":"bus_stop","public_transport":"platform","name":"Watercirkel","ref:IFOPT":"NL:Q:57242580","_quaycode":"NL:Q:57242580","_town":"Amstelveen","_status":"available","_mode":"bus","_direction":216,"_visuallyAccessible":true,"_disabledAccessible":true,"geojson_lng":4.8678321673601035,"geojson_lat":52.286422644621446},"geometry":{"type":"Point","coordinates":[4.8678321673601035,52.286422644621446]}},{"type":"Feature","properties":{"highway":"bus_stop","public_transport":"platform","name":"Graaf Florislaan","ref:IFOPT":"NL:Q:57242830","_quaycode":"NL:Q:57242830","_town":"Amstelveen","_status":"available","_mode":"bus","_direction":11,"_visuallyAccessible":true,"_disabledAccessible":true,"geojson_lng":4.8571433704643505,"geojson_lat":52.31631376326072},"geometry":{"type":"Point","coordinates":[4.8571433704643505,52.31631376326072]}},{"type":"Feature","properties":{"highway":"bus_stop","public_transport":"platform","name":"Stadstuinen","ref:IFOPT":"NL:Q:57243040","_quaycode":"NL:Q:57243040","_town":"Amstelveen","_status":"available","_mode":"bus","_direction":212,"_visuallyAccessible":true,"_disabledAccessible":false,"geojson_lng":4.868164030635985,"geojson_lat":52.3019371527062},"geometry":{"type":"Point","coordinates":[4.868164030635985,52.3019371527062]}},{"type":"Feature","properties":{"highway":"bus_stop","public_transport":"platform","name":"Oude Karselaan","ref:IFOPT":"NL:Q:57242770","_quaycode":"NL:Q:57242770","_town":"Amstelveen","_status":"available","_mode":"bus","_direction":4,"_visuallyAccessible":true,"_disabledAccessible":true,"geojson_lng":4.84696904855445,"geojson_lat":52.31238498933148},"geometry":{"type":"Point","coordinates":[4.84696904855445,52.31238498933148]}},{"type":"Feature","properties":{"highway":"bus_stop","public_transport":"platform","name":"Stadstuinen","ref:IFOPT":"NL:Q:57243050","_quaycode":"NL:Q:57243050","_town":"Amstelveen","_status":"available","_mode":"bus","_direction":33,"_visuallyAccessible":true,"_disabledAccessible":true,"geojson_lng":4.869048043394835,"geojson_lat":52.30282183806492},"geometry":{"type":"Point","coordinates":[4.869048043394835,52.30282183806492]}},{"type":"Feature","properties":{"highway":"bus_stop","public_transport":"platform","name":"Biesbosch","ref:IFOPT":"NL:Q:30007204","_quaycode":"NL:Q:30007204","_town":"Amstelveen","_status":"available","_mode":"bus","_direction":166,"_visuallyAccessible":null,"_disabledAccessible":null,"geojson_lng":4.871445393054865,"geojson_lat":52.31353682748522},"geometry":{"type":"Point","coordinates":[4.871445393054865,52.31353682748522]}},{"type":"Feature","properties":{"highway":"bus_stop","public_transport":"platform","name":"In de Wolken","ref:IFOPT":"NL:Q:57242850","_quaycode":"NL:Q:57242850","_town":"Amstelveen","_status":"available","_mode":"bus","_direction":36,"_visuallyAccessible":true,"_disabledAccessible":false,"geojson_lng":4.870214596687638,"geojson_lat":52.29202354039244},"geometry":{"type":"Point","coordinates":[4.870214596687638,52.29202354039244]}},{"type":"Feature","properties":{"highway":"bus_stop","public_transport":"platform","name":"Handweg","ref:IFOPT":"NL:Q:57243270","_quaycode":"NL:Q:57243270","_town":"Amstelveen","_status":"available","_mode":"bus","_direction":14,"_visuallyAccessible":true,"_disabledAccessible":false,"geojson_lng":4.843802426595105,"geojson_lat":52.291923093232846},"geometry":{"type":"Point","coordinates":[4.843802426595105,52.291923093232846]}},{"type":"Feature","properties":{"highway":"bus_stop","public_transport":"platform","name":"Keizer Karelplein","ref:IFOPT":"NL:Q:57243250","_quaycode":"NL:Q:57243250","_town":"Amstelveen","_status":"available","_mode":"bus","_direction":68,"_visuallyAccessible":true,"_disabledAccessible":true,"geojson_lng":4.853836185884116,"geojson_lat":52.29860182408044},"geometry":{"type":"Point","coordinates":[4.853836185884116,52.29860182408044]}},{"type":"Feature","properties":{"highway":"bus_stop","public_transport":"platform","name":"Hueseplein","ref:IFOPT":"NL:Q:57242960","_quaycode":"NL:Q:57242960","_town":"Amstelveen","_status":"available","_mode":"bus","_direction":189,"_visuallyAccessible":true,"_disabledAccessible":true,"geojson_lng":4.854757436288608,"geojson_lat":52.29757237094119},"geometry":{"type":"Point","coordinates":[4.854757436288608,52.29757237094119]}},{"type":"Feature","properties":{"highway":"bus_stop","public_transport":"platform","name":"Punter","ref:IFOPT":"NL:Q:57242540","_quaycode":"NL:Q:57242540","_town":"Amstelveen","_status":"available","_mode":"bus","_direction":283,"_visuallyAccessible":true,"_disabledAccessible":true,"geojson_lng":4.864897061886699,"geojson_lat":52.28301229685739},"geometry":{"type":"Point","coordinates":[4.864897061886699,52.28301229685739]}},{"type":"Feature","properties":{"highway":"bus_stop","public_transport":"platform","name":"Praam","ref:IFOPT":"NL:Q:57243690","_quaycode":"NL:Q:57243690","_town":"Amstelveen","_status":"available","_mode":"bus","_direction":100,"_visuallyAccessible":false,"_disabledAccessible":true,"geojson_lng":4.8554972347147425,"geojson_lat":52.27984261236388},"geometry":{"type":"Point","coordinates":[4.8554972347147425,52.27984261236388]}},{"type":"Feature","properties":{"highway":"bus_stop","public_transport":"platform","name":"Logger","ref:IFOPT":"NL:Q:57242530","_quaycode":"NL:Q:57242530","_town":"Amstelveen","_status":"available","_mode":"bus","_direction":76,"_visuallyAccessible":false,"_disabledAccessible":false,"geojson_lng":4.860027753844188,"geojson_lat":52.28334121373548},"geometry":{"type":"Point","coordinates":[4.860027753844188,52.28334121373548]}},{"type":"Feature","properties":{"highway":"bus_stop","public_transport":"platform","name":"Onderuit","ref:IFOPT":"NL:Q:30007545","_quaycode":"NL:Q:30007545","_town":"Amstelveen","_status":"available","_mode":"bus","_direction":180,"_visuallyAccessible":false,"_disabledAccessible":false,"geojson_lng":4.87227267462359,"geojson_lat":52.30795899057661},"geometry":{"type":"Point","coordinates":[4.87227267462359,52.30795899057661]}},{"type":"Feature","properties":{"highway":"bus_stop","public_transport":"platform","name":"Binnenhof","ref:IFOPT":"NL:Q:57243060","_quaycode":"NL:Q:57243060","_town":"Amstelveen","_status":"available","_mode":"bus","_direction":104,"_visuallyAccessible":true,"_disabledAccessible":false,"geojson_lng":4.863377731090108,"geojson_lat":52.301268925343635},"geometry":{"type":"Point","coordinates":[4.863377731090108,52.301268925343635]}},{"type":"Feature","properties":{"highway":"bus_stop","public_transport":"platform","name":"Oakpark","ref:IFOPT":"NL:Q:57243540","_quaycode":"NL:Q:57243540","_town":"Amstelveen","_status":"available","_mode":"bus","_direction":188,"_visuallyAccessible":true,"_disabledAccessible":true,"geojson_lng":4.845710823695049,"geojson_lat":52.30011081267194},"geometry":{"type":"Point","coordinates":[4.845710823695049,52.30011081267194]}},{"type":"Feature","properties":{"highway":"bus_stop","public_transport":"platform","name":"Keizer Karelplein","ref:IFOPT":"NL:Q:57243260","_quaycode":"NL:Q:57243260","_town":"Amstelveen","_status":"available","_mode":"bus","_direction":252,"_visuallyAccessible":true,"_disabledAccessible":true,"geojson_lng":4.8537904827444445,"geojson_lat":52.298745423773006},"geometry":{"type":"Point","coordinates":[4.8537904827444445,52.298745423773006]}},{"type":"Feature","properties":{"highway":"bus_stop","public_transport":"platform","name":"Busstation","ref:IFOPT":"NL:Q:57240025","_quaycode":"NL:Q:57240025","_town":"Amstelveen","_status":"available","_mode":"bus","_direction":200,"_visuallyAccessible":true,"_disabledAccessible":true,"geojson_lng":4.8578967809172395,"geojson_lat":52.30231407740636},"geometry":{"type":"Point","coordinates":[4.8578967809172395,52.30231407740636]}},{"type":"Feature","properties":{"highway":"bus_stop","public_transport":"platform","name":"Ouderkerk Oost","ref:IFOPT":"NL:Q:58252060","_quaycode":"NL:Q:58252060","_town":"Ouderkerk a/d Amstel","_status":"available","_mode":"bus","_direction":67,"_visuallyAccessible":true,"_disabledAccessible":true,"geojson_lng":4.911045263157678,"geojson_lat":52.29942121607904},"geometry":{"type":"Point","coordinates":[4.911045263157678,52.29942121607904]}},{"type":"Feature","properties":{"highway":"bus_stop","public_transport":"platform","name":"Uilenstede","ref:IFOPT":"NL:Q:57242200","_quaycode":"NL:Q:57242200","_town":"Amstelveen","_status":"available","_mode":"bus","_direction":177,"_visuallyAccessible":true,"_disabledAccessible":true,"geojson_lng":4.868870550005571,"geojson_lat":52.3218123469269},"geometry":{"type":"Point","coordinates":[4.868870550005571,52.3218123469269]}},{"type":"Feature","properties":{"highway":"bus_stop","public_transport":"platform","name":"Jan Benninghstraat","ref:IFOPT":"NL:Q:57242470","_quaycode":"NL:Q:57242470","_town":"Amstelveen","_status":"available","_mode":"bus","_direction":88,"_visuallyAccessible":true,"_disabledAccessible":true,"geojson_lng":4.850509821676534,"geojson_lat":52.30819479545222},"geometry":{"type":"Point","coordinates":[4.850509821676534,52.30819479545222]}},{"type":"Feature","properties":{"highway":"bus_stop","public_transport":"platform","name":"Burg. Wiegelweg","ref:IFOPT":"NL:Q:57240090","_quaycode":"NL:Q:57240090","_town":"Amstelveen","_status":"available","_mode":"bus","_direction":20,"_visuallyAccessible":false,"_disabledAccessible":true,"geojson_lng":4.838542872345174,"geojson_lat":52.27508244622048},"geometry":{"type":"Point","coordinates":[4.838542872345174,52.27508244622048]}},{"type":"Feature","properties":{"highway":"bus_stop","public_transport":"platform","name":"Sportlaan [tijdelijk]","ref:IFOPT":"NL:Q:57243295","_quaycode":"NL:Q:57243295","_town":"Amstelveen","_status":"available","_mode":"bus","_direction":89,"_visuallyAccessible":false,"_disabledAccessible":false,"geojson_lng":4.8560401994616464,"geojson_lat":52.29071953940907},"geometry":{"type":"Point","coordinates":[4.8560401994616464,52.29071953940907]}},{"type":"Feature","properties":{"highway":"bus_stop","public_transport":"platform","name":"Sportlaan [tijdelijk]","ref:IFOPT":"NL:Q:57243285","_quaycode":"NL:Q:57243285","_town":"Amstelveen","_status":"available","_mode":"bus","_direction":269,"_visuallyAccessible":false,"_disabledAccessible":false,"geojson_lng":4.8560427978516305,"geojson_lat":52.2907818816737},"geometry":{"type":"Point","coordinates":[4.8560427978516305,52.2907818816737]}},{"type":"Feature","properties":{"highway":"bus_stop","public_transport":"platform","name":"Poortwachter","ref:IFOPT":"NL:Q:57242970","_quaycode":"NL:Q:57242970","_town":"Amstelveen","_status":"available","_mode":"bus","_direction":197,"_visuallyAccessible":false,"_disabledAccessible":false,"geojson_lng":4.841216989061974,"geojson_lat":52.28402880405655},"geometry":{"type":"Point","coordinates":[4.841216989061974,52.28402880405655]}},{"type":"Feature","properties":{"highway":"bus_stop","public_transport":"platform","name":"Ouderkerkerlaan","ref:IFOPT":"NL:Q:30007578","_quaycode":"NL:Q:30007578","_town":"Amstelveen","_status":"available","_mode":"bus","_direction":112,"_visuallyAccessible":null,"_disabledAccessible":null,"geojson_lng":4.867402787731897,"geojson_lat":52.296819718208326},"geometry":{"type":"Point","coordinates":[4.867402787731897,52.296819718208326]}},{"type":"Feature","properties":{"highway":"bus_stop","public_transport":"platform","name":"Sportlaan","ref:IFOPT":"NL:Q:30007548","_quaycode":"NL:Q:30007548","_town":"Amstelveen","_status":"available","_mode":"bus","_direction":22,"_visuallyAccessible":null,"_disabledAccessible":null,"geojson_lng":4.863631291966132,"geojson_lat":52.28969367813021},"geometry":{"type":"Point","coordinates":[4.863631291966132,52.28969367813021]}},{"type":"Feature","properties":{"highway":"bus_stop","public_transport":"platform","name":"Poortwachter","ref:IFOPT":"NL:Q:57242980","_quaycode":"NL:Q:57242980","_town":"Amstelveen","_status":"available","_mode":"bus","_direction":16,"_visuallyAccessible":false,"_disabledAccessible":false,"geojson_lng":4.84168570853428,"geojson_lat":52.28404894338395},"geometry":{"type":"Point","coordinates":[4.84168570853428,52.28404894338395]}},{"type":"Feature","properties":{"highway":"bus_stop","public_transport":"platform","name":"Sportlaan","ref:IFOPT":"NL:Q:30007549","_quaycode":"NL:Q:30007549","_town":"Amstelveen","_status":"available","_mode":"bus","_direction":194,"_visuallyAccessible":null,"_disabledAccessible":null,"geojson_lng":4.862740756987355,"geojson_lat":52.28939313184435},"geometry":{"type":"Point","coordinates":[4.862740756987355,52.28939313184435]}},{"type":"Feature","properties":{"highway":"bus_stop","public_transport":"platform","name":"Ouderkerkerlaan","ref:IFOPT":"NL:Q:30007579","_quaycode":"NL:Q:30007579","_town":"Amstelveen","_status":"available","_mode":"bus","_direction":292,"_visuallyAccessible":null,"_disabledAccessible":null,"geojson_lng":4.868341675144902,"geojson_lat":52.296760926237226},"geometry":{"type":"Point","coordinates":[4.868341675144902,52.296760926237226]}},{"type":"Feature","properties":{"highway":"bus_stop","public_transport":"platform","name":"Middenhoven/Brink","ref:IFOPT":"NL:Q:57243710","_quaycode":"NL:Q:57243710","_town":"Amstelveen","_status":"available","_mode":"bus","_direction":100,"_visuallyAccessible":false,"_disabledAccessible":false,"geojson_lng":4.8522089052454325,"geojson_lat":52.28033110022108},"geometry":{"type":"Point","coordinates":[4.8522089052454325,52.28033110022108]}},{"type":"Feature","properties":{"highway":"bus_stop","public_transport":"platform","name":"Middenhoven/Brink","ref:IFOPT":"NL:Q:57243700","_quaycode":"NL:Q:57243700","_town":"Amstelveen","_status":"available","_mode":"bus","_direction":280,"_visuallyAccessible":false,"_disabledAccessible":false,"geojson_lng":4.851238979845122,"geojson_lat":52.28056039255548},"geometry":{"type":"Point","coordinates":[4.851238979845122,52.28056039255548]}},{"type":"Feature","properties":{"highway":"bus_stop","public_transport":"platform","name":"Kronenburg","ref:IFOPT":"NL:Q:30007392","_quaycode":"NL:Q:30007392","_town":"Amstelveen","_status":"available","_mode":"bus","_direction":317,"_visuallyAccessible":true,"_disabledAccessible":true,"geojson_lng":4.870669688460326,"geojson_lat":52.31645597534168},"geometry":{"type":"Point","coordinates":[4.870669688460326,52.31645597534168]}},{"type":"Feature","properties":{"highway":"bus_stop","public_transport":"platform","name":"Sluisplein","ref:IFOPT":"NL:Q:58252240","_quaycode":"NL:Q:58252240","_town":"Ouderkerk a/d Amstel","_status":"available","_mode":"bus","_direction":270,"_visuallyAccessible":null,"_disabledAccessible":null,"geojson_lng":4.914569734835928,"geojson_lat":52.297766811324664},"geometry":{"type":"Point","coordinates":[4.914569734835928,52.297766811324664]}},{"type":"Feature","properties":{"highway":"bus_stop","public_transport":"platform","name":"Sluisplein","ref:IFOPT":"NL:Q:58252230","_quaycode":"NL:Q:58252230","_town":"Ouderkerk a/d Amstel","_status":"available","_mode":"bus","_direction":90,"_visuallyAccessible":false,"_disabledAccessible":false,"geojson_lng":4.914534949937764,"geojson_lat":52.29767823362904},"geometry":{"type":"Point","coordinates":[4.914534949937764,52.29767823362904]}},{"type":"Feature","properties":{"highway":"bus_stop","public_transport":"platform","name":"Kronenburg","ref:IFOPT":"NL:Q:30007393","_quaycode":"NL:Q:30007393","_town":"Amstelveen","_status":"available","_mode":"bus","_direction":162,"_visuallyAccessible":true,"_disabledAccessible":true,"geojson_lng":4.8700357511832415,"geojson_lat":52.3162180352771},"geometry":{"type":"Point","coordinates":[4.8700357511832415,52.3162180352771]}},{"type":"Feature","properties":{"highway":"bus_stop","public_transport":"platform","name":"Zonnestein","ref:IFOPT":"NL:Q:30007447","_quaycode":"NL:Q:30007447","_town":"Amstelveen","_status":"available","_mode":"bus","_direction":171,"_visuallyAccessible":true,"_disabledAccessible":true,"geojson_lng":4.8717998325165155,"geojson_lat":52.312064370867546},"geometry":{"type":"Point","coordinates":[4.8717998325165155,52.312064370867546]}},{"type":"Feature","properties":{"highway":"bus_stop","public_transport":"platform","name":"De Zwarte Kat","ref:IFOPT":"NL:Q:58352231","_quaycode":"NL:Q:58352231","_town":"Nes a/d Amstel","_status":"available","_mode":"bus","_direction":343,"_visuallyAccessible":false,"_disabledAccessible":false,"geojson_lng":4.878927956984563,"geojson_lat":52.27733917879677},"geometry":{"type":"Point","coordinates":[4.878927956984563,52.27733917879677]}},{"type":"Feature","properties":{"highway":"bus_stop","public_transport":"platform","name":"De Zwarte Kat","ref:IFOPT":"NL:Q:58352230","_quaycode":"NL:Q:58352230","_town":"Nes a/d Amstel","_status":"available","_mode":"bus","_direction":152,"_visuallyAccessible":false,"_disabledAccessible":false,"geojson_lng":4.878751102763925,"geojson_lat":52.27742829717616},"geometry":{"type":"Point","coordinates":[4.878751102763925,52.27742829717616]}},{"type":"Feature","properties":{"highway":"bus_stop","public_transport":"platform","name":"Laan Walcheren","ref:IFOPT":"NL:Q:57243620","_quaycode":"NL:Q:57243620","_town":"Amstelveen","_status":"available","_mode":"bus","_direction":100,"_visuallyAccessible":true,"_disabledAccessible":true,"geojson_lng":4.862269205995081,"geojson_lat":52.3131998669384},"geometry":{"type":"Point","coordinates":[4.862269205995081,52.3131998669384]}},{"type":"Feature","properties":{"highway":"bus_stop","public_transport":"platform","name":"Zonnestein","ref:IFOPT":"NL:Q:30007446","_quaycode":"NL:Q:30007446","_town":"Amstelveen","_status":"available","_mode":"bus","_direction":346,"_visuallyAccessible":true,"_disabledAccessible":true,"geojson_lng":4.872776063273076,"geojson_lat":52.31134060620734},"geometry":{"type":"Point","coordinates":[4.872776063273076,52.31134060620734]}}]}