{"type":"FeatureCollection","features":[{"type":"Feature","properties":{"highway":"bus_stop","public_transport":"platform","name":"Van Teylingenweg","ref:IFOPT":"NL:Q:59330210","_quaycode":"NL:Q:59330210","_town":"Kanis","_status":"available","_mode":"bus","_direction":175,"_visuallyAccessible":false,"_disabledAccessible":false,"geojson_lng":4.893829622184177,"geojson_lat":52.12537030146949},"geometry":{"type":"Point","coordinates":[4.893829622184177,52.12537030146949]}},{"type":"Feature","properties":{"highway":"bus_stop","public_transport":"platform","name":"Teckopseweg","ref:IFOPT":"NL:Q:59332490","_quaycode":"NL:Q:59332490","_town":"Teckop","_status":"available","_mode":"bus","_direction":57,"_visuallyAccessible":false,"_disabledAccessible":false,"geojson_lng":4.913305776119558,"geojson_lat":52.129908263956864},"geometry":{"type":"Point","coordinates":[4.913305776119558,52.129908263956864]}},{"type":"Feature","properties":{"highway":"bus_stop","public_transport":"platform","name":"De Winter","ref:IFOPT":"NL:Q:59332471","_quaycode":"NL:Q:59332471","_town":"Teckop","_status":"available","_mode":"bus","_direction":235,"_visuallyAccessible":false,"_disabledAccessible":false,"geojson_lng":4.920607843850145,"geojson_lat":52.13272368421486},"geometry":{"type":"Point","coordinates":[4.920607843850145,52.13272368421486]}},{"type":"Feature","properties":{"highway":"bus_stop","public_transport":"platform","name":"De Winter","ref:IFOPT":"NL:Q:59332470","_quaycode":"NL:Q:59332470","_town":"Teckop","_status":"available","_mode":"bus","_direction":54,"_visuallyAccessible":false,"_disabledAccessible":false,"geojson_lng":4.920696223765459,"geojson_lat":52.13265212904974},"geometry":{"type":"Point","coordinates":[4.920696223765459,52.13265212904974]}},{"type":"Feature","properties":{"highway":"bus_stop","public_transport":"platform","name":"Hoek","ref:IFOPT":"NL:Q:51592110","_quaycode":"NL:Q:51592110","_town":"Zegveld","_status":"available","_mode":"bus","_direction":130,"_visuallyAccessible":false,"_disabledAccessible":false,"geojson_lng":4.837369812508047,"geojson_lat":52.1150358847003},"geometry":{"type":"Point","coordinates":[4.837369812508047,52.1150358847003]}},{"type":"Feature","properties":{"highway":"bus_stop","public_transport":"platform","name":"Branderpad","ref:IFOPT":"NL:Q:59432020","_quaycode":"NL:Q:59432020","_town":"Zegveld","_status":"available","_mode":"bus","_direction":215,"_visuallyAccessible":false,"_disabledAccessible":false,"geojson_lng":4.84151789026501,"geojson_lat":52.11847964330453},"geometry":{"type":"Point","coordinates":[4.84151789026501,52.11847964330453]}},{"type":"Feature","properties":{"highway":"bus_stop","public_transport":"platform","name":"Slikkendam","ref:IFOPT":"NL:Q:59432110","_quaycode":"NL:Q:59432110","_town":"Woerdense Verlaat","_status":"available","_mode":"bus","_direction":342,"_visuallyAccessible":false,"_disabledAccessible":true,"geojson_lng":4.856544908852971,"geojson_lat":52.15636124957816},"geometry":{"type":"Point","coordinates":[4.856544908852971,52.15636124957816]}},{"type":"Feature","properties":{"highway":"bus_stop","public_transport":"platform","name":"Oortjespad","ref:IFOPT":"NL:Q:59332510","_quaycode":"NL:Q:59332510","_town":"Teckop","_status":"available","_mode":"bus","_direction":170,"_visuallyAccessible":false,"_disabledAccessible":false,"geojson_lng":4.9122475107211585,"geojson_lat":52.13054216246402},"geometry":{"type":"Point","coordinates":[4.9122475107211585,52.13054216246402]}},{"type":"Feature","properties":{"highway":"bus_stop","public_transport":"platform","name":"Slikkendam","ref:IFOPT":"NL:Q:59432100","_quaycode":"NL:Q:59432100","_town":"Woerdense Verlaat","_status":"available","_mode":"bus","_direction":146,"_visuallyAccessible":false,"_disabledAccessible":true,"geojson_lng":4.856686034317982,"geojson_lat":52.155552955732134},"geometry":{"type":"Point","coordinates":[4.856686034317982,52.155552955732134]}},{"type":"Feature","properties":{"highway":"bus_stop","public_transport":"platform","name":"Voorhaakdijk","ref:IFOPT":"NL:Q:59432090","_quaycode":"NL:Q:59432090","_town":"Woerdense Verlaat","_status":"available","_mode":"bus","_direction":344,"_visuallyAccessible":false,"_disabledAccessible":false,"geojson_lng":4.859382008385322,"geojson_lat":52.14752968598959},"geometry":{"type":"Point","coordinates":[4.859382008385322,52.14752968598959]}},{"type":"Feature","properties":{"highway":"bus_stop","public_transport":"platform","name":"Branderpad","ref:IFOPT":"NL:Q:59432030","_quaycode":"NL:Q:59432030","_town":"Zegveld","_status":"available","_mode":"bus","_direction":38,"_visuallyAccessible":false,"_disabledAccessible":false,"geojson_lng":4.841649180902811,"geojson_lat":52.11848923892417},"geometry":{"type":"Point","coordinates":[4.841649180902811,52.11848923892417]}},{"type":"Feature","properties":{"highway":"bus_stop","public_transport":"platform","name":"Voorhaakdijk","ref:IFOPT":"NL:Q:59432080","_quaycode":"NL:Q:59432080","_town":"Woerdense Verlaat","_status":"available","_mode":"bus","_direction":164,"_visuallyAccessible":false,"_disabledAccessible":false,"geojson_lng":4.859310766910935,"geojson_lat":52.14737656946284},"geometry":{"type":"Point","coordinates":[4.859310766910935,52.14737656946284]}},{"type":"Feature","properties":{"highway":"bus_stop","public_transport":"platform","name":"Milandweg 67","ref:IFOPT":"NL:Q:59432040","_quaycode":"NL:Q:59432040","_town":"Zegveld","_status":"available","_mode":"bus","_direction":200,"_visuallyAccessible":false,"_disabledAccessible":false,"geojson_lng":4.855909285613566,"geojson_lat":52.12872892526676},"geometry":{"type":"Point","coordinates":[4.855909285613566,52.12872892526676]}},{"type":"Feature","properties":{"highway":"bus_stop","public_transport":"platform","name":"Kameryck","ref:IFOPT":"NL:Q:59330170","_quaycode":"NL:Q:59330170","_town":"Teckop","_status":"available","_mode":"bus","_direction":77,"_visuallyAccessible":false,"_disabledAccessible":false,"geojson_lng":4.906596395035144,"geojson_lat":52.12909915173541},"geometry":{"type":"Point","coordinates":[4.906596395035144,52.12909915173541]}},{"type":"Feature","properties":{"highway":"bus_stop","public_transport":"platform","name":"Kameryck","ref:IFOPT":"NL:Q:59330220","_quaycode":"NL:Q:59330220","_town":"Teckop","_status":"available","_mode":"bus","_direction":250,"_visuallyAccessible":false,"_disabledAccessible":false,"geojson_lng":4.903490006860541,"geojson_lat":52.128699964768046},"geometry":{"type":"Point","coordinates":[4.903490006860541,52.128699964768046]}},{"type":"Feature","properties":{"highway":"bus_stop","public_transport":"platform","name":"Lindenlaan","ref:IFOPT":"NL:Q:59332170","_quaycode":"NL:Q:59332170","_town":"Kamerik","_status":"available","_mode":"bus","_direction":10,"_visuallyAccessible":true,"_disabledAccessible":true,"geojson_lng":4.898206794120311,"geojson_lat":52.11103449477831},"geometry":{"type":"Point","coordinates":[4.898206794120311,52.11103449477831]}},{"type":"Feature","properties":{"highway":"bus_stop","public_transport":"platform","name":"Teckopseweg","ref:IFOPT":"NL:Q:59332491","_quaycode":"NL:Q:59332491","_town":"Teckop","_status":"available","_mode":"bus","_direction":250,"_visuallyAccessible":false,"_disabledAccessible":false,"geojson_lng":4.9129557593851985,"geojson_lat":52.129861916676674},"geometry":{"type":"Point","coordinates":[4.9129557593851985,52.129861916676674]}},{"type":"Feature","properties":{"highway":"bus_stop","public_transport":"platform","name":"Oude Meye","ref:IFOPT":"NL:Q:59432060","_quaycode":"NL:Q:59432060","_town":"Zegveld","_status":"available","_mode":"bus","_direction":167,"_visuallyAccessible":false,"_disabledAccessible":false,"geojson_lng":4.8618005017971795,"geojson_lat":52.136934509690526},"geometry":{"type":"Point","coordinates":[4.8618005017971795,52.136934509690526]}},{"type":"Feature","properties":{"highway":"bus_stop","public_transport":"platform","name":"Oortjespad","ref:IFOPT":"NL:Q:59332500","_quaycode":"NL:Q:59332500","_town":"Teckop","_status":"available","_mode":"bus","_direction":357,"_visuallyAccessible":false,"_disabledAccessible":true,"geojson_lng":4.912453305472948,"geojson_lat":52.13041715756178},"geometry":{"type":"Point","coordinates":[4.912453305472948,52.13041715756178]}},{"type":"Feature","properties":{"highway":"bus_stop","public_transport":"platform","name":"Oude Meye","ref:IFOPT":"NL:Q:59432070","_quaycode":"NL:Q:59432070","_town":"Zegveld","_status":"available","_mode":"bus","_direction":352,"_visuallyAccessible":false,"_disabledAccessible":false,"geojson_lng":4.861888244182745,"geojson_lat":52.136925912346676},"geometry":{"type":"Point","coordinates":[4.861888244182745,52.136925912346676]}},{"type":"Feature","properties":{"highway":"bus_stop","public_transport":"platform","name":"Milandweg 67","ref:IFOPT":"NL:Q:59432050","_quaycode":"NL:Q:59432050","_town":"Zegveld","_status":"available","_mode":"bus","_direction":23,"_visuallyAccessible":false,"_disabledAccessible":false,"geojson_lng":4.856083992384243,"geojson_lat":52.12877465279401},"geometry":{"type":"Point","coordinates":[4.856083992384243,52.12877465279401]}},{"type":"Feature","properties":{"highway":"bus_stop","public_transport":"platform","name":"Van Teylingenweg","ref:IFOPT":"NL:Q:59330200","_quaycode":"NL:Q:59330200","_town":"Kanis","_status":"available","_mode":"bus","_direction":357,"_visuallyAccessible":false,"_disabledAccessible":false,"geojson_lng":4.893973959425172,"geojson_lat":52.12552370315899},"geometry":{"type":"Point","coordinates":[4.893973959425172,52.12552370315899]}},{"type":"Feature","properties":{"highway":"bus_stop","public_transport":"platform","name":"Lindenlaan","ref:IFOPT":"NL:Q:59332160","_quaycode":"NL:Q:59332160","_town":"Kamerik","_status":"available","_mode":"bus","_direction":187,"_visuallyAccessible":true,"_disabledAccessible":true,"geojson_lng":4.897860483097054,"geojson_lat":52.110664544533094},"geometry":{"type":"Point","coordinates":[4.897860483097054,52.110664544533094]}},{"type":"Feature","properties":{"highway":"bus_stop","public_transport":"platform","name":"Hoek","ref:IFOPT":"NL:Q:51592100","_quaycode":"NL:Q:51592100","_town":"Zegveld","_status":"available","_mode":"bus","_direction":294,"_visuallyAccessible":false,"_disabledAccessible":false,"geojson_lng":4.837427876453146,"geojson_lat":52.115063119930646},"geometry":{"type":"Point","coordinates":[4.837427876453146,52.115063119930646]}},{"type":"Feature","properties":{"highway":"bus_stop","public_transport":"platform","name":"Hoofdweg 161","ref:IFOPT":"NL:Q:51592050","_quaycode":"NL:Q:51592050","_town":"Zegveld","_status":"available","_mode":"bus","_direction":313,"_visuallyAccessible":false,"_disabledAccessible":false,"geojson_lng":4.849229157926735,"geojson_lat":52.10618331348882},"geometry":{"type":"Point","coordinates":[4.849229157926735,52.10618331348882]}},{"type":"Feature","properties":{"highway":"bus_stop","public_transport":"platform","name":"Hoofdweg 143","ref:IFOPT":"NL:Q:51592060","_quaycode":"NL:Q:51592060","_town":"Zegveld","_status":"available","_mode":"bus","_direction":128,"_visuallyAccessible":false,"_disabledAccessible":false,"geojson_lng":4.845221989378621,"geojson_lat":52.109220940077655},"geometry":{"type":"Point","coordinates":[4.845221989378621,52.109220940077655]}},{"type":"Feature","properties":{"highway":"bus_stop","public_transport":"platform","name":"N.H. Kerk","ref:IFOPT":"NL:Q:51592080","_quaycode":"NL:Q:51592080","_town":"Zegveld","_status":"available","_mode":"bus","_direction":140,"_visuallyAccessible":false,"_disabledAccessible":false,"geojson_lng":4.841890389560745,"geojson_lat":52.11188405381728},"geometry":{"type":"Point","coordinates":[4.841890389560745,52.11188405381728]}},{"type":"Feature","properties":{"highway":"bus_stop","public_transport":"platform","name":"Hoofdweg 143","ref:IFOPT":"NL:Q:51592070","_quaycode":"NL:Q:51592070","_town":"Zegveld","_status":"available","_mode":"bus","_direction":313,"_visuallyAccessible":false,"_disabledAccessible":false,"geojson_lng":4.8452801595429,"geojson_lat":52.10923918379231},"geometry":{"type":"Point","coordinates":[4.8452801595429,52.10923918379231]}},{"type":"Feature","properties":{"highway":"bus_stop","public_transport":"platform","name":"N.H. Kerk","ref:IFOPT":"NL:Q:51592090","_quaycode":"NL:Q:51592090","_town":"Zegveld","_status":"available","_mode":"bus","_direction":315,"_visuallyAccessible":false,"_disabledAccessible":false,"geojson_lng":4.83901916626209,"geojson_lat":52.114143985988214},"geometry":{"type":"Point","coordinates":[4.83901916626209,52.114143985988214]}},{"type":"Feature","properties":{"highway":"bus_stop","public_transport":"platform","name":"Hoofdweg 161","ref:IFOPT":"NL:Q:51592040","_quaycode":"NL:Q:51592040","_town":"Zegveld","_status":"available","_mode":"bus","_direction":135,"_visuallyAccessible":false,"_disabledAccessible":false,"geojson_lng":4.849054005478265,"geojson_lat":52.106182514162406},"geometry":{"type":"Point","coordinates":[4.849054005478265,52.106182514162406]}},{"type":"Feature","properties":{"highway":"bus_stop","public_transport":"platform","name":"Overzicht","ref:IFOPT":"NL:Q:59330150","_quaycode":"NL:Q:59330150","_town":"Kamerik","_status":"available","_mode":"bus","_direction":358,"_visuallyAccessible":false,"_disabledAccessible":false,"geojson_lng":4.892696660609073,"geojson_lat":52.11426522095124},"geometry":{"type":"Point","coordinates":[4.892696660609073,52.11426522095124]}},{"type":"Feature","properties":{"highway":"bus_stop","public_transport":"platform","name":"Overzicht","ref:IFOPT":"NL:Q:59330160","_quaycode":"NL:Q:59330160","_town":"Kamerik","_status":"available","_mode":"bus","_direction":172,"_visuallyAccessible":false,"_disabledAccessible":false,"geojson_lng":4.892509861080322,"geojson_lat":52.113994793417184},"geometry":{"type":"Point","coordinates":[4.892509861080322,52.113994793417184]}},{"type":"Feature","properties":{"highway":"bus_stop","public_transport":"platform","name":"Centrum","ref:IFOPT":"NL:Q:59330250","_quaycode":"NL:Q:59330250","_town":"Kamerik","_status":"available","_mode":"bus","_direction":175,"_visuallyAccessible":false,"_disabledAccessible":false,"geojson_lng":4.892522168656697,"geojson_lat":52.11388535951045},"geometry":{"type":"Point","coordinates":[4.892522168656697,52.11388535951045]}},{"type":"Feature","properties":{"highway":"bus_stop","public_transport":"platform","name":"Centrum","ref:IFOPT":"NL:Q:59330260","_quaycode":"NL:Q:59330260","_town":"Kamerik","_status":"available","_mode":"bus","_direction":0,"_visuallyAccessible":false,"_disabledAccessible":false,"geojson_lng":4.892676995460827,"geojson_lat":52.11413991916658},"geometry":{"type":"Point","coordinates":[4.892676995460827,52.11413991916658]}}]}