{"type":"FeatureCollection","features":[{"type":"Feature","properties":{"highway":"bus_stop","public_transport":"platform","name":"Hoge Schuur","ref:IFOPT":"NL:Q:51740200","_quaycode":"NL:Q:51740200","_town":"Langerak","_status":"available","_mode":"bus","_direction":35,"_visuallyAccessible":false,"_disabledAccessible":false,"geojson_lng":4.922752115643629,"geojson_lat":51.94343297992952},"geometry":{"type":"Point","coordinates":[4.922752115643629,51.94343297992952]}},{"type":"Feature","properties":{"highway":"bus_stop","public_transport":"platform","name":"De Kwakel","ref:IFOPT":"NL:Q:51520120","_quaycode":"NL:Q:51520120","_town":"Polsbroek","_status":"available","_mode":"bus","_direction":62,"_visuallyAccessible":false,"_disabledAccessible":false,"geojson_lng":4.881803545680826,"geojson_lat":51.98785350991759},"geometry":{"type":"Point","coordinates":[4.881803545680826,51.98785350991759]}},{"type":"Feature","properties":{"highway":"bus_stop","public_transport":"platform","name":"Dorp","ref:IFOPT":"NL:Q:51620080","_quaycode":"NL:Q:51620080","_town":"Polsbroek","_status":"available","_mode":"bus","_direction":70,"_visuallyAccessible":false,"_disabledAccessible":false,"geojson_lng":4.848968365616871,"geojson_lat":51.97623879162877},"geometry":{"type":"Point","coordinates":[4.848968365616871,51.97623879162877]}},{"type":"Feature","properties":{"highway":"bus_stop","public_transport":"platform","name":"Rabobank","ref:IFOPT":"NL:Q:51620060","_quaycode":"NL:Q:51620060","_town":"Polsbroek","_status":"available","_mode":"bus","_direction":45,"_visuallyAccessible":false,"_disabledAccessible":false,"geojson_lng":4.853128817920098,"geojson_lat":51.9776419551246},"geometry":{"type":"Point","coordinates":[4.853128817920098,51.9776419551246]}},{"type":"Feature","properties":{"highway":"bus_stop","public_transport":"platform","name":"Provincialeweg","ref:IFOPT":"NL:Q:51631010","_quaycode":"NL:Q:51631010","_town":"Cabauw","_status":"available","_mode":"bus","_direction":260,"_visuallyAccessible":false,"_disabledAccessible":true,"geojson_lng":4.900857146680978,"geojson_lat":51.957256641064944},"geometry":{"type":"Point","coordinates":[4.900857146680978,51.957256641064944]}},{"type":"Feature","properties":{"highway":"bus_stop","public_transport":"platform","name":"Cafe van Vliet","ref:IFOPT":"NL:Q:51520050","_quaycode":"NL:Q:51520050","_town":"Polsbroekerdam","_status":"available","_mode":"bus","_direction":249,"_visuallyAccessible":false,"_disabledAccessible":false,"geojson_lng":4.902600505078856,"geojson_lat":51.99522150527507},"geometry":{"type":"Point","coordinates":[4.902600505078856,51.99522150527507]}},{"type":"Feature","properties":{"highway":"bus_stop","public_transport":"platform","name":"Cafe van Vliet","ref:IFOPT":"NL:Q:51520040","_quaycode":"NL:Q:51520040","_town":"Polsbroekerdam","_status":"available","_mode":"bus","_direction":69,"_visuallyAccessible":false,"_disabledAccessible":false,"geojson_lng":4.902876756870791,"geojson_lat":51.9952585955108},"geometry":{"type":"Point","coordinates":[4.902876756870791,51.9952585955108]}},{"type":"Feature","properties":{"highway":"bus_stop","public_transport":"platform","name":"Dorp","ref:IFOPT":"NL:Q:51620090","_quaycode":"NL:Q:51620090","_town":"Polsbroek","_status":"available","_mode":"bus","_direction":240,"_visuallyAccessible":false,"_disabledAccessible":false,"geojson_lng":4.8486046299977845,"geojson_lat":51.976228138844355},"geometry":{"type":"Point","coordinates":[4.8486046299977845,51.976228138844355]}},{"type":"Feature","properties":{"highway":"bus_stop","public_transport":"platform","name":"Provincialeweg","ref:IFOPT":"NL:Q:51631020","_quaycode":"NL:Q:51631020","_town":"Cabauw","_status":"available","_mode":"bus","_direction":80,"_visuallyAccessible":true,"_disabledAccessible":false,"geojson_lng":4.903024073212144,"geojson_lat":51.95732849859872},"geometry":{"type":"Point","coordinates":[4.903024073212144,51.95732849859872]}},{"type":"Feature","properties":{"highway":"bus_stop","public_transport":"platform","name":"Schoonhoven West","ref:IFOPT":"NL:Q:53630520","_quaycode":"NL:Q:53630520","_town":"Schoonhoven","_status":"available","_mode":"bus","_direction":224,"_visuallyAccessible":false,"_disabledAccessible":true,"geojson_lng":4.8449169756997845,"geojson_lat":51.94776300403943},"geometry":{"type":"Point","coordinates":[4.8449169756997845,51.94776300403943]}},{"type":"Feature","properties":{"highway":"bus_stop","public_transport":"platform","name":"Hemstoep","ref:IFOPT":"NL:Q:53630040","_quaycode":"NL:Q:53630040","_town":"Schoonhoven","_status":"available","_mode":"bus","_direction":257,"_visuallyAccessible":false,"_disabledAccessible":false,"geojson_lng":4.8328765493430375,"geojson_lat":51.94397668441355},"geometry":{"type":"Point","coordinates":[4.8328765493430375,51.94397668441355]}},{"type":"Feature","properties":{"highway":"bus_stop","public_transport":"platform","name":"St. Helena","ref:IFOPT":"NL:Q:53632130","_quaycode":"NL:Q:53632130","_town":"Schoonhoven","_status":"available","_mode":"bus","_direction":246,"_visuallyAccessible":false,"_disabledAccessible":false,"geojson_lng":4.858485633359852,"geojson_lat":51.95041343791418},"geometry":{"type":"Point","coordinates":[4.858485633359852,51.95041343791418]}},{"type":"Feature","properties":{"highway":"bus_stop","public_transport":"platform","name":"Schoonhoven Noord","ref:IFOPT":"NL:Q:53630530","_quaycode":"NL:Q:53630530","_town":"Schoonhoven","_status":"available","_mode":"bus","_direction":71,"_visuallyAccessible":false,"_disabledAccessible":true,"geojson_lng":4.848985890872917,"geojson_lat":51.95050517572532},"geometry":{"type":"Point","coordinates":[4.848985890872917,51.95050517572532]}},{"type":"Feature","properties":{"highway":"bus_stop","public_transport":"platform","name":"Schoonhoven Noord","ref:IFOPT":"NL:Q:53630540","_quaycode":"NL:Q:53630540","_town":"Schoonhoven","_status":"available","_mode":"bus","_direction":262,"_visuallyAccessible":false,"_disabledAccessible":true,"geojson_lng":4.850405323789604,"geojson_lat":51.95101501202317},"geometry":{"type":"Point","coordinates":[4.850405323789604,51.95101501202317]}},{"type":"Feature","properties":{"highway":"bus_stop","public_transport":"platform","name":"Albert Plesmanstraat","ref:IFOPT":"NL:Q:53630080","_quaycode":"NL:Q:53630080","_town":"Schoonhoven","_status":"available","_mode":"bus","_direction":266,"_visuallyAccessible":false,"_disabledAccessible":false,"geojson_lng":4.8438220329332,"geojson_lat":51.95170385259039},"geometry":{"type":"Point","coordinates":[4.8438220329332,51.95170385259039]}},{"type":"Feature","properties":{"highway":"bus_stop","public_transport":"platform","name":"Schoonhoven West","ref:IFOPT":"NL:Q:53630510","_quaycode":"NL:Q:53630510","_town":"Schoonhoven","_status":"available","_mode":"bus","_direction":49,"_visuallyAccessible":false,"_disabledAccessible":true,"geojson_lng":4.845222627166904,"geojson_lat":51.947746436188844},"geometry":{"type":"Point","coordinates":[4.845222627166904,51.947746436188844]}},{"type":"Feature","properties":{"highway":"bus_stop","public_transport":"platform","name":"St. Helena","ref:IFOPT":"NL:Q:53632120","_quaycode":"NL:Q:53632120","_town":"Schoonhoven","_status":"available","_mode":"bus","_direction":66,"_visuallyAccessible":false,"_disabledAccessible":false,"geojson_lng":4.858616330258494,"geojson_lat":51.95043200211812},"geometry":{"type":"Point","coordinates":[4.858616330258494,51.95043200211812]}},{"type":"Feature","properties":{"highway":"bus_stop","public_transport":"platform","name":"Albert Plesmanstraat","ref:IFOPT":"NL:Q:53630050","_quaycode":"NL:Q:53630050","_town":"Schoonhoven","_status":"available","_mode":"bus","_direction":86,"_visuallyAccessible":false,"_disabledAccessible":false,"geojson_lng":4.845988379223302,"geojson_lat":51.95179473643604},"geometry":{"type":"Point","coordinates":[4.845988379223302,51.95179473643604]}},{"type":"Feature","properties":{"highway":"bus_stop","public_transport":"platform","name":"RK Kerk","ref:IFOPT":"NL:Q:51630100","_quaycode":"NL:Q:51630100","_town":"Cabauw","_status":"available","_mode":"bus","_direction":40,"_visuallyAccessible":false,"_disabledAccessible":false,"geojson_lng":4.899031965422168,"geojson_lat":51.96589586322028},"geometry":{"type":"Point","coordinates":[4.899031965422168,51.96589586322028]}},{"type":"Feature","properties":{"highway":"bus_stop","public_transport":"platform","name":"M. Overbeek","ref:IFOPT":"NL:Q:51630140","_quaycode":"NL:Q:51630140","_town":"Cabauw/Zevender","_status":"available","_mode":"bus","_direction":64,"_visuallyAccessible":false,"_disabledAccessible":false,"geojson_lng":4.8890765784498535,"geojson_lat":51.96349019883646},"geometry":{"type":"Point","coordinates":[4.8890765784498535,51.96349019883646]}},{"type":"Feature","properties":{"highway":"bus_stop","public_transport":"platform","name":"Van der Vlist","ref:IFOPT":"NL:Q:51520070","_quaycode":"NL:Q:51520070","_town":"Polsbroek","_status":"available","_mode":"bus","_direction":240,"_visuallyAccessible":false,"_disabledAccessible":false,"geojson_lng":4.895885222151706,"geojson_lat":51.99282075438413},"geometry":{"type":"Point","coordinates":[4.895885222151706,51.99282075438413]}},{"type":"Feature","properties":{"highway":"bus_stop","public_transport":"platform","name":"Krek Wak Wou","ref:IFOPT":"NL:Q:53632040","_quaycode":"NL:Q:53632040","_town":"Cabauw/Zevender","_status":"available","_mode":"bus","_direction":26,"_visuallyAccessible":false,"_disabledAccessible":false,"geojson_lng":4.879073933153571,"geojson_lat":51.96021161344977},"geometry":{"type":"Point","coordinates":[4.879073933153571,51.96021161344977]}},{"type":"Feature","properties":{"highway":"bus_stop","public_transport":"platform","name":"Spek","ref:IFOPT":"NL:Q:51620030","_quaycode":"NL:Q:51620030","_town":"Polsbroek","_status":"available","_mode":"bus","_direction":238,"_visuallyAccessible":false,"_disabledAccessible":false,"geojson_lng":4.861186826234966,"geojson_lat":51.98059047585478},"geometry":{"type":"Point","coordinates":[4.861186826234966,51.98059047585478]}},{"type":"Feature","properties":{"highway":"bus_stop","public_transport":"platform","name":"Snoekenbrug","ref:IFOPT":"NL:Q:51520140","_quaycode":"NL:Q:51520140","_town":"Polsbroek","_status":"available","_mode":"bus","_direction":70,"_visuallyAccessible":false,"_disabledAccessible":false,"geojson_lng":4.876222021197887,"geojson_lat":51.985798047451496},"geometry":{"type":"Point","coordinates":[4.876222021197887,51.985798047451496]}},{"type":"Feature","properties":{"highway":"bus_stop","public_transport":"platform","name":"Kleuterschool","ref:IFOPT":"NL:Q:51520090","_quaycode":"NL:Q:51520090","_town":"Polsbroek","_status":"available","_mode":"bus","_direction":248,"_visuallyAccessible":false,"_disabledAccessible":false,"geojson_lng":4.891447192648971,"geojson_lat":51.991256156010195},"geometry":{"type":"Point","coordinates":[4.891447192648971,51.991256156010195]}},{"type":"Feature","properties":{"highway":"bus_stop","public_transport":"platform","name":"De Porrel","ref:IFOPT":"NL:Q:51620040","_quaycode":"NL:Q:51620040","_town":"Polsbroek","_status":"available","_mode":"bus","_direction":50,"_visuallyAccessible":false,"_disabledAccessible":false,"geojson_lng":4.85749159855111,"geojson_lat":51.97918969483989},"geometry":{"type":"Point","coordinates":[4.85749159855111,51.97918969483989]}},{"type":"Feature","properties":{"highway":"bus_stop","public_transport":"platform","name":"Van Schaik-Sluis","ref:IFOPT":"NL:Q:51620010","_quaycode":"NL:Q:51620010","_town":"Polsbroek","_status":"available","_mode":"bus","_direction":230,"_visuallyAccessible":false,"_disabledAccessible":false,"geojson_lng":4.87018955910145,"geojson_lat":51.98375831436367},"geometry":{"type":"Point","coordinates":[4.87018955910145,51.98375831436367]}},{"type":"Feature","properties":{"highway":"bus_stop","public_transport":"platform","name":"Van Schaik-Sluis","ref:IFOPT":"NL:Q:51520160","_quaycode":"NL:Q:51520160","_town":"Polsbroek","_status":"available","_mode":"bus","_direction":60,"_visuallyAccessible":false,"_disabledAccessible":false,"geojson_lng":4.870379204112864,"geojson_lat":51.983723194096214},"geometry":{"type":"Point","coordinates":[4.870379204112864,51.983723194096214]}},{"type":"Feature","properties":{"highway":"bus_stop","public_transport":"platform","name":"Kleuterschool","ref:IFOPT":"NL:Q:51520080","_quaycode":"NL:Q:51520080","_town":"Polsbroek","_status":"available","_mode":"bus","_direction":58,"_visuallyAccessible":false,"_disabledAccessible":false,"geojson_lng":4.891506917266176,"geojson_lat":51.99112158298461},"geometry":{"type":"Point","coordinates":[4.891506917266176,51.99112158298461]}},{"type":"Feature","properties":{"highway":"bus_stop","public_transport":"platform","name":"Van Rossum","ref:IFOPT":"NL:Q:51520020","_quaycode":"NL:Q:51520020","_town":"Benschop","_status":"available","_mode":"bus","_direction":62,"_visuallyAccessible":false,"_disabledAccessible":false,"geojson_lng":4.912481152694219,"geojson_lat":51.998542495481054},"geometry":{"type":"Point","coordinates":[4.912481152694219,51.998542495481054]}},{"type":"Feature","properties":{"highway":"bus_stop","public_transport":"platform","name":"Roodhorst","ref:IFOPT":"NL:Q:51630020","_quaycode":"NL:Q:51630020","_town":"Lopik","_status":"available","_mode":"bus","_direction":80,"_visuallyAccessible":false,"_disabledAccessible":false,"geojson_lng":4.9147601217358226,"geojson_lat":51.972961976054684},"geometry":{"type":"Point","coordinates":[4.9147601217358226,51.972961976054684]}},{"type":"Feature","properties":{"highway":"bus_stop","public_transport":"platform","name":"Spek","ref:IFOPT":"NL:Q:51620020","_quaycode":"NL:Q:51620020","_town":"Polsbroek","_status":"available","_mode":"bus","_direction":52,"_visuallyAccessible":false,"_disabledAccessible":false,"geojson_lng":4.861216990199902,"geojson_lat":51.980500727311636},"geometry":{"type":"Point","coordinates":[4.861216990199902,51.980500727311636]}},{"type":"Feature","properties":{"highway":"bus_stop","public_transport":"platform","name":"Roodhorst","ref:IFOPT":"NL:Q:51630030","_quaycode":"NL:Q:51630030","_town":"Lopik","_status":"available","_mode":"bus","_direction":245,"_visuallyAccessible":false,"_disabledAccessible":false,"geojson_lng":4.914701532053247,"geojson_lat":51.97299769405145},"geometry":{"type":"Point","coordinates":[4.914701532053247,51.97299769405145]}},{"type":"Feature","properties":{"highway":"bus_stop","public_transport":"platform","name":"RK Kerk","ref:IFOPT":"NL:Q:51630110","_quaycode":"NL:Q:51630110","_town":"Cabauw","_status":"available","_mode":"bus","_direction":228,"_visuallyAccessible":false,"_disabledAccessible":false,"geojson_lng":4.89907405310929,"geojson_lat":51.96603985119365},"geometry":{"type":"Point","coordinates":[4.89907405310929,51.96603985119365]}},{"type":"Feature","properties":{"highway":"bus_stop","public_transport":"platform","name":"De Kwakel","ref:IFOPT":"NL:Q:51520130","_quaycode":"NL:Q:51520130","_town":"Polsbroek","_status":"available","_mode":"bus","_direction":242,"_visuallyAccessible":false,"_disabledAccessible":false,"geojson_lng":4.8818904861463555,"geojson_lat":51.98788983651052},"geometry":{"type":"Point","coordinates":[4.8818904861463555,51.98788983651052]}},{"type":"Feature","properties":{"highway":"bus_stop","public_transport":"platform","name":"Van Baren","ref:IFOPT":"NL:Q:51630090","_quaycode":"NL:Q:51630090","_town":"Cabauw","_status":"available","_mode":"bus","_direction":258,"_visuallyAccessible":false,"_disabledAccessible":false,"geojson_lng":4.902273990986804,"geojson_lat":51.96750919402986},"geometry":{"type":"Point","coordinates":[4.902273990986804,51.96750919402986]}},{"type":"Feature","properties":{"highway":"bus_stop","public_transport":"platform","name":"R. Overbeek","ref:IFOPT":"NL:Q:53632070","_quaycode":"NL:Q:53632070","_town":"Cabauw/Zevender","_status":"available","_mode":"bus","_direction":230,"_visuallyAccessible":false,"_disabledAccessible":false,"geojson_lng":4.877166537930102,"geojson_lat":51.95777650293464},"geometry":{"type":"Point","coordinates":[4.877166537930102,51.95777650293464]}},{"type":"Feature","properties":{"highway":"bus_stop","public_transport":"platform","name":"Krek Wak Wou","ref:IFOPT":"NL:Q:53632050","_quaycode":"NL:Q:53632050","_town":"Cabauw/Zevender","_status":"available","_mode":"bus","_direction":230,"_visuallyAccessible":false,"_disabledAccessible":false,"geojson_lng":4.878941774762113,"geojson_lat":51.96031890274851},"geometry":{"type":"Point","coordinates":[4.878941774762113,51.96031890274851]}},{"type":"Feature","properties":{"highway":"bus_stop","public_transport":"platform","name":"Kuyl","ref:IFOPT":"NL:Q:53632080","_quaycode":"NL:Q:53632080","_town":"Cabauw/Zevender","_status":"available","_mode":"bus","_direction":30,"_visuallyAccessible":false,"_disabledAccessible":false,"geojson_lng":4.871705442299383,"geojson_lat":51.955712339179904},"geometry":{"type":"Point","coordinates":[4.871705442299383,51.955712339179904]}},{"type":"Feature","properties":{"highway":"bus_stop","public_transport":"platform","name":"Slootjes","ref:IFOPT":"NL:Q:51630070","_quaycode":"NL:Q:51630070","_town":"Lopik","_status":"available","_mode":"bus","_direction":220,"_visuallyAccessible":false,"_disabledAccessible":false,"geojson_lng":4.908051383887561,"geojson_lat":51.96883617242138},"geometry":{"type":"Point","coordinates":[4.908051383887561,51.96883617242138]}},{"type":"Feature","properties":{"highway":"bus_stop","public_transport":"platform","name":"Van Rossum","ref:IFOPT":"NL:Q:51630130","_quaycode":"NL:Q:51630130","_town":"Cabauw/Zevender","_status":"available","_mode":"bus","_direction":240,"_visuallyAccessible":false,"_disabledAccessible":false,"geojson_lng":4.8914727108985945,"geojson_lat":51.96391378393239},"geometry":{"type":"Point","coordinates":[4.8914727108985945,51.96391378393239]}},{"type":"Feature","properties":{"highway":"bus_stop","public_transport":"platform","name":"Van Rossum","ref:IFOPT":"NL:Q:51630120","_quaycode":"NL:Q:51630120","_town":"Cabauw/Zevender","_status":"available","_mode":"bus","_direction":65,"_visuallyAccessible":false,"_disabledAccessible":false,"geojson_lng":4.8916904622018595,"geojson_lat":51.963959643004195},"geometry":{"type":"Point","coordinates":[4.8916904622018595,51.963959643004195]}},{"type":"Feature","properties":{"highway":"bus_stop","public_transport":"platform","name":"Van Rossum","ref:IFOPT":"NL:Q:51520030","_quaycode":"NL:Q:51520030","_town":"Benschop","_status":"available","_mode":"bus","_direction":240,"_visuallyAccessible":false,"_disabledAccessible":false,"geojson_lng":4.912277011816038,"geojson_lat":51.99856863685302},"geometry":{"type":"Point","coordinates":[4.912277011816038,51.99856863685302]}},{"type":"Feature","properties":{"highway":"bus_stop","public_transport":"platform","name":"Van Baren","ref:IFOPT":"NL:Q:51630080","_quaycode":"NL:Q:51630080","_town":"Cabauw","_status":"available","_mode":"bus","_direction":70,"_visuallyAccessible":false,"_disabledAccessible":false,"geojson_lng":4.902216660942528,"geojson_lat":51.967428062744276},"geometry":{"type":"Point","coordinates":[4.902216660942528,51.967428062744276]}},{"type":"Feature","properties":{"highway":"bus_stop","public_transport":"platform","name":"De Porrel","ref:IFOPT":"NL:Q:51620050","_quaycode":"NL:Q:51620050","_town":"Polsbroek","_status":"available","_mode":"bus","_direction":245,"_visuallyAccessible":false,"_disabledAccessible":false,"geojson_lng":4.8572870895465705,"geojson_lat":51.97925169241303},"geometry":{"type":"Point","coordinates":[4.8572870895465705,51.97925169241303]}},{"type":"Feature","properties":{"highway":"bus_stop","public_transport":"platform","name":"Rabobank","ref:IFOPT":"NL:Q:51620070","_quaycode":"NL:Q:51620070","_town":"Polsbroek","_status":"available","_mode":"bus","_direction":240,"_visuallyAccessible":false,"_disabledAccessible":false,"geojson_lng":4.852330158052985,"geojson_lat":51.977485525452444},"geometry":{"type":"Point","coordinates":[4.852330158052985,51.977485525452444]}},{"type":"Feature","properties":{"highway":"bus_stop","public_transport":"platform","name":"v.d. Ende","ref:IFOPT":"NL:Q:53632030","_quaycode":"NL:Q:53632030","_town":"Cabauw/Zevender","_status":"available","_mode":"bus","_direction":249,"_visuallyAccessible":false,"_disabledAccessible":false,"geojson_lng":4.883284576881311,"geojson_lat":51.962279069627094},"geometry":{"type":"Point","coordinates":[4.883284576881311,51.962279069627094]}},{"type":"Feature","properties":{"highway":"bus_stop","public_transport":"platform","name":"Van der Mel","ref:IFOPT":"NL:Q:51520100","_quaycode":"NL:Q:51520100","_town":"Polsbroek","_status":"available","_mode":"bus","_direction":67,"_visuallyAccessible":false,"_disabledAccessible":false,"geojson_lng":4.889403893083629,"geojson_lat":51.99039364215127},"geometry":{"type":"Point","coordinates":[4.889403893083629,51.99039364215127]}},{"type":"Feature","properties":{"highway":"bus_stop","public_transport":"platform","name":"Stenenbrug","ref:IFOPT":"NL:Q:51630050","_quaycode":"NL:Q:51630050","_town":"Lopik","_status":"available","_mode":"bus","_direction":215,"_visuallyAccessible":false,"_disabledAccessible":false,"geojson_lng":4.9108380658545325,"geojson_lat":51.97089682576461},"geometry":{"type":"Point","coordinates":[4.9108380658545325,51.97089682576461]}},{"type":"Feature","properties":{"highway":"bus_stop","public_transport":"platform","name":"M. Overbeek","ref:IFOPT":"NL:Q:53632010","_quaycode":"NL:Q:53632010","_town":"Cabauw/Zevender","_status":"available","_mode":"bus","_direction":240,"_visuallyAccessible":false,"_disabledAccessible":false,"geojson_lng":4.889017781279222,"geojson_lat":51.96354387991662},"geometry":{"type":"Point","coordinates":[4.889017781279222,51.96354387991662]}},{"type":"Feature","properties":{"highway":"bus_stop","public_transport":"platform","name":"Kuyl","ref:IFOPT":"NL:Q:53632090","_quaycode":"NL:Q:53632090","_town":"Cabauw/Zevender","_status":"available","_mode":"bus","_direction":210,"_visuallyAccessible":false,"_disabledAccessible":false,"geojson_lng":4.87150105992947,"geojson_lat":51.95577436183917},"geometry":{"type":"Point","coordinates":[4.87150105992947,51.95577436183917]}},{"type":"Feature","properties":{"highway":"bus_stop","public_transport":"platform","name":"R. Overbeek","ref:IFOPT":"NL:Q:53632060","_quaycode":"NL:Q:53632060","_town":"Cabauw/Zevender","_status":"available","_mode":"bus","_direction":56,"_visuallyAccessible":false,"_disabledAccessible":false,"geojson_lng":4.877110388882676,"geojson_lat":51.9575964923191},"geometry":{"type":"Point","coordinates":[4.877110388882676,51.9575964923191]}},{"type":"Feature","properties":{"highway":"bus_stop","public_transport":"platform","name":"Slootjes","ref:IFOPT":"NL:Q:51630060","_quaycode":"NL:Q:51630060","_town":"Lopik","_status":"available","_mode":"bus","_direction":40,"_visuallyAccessible":false,"_disabledAccessible":false,"geojson_lng":4.908111316459607,"geojson_lat":51.96867462663357},"geometry":{"type":"Point","coordinates":[4.908111316459607,51.96867462663357]}},{"type":"Feature","properties":{"highway":"bus_stop","public_transport":"platform","name":"Stenenbrug","ref:IFOPT":"NL:Q:51630040","_quaycode":"NL:Q:51630040","_town":"Lopik","_status":"available","_mode":"bus","_direction":43,"_visuallyAccessible":false,"_disabledAccessible":false,"geojson_lng":4.911042367651989,"geojson_lat":51.970843722825904},"geometry":{"type":"Point","coordinates":[4.911042367651989,51.970843722825904]}},{"type":"Feature","properties":{"highway":"bus_stop","public_transport":"platform","name":"v.d. Ende","ref:IFOPT":"NL:Q:53632020","_quaycode":"NL:Q:53632020","_town":"Cabauw/Zevender","_status":"available","_mode":"bus","_direction":60,"_visuallyAccessible":false,"_disabledAccessible":false,"geojson_lng":4.883329132607713,"geojson_lat":51.96219836534682},"geometry":{"type":"Point","coordinates":[4.883329132607713,51.96219836534682]}},{"type":"Feature","properties":{"highway":"bus_stop","public_transport":"platform","name":"Damweg","ref:IFOPT":"NL:Q:51630010","_quaycode":"NL:Q:51630010","_town":"Lopik","_status":"available","_mode":"bus","_direction":260,"_visuallyAccessible":false,"_disabledAccessible":false,"geojson_lng":4.919184105563323,"geojson_lat":51.974381833033775},"geometry":{"type":"Point","coordinates":[4.919184105563323,51.974381833033775]}},{"type":"Feature","properties":{"highway":"bus_stop","public_transport":"platform","name":"Van der Mel","ref:IFOPT":"NL:Q:51520110","_quaycode":"NL:Q:51520110","_town":"Polsbroek","_status":"available","_mode":"bus","_direction":235,"_visuallyAccessible":false,"_disabledAccessible":false,"geojson_lng":4.88912728331344,"geojson_lat":51.99039247185425},"geometry":{"type":"Point","coordinates":[4.88912728331344,51.99039247185425]}},{"type":"Feature","properties":{"highway":"bus_stop","public_transport":"platform","name":"Van der Vlist","ref:IFOPT":"NL:Q:51520060","_quaycode":"NL:Q:51520060","_town":"Polsbroek","_status":"available","_mode":"bus","_direction":70,"_visuallyAccessible":false,"_disabledAccessible":false,"geojson_lng":4.895843316774295,"geojson_lat":51.992658790024315},"geometry":{"type":"Point","coordinates":[4.895843316774295,51.992658790024315]}},{"type":"Feature","properties":{"highway":"bus_stop","public_transport":"platform","name":"Snoekenbrug","ref:IFOPT":"NL:Q:51520150","_quaycode":"NL:Q:51520150","_town":"Polsbroek","_status":"available","_mode":"bus","_direction":250,"_visuallyAccessible":false,"_disabledAccessible":false,"geojson_lng":4.876133860732275,"geojson_lat":51.98586957119709},"geometry":{"type":"Point","coordinates":[4.876133860732275,51.98586957119709]}},{"type":"Feature","properties":{"highway":"bus_stop","public_transport":"platform","name":"Damweg","ref:IFOPT":"NL:Q:51530340","_quaycode":"NL:Q:51530340","_town":"Lopik","_status":"available","_mode":"bus","_direction":64,"_visuallyAccessible":false,"_disabledAccessible":false,"geojson_lng":4.919184574210733,"geojson_lat":51.974336893339355},"geometry":{"type":"Point","coordinates":[4.919184574210733,51.974336893339355]}},{"type":"Feature","properties":{"highway":"bus_stop","public_transport":"platform","name":"Stationsplein","ref:IFOPT":"NL:Q:53630100","_quaycode":"NL:Q:53630100","_town":"Schoonhoven","_status":"available","_mode":"bus","_direction":355,"_visuallyAccessible":true,"_disabledAccessible":true,"geojson_lng":4.850099940809331,"geojson_lat":51.949791197763055},"geometry":{"type":"Point","coordinates":[4.850099940809331,51.949791197763055]}},{"type":"Feature","properties":{"highway":"bus_stop","public_transport":"platform","name":"Schoonhoven Oost","ref:IFOPT":"NL:Q:53630220","_quaycode":"NL:Q:53630220","_town":"Schoonhoven","_status":"available","_mode":"bus","_direction":180,"_visuallyAccessible":false,"_disabledAccessible":true,"geojson_lng":4.859155749405294,"geojson_lat":51.94785476036502},"geometry":{"type":"Point","coordinates":[4.859155749405294,51.94785476036502]}},{"type":"Feature","properties":{"highway":"bus_stop","public_transport":"platform","name":"Schoonhoven Oost","ref:IFOPT":"NL:Q:53630210","_quaycode":"NL:Q:53630210","_town":"Schoonhoven","_status":"available","_mode":"bus","_direction":77,"_visuallyAccessible":false,"_disabledAccessible":false,"geojson_lng":4.860706643914079,"geojson_lat":51.94832012064897},"geometry":{"type":"Point","coordinates":[4.860706643914079,51.94832012064897]}},{"type":"Feature","properties":{"highway":"bus_stop","public_transport":"platform","name":"Bedrijfsweg","ref:IFOPT":"NL:Q:53630150","_quaycode":"NL:Q:53630150","_town":"Schoonhoven","_status":"available","_mode":"bus","_direction":176,"_visuallyAccessible":false,"_disabledAccessible":false,"geojson_lng":4.8428221879404685,"geojson_lat":51.95618443241814},"geometry":{"type":"Point","coordinates":[4.8428221879404685,51.95618443241814]}},{"type":"Feature","properties":{"highway":"bus_stop","public_transport":"platform","name":"Schoonhoven Oost","ref:IFOPT":"NL:Q:53630200","_quaycode":"NL:Q:53630200","_town":"Schoonhoven","_status":"available","_mode":"bus","_direction":344,"_visuallyAccessible":false,"_disabledAccessible":true,"geojson_lng":4.859111124861222,"geojson_lat":51.94917585183017},"geometry":{"type":"Point","coordinates":[4.859111124861222,51.94917585183017]}},{"type":"Feature","properties":{"highway":"bus_stop","public_transport":"platform","name":"Bedrijfsweg","ref:IFOPT":"NL:Q:53630160","_quaycode":"NL:Q:53630160","_town":"Schoonhoven","_status":"available","_mode":"bus","_direction":354,"_visuallyAccessible":false,"_disabledAccessible":false,"geojson_lng":4.842983296803861,"geojson_lat":51.956095294131025},"geometry":{"type":"Point","coordinates":[4.842983296803861,51.956095294131025]}},{"type":"Feature","properties":{"highway":"bus_stop","public_transport":"platform","name":"Hoge Schuur","ref:IFOPT":"NL:Q:51740170","_quaycode":"NL:Q:51740170","_town":"Langerak","_status":"available","_mode":"bus","_direction":238,"_visuallyAccessible":false,"_disabledAccessible":false,"geojson_lng":4.922678810619443,"geojson_lat":51.94346082187505},"geometry":{"type":"Point","coordinates":[4.922678810619443,51.94346082187505]}}]}