{"type":"FeatureCollection","features":[{"type":"Feature","properties":{"highway":"bus_stop","public_transport":"platform","name":"Kerkstraat","ref:IFOPT":"NL:Q:68210140","_quaycode":"NL:Q:68210140","_town":"Baexem","_status":"available","_mode":"bus","_direction":347,"_visuallyAccessible":false,"_disabledAccessible":false,"geojson_lng":5.882423331981005,"geojson_lat":51.22913451140763},"geometry":{"type":"Point","coordinates":[5.882423331981005,51.22913451140763]}},{"type":"Feature","properties":{"highway":"bus_stop","public_transport":"platform","name":"Centrum","ref:IFOPT":"NL:Q:68300100","_quaycode":"NL:Q:68300100","_town":"Grathem","_status":"available","_mode":"bus","_direction":329,"_visuallyAccessible":false,"_disabledAccessible":false,"geojson_lng":5.858101849330226,"geojson_lat":51.19035859016966},"geometry":{"type":"Point","coordinates":[5.858101849330226,51.19035859016966]}},{"type":"Feature","properties":{"highway":"bus_stop","public_transport":"platform","name":"Velterweg","ref:IFOPT":"NL:Q:68400330","_quaycode":"NL:Q:68400330","_town":"Kelpen-Oler","_status":"available","_mode":"bus","_direction":294,"_visuallyAccessible":false,"_disabledAccessible":false,"geojson_lng":5.834048608352782,"geojson_lat":51.20870103690931},"geometry":{"type":"Point","coordinates":[5.834048608352782,51.20870103690931]}},{"type":"Feature","properties":{"highway":"bus_stop","public_transport":"platform","name":"Willem Alexanderstraat","ref:IFOPT":"NL:Q:68300160","_quaycode":"NL:Q:68300160","_town":"Grathem","_status":"available","_mode":"bus","_direction":264,"_visuallyAccessible":false,"_disabledAccessible":false,"geojson_lng":5.856731753992491,"geojson_lat":51.194858586258505},"geometry":{"type":"Point","coordinates":[5.856731753992491,51.194858586258505]}},{"type":"Feature","properties":{"highway":"bus_stop","public_transport":"platform","name":"Brandweergarage","ref:IFOPT":"NL:Q:68320230","_quaycode":"NL:Q:68320230","_town":"Kelpen-Oler","_status":"available","_mode":"bus","_direction":190,"_visuallyAccessible":false,"_disabledAccessible":false,"geojson_lng":5.8286645665040915,"geojson_lat":51.21429472202612},"geometry":{"type":"Point","coordinates":[5.8286645665040915,51.21429472202612]}},{"type":"Feature","properties":{"highway":"bus_stop","public_transport":"platform","name":"Lindestraat","ref:IFOPT":"NL:Q:68300120","_quaycode":"NL:Q:68300120","_town":"Grathem","_status":"available","_mode":"bus","_direction":143,"_visuallyAccessible":true,"_disabledAccessible":false,"geojson_lng":5.853971310266641,"geojson_lat":51.193512384995564},"geometry":{"type":"Point","coordinates":[5.853971310266641,51.193512384995564]}},{"type":"Feature","properties":{"highway":"bus_stop","public_transport":"platform","name":"Magrietstraat","ref:IFOPT":"NL:Q:68300140","_quaycode":"NL:Q:68300140","_town":"Grathem","_status":"available","_mode":"bus","_direction":74,"_visuallyAccessible":false,"_disabledAccessible":false,"geojson_lng":5.860030364497985,"geojson_lat":51.19426991943018},"geometry":{"type":"Point","coordinates":[5.860030364497985,51.19426991943018]}},{"type":"Feature","properties":{"highway":"bus_stop","public_transport":"platform","name":"Lindestraat","ref:IFOPT":"NL:Q:68300130","_quaycode":"NL:Q:68300130","_town":"Grathem","_status":"available","_mode":"bus","_direction":313,"_visuallyAccessible":false,"_disabledAccessible":true,"geojson_lng":5.854312981747762,"geojson_lat":51.193349211626725},"geometry":{"type":"Point","coordinates":[5.854312981747762,51.193349211626725]}},{"type":"Feature","properties":{"highway":"bus_stop","public_transport":"platform","name":"Ellerweg","ref:IFOPT":"NL:Q:68320120","_quaycode":"NL:Q:68320120","_town":"Kelpen-Oler","_status":"available","_mode":"bus","_direction":253,"_visuallyAccessible":false,"_disabledAccessible":false,"geojson_lng":5.819387598159376,"geojson_lat":51.229179212659616},"geometry":{"type":"Point","coordinates":[5.819387598159376,51.229179212659616]}},{"type":"Feature","properties":{"highway":"bus_stop","public_transport":"platform","name":"Beukenstraat","ref:IFOPT":"NL:Q:68400170","_quaycode":"NL:Q:68400170","_town":"Hunsel","_status":"available","_mode":"bus","_direction":331,"_visuallyAccessible":false,"_disabledAccessible":false,"geojson_lng":5.810948561802674,"geojson_lat":51.192859277425775},"geometry":{"type":"Point","coordinates":[5.810948561802674,51.192859277425775]}},{"type":"Feature","properties":{"highway":"bus_stop","public_transport":"platform","name":"De Fuus","ref:IFOPT":"NL:Q:68400100","_quaycode":"NL:Q:68400100","_town":"Ell","_status":"available","_mode":"bus","_direction":327,"_visuallyAccessible":false,"_disabledAccessible":false,"geojson_lng":5.804423378221822,"geojson_lat":51.20679766957091},"geometry":{"type":"Point","coordinates":[5.804423378221822,51.20679766957091]}},{"type":"Feature","properties":{"highway":"bus_stop","public_transport":"platform","name":"Nieuwstraat","ref:IFOPT":"NL:Q:68210190","_quaycode":"NL:Q:68210190","_town":"Baexem","_status":"available","_mode":"bus","_direction":167,"_visuallyAccessible":false,"_disabledAccessible":false,"geojson_lng":5.881673043230671,"geojson_lat":51.23124110687084},"geometry":{"type":"Point","coordinates":[5.881673043230671,51.23124110687084]}},{"type":"Feature","properties":{"highway":"bus_stop","public_transport":"platform","name":"Beukenstraat","ref:IFOPT":"NL:Q:68400180","_quaycode":"NL:Q:68400180","_town":"Hunsel","_status":"available","_mode":"bus","_direction":161,"_visuallyAccessible":false,"_disabledAccessible":false,"geojson_lng":5.81084626970405,"geojson_lat":51.19262593964899},"geometry":{"type":"Point","coordinates":[5.81084626970405,51.19262593964899]}},{"type":"Feature","properties":{"highway":"bus_stop","public_transport":"platform","name":"Kallestraat","ref:IFOPT":"NL:Q:68400150","_quaycode":"NL:Q:68400150","_town":"Hunsel","_status":"available","_mode":"bus","_direction":15,"_visuallyAccessible":true,"_disabledAccessible":false,"geojson_lng":5.812862906450438,"geojson_lat":51.18949942739385},"geometry":{"type":"Point","coordinates":[5.812862906450438,51.18949942739385]}},{"type":"Feature","properties":{"highway":"bus_stop","public_transport":"platform","name":"Kerk","ref:IFOPT":"NL:Q:68320140","_quaycode":"NL:Q:68320140","_town":"Kelpen-Oler","_status":"available","_mode":"bus","_direction":170,"_visuallyAccessible":true,"_disabledAccessible":false,"geojson_lng":5.825727080956001,"geojson_lat":51.22140705779136},"geometry":{"type":"Point","coordinates":[5.825727080956001,51.22140705779136]}},{"type":"Feature","properties":{"highway":"bus_stop","public_transport":"platform","name":"Willem Alexanderstraat","ref:IFOPT":"NL:Q:68300170","_quaycode":"NL:Q:68300170","_town":"Grathem","_status":"available","_mode":"bus","_direction":264,"_visuallyAccessible":false,"_disabledAccessible":false,"geojson_lng":5.85683290389189,"geojson_lat":51.19495705536523},"geometry":{"type":"Point","coordinates":[5.85683290389189,51.19495705536523]}},{"type":"Feature","properties":{"highway":"bus_stop","public_transport":"platform","name":"Crematorium","ref:IFOPT":"NL:Q:68210110","_quaycode":"NL:Q:68210110","_town":"Baexem","_status":"available","_mode":"bus","_direction":61,"_visuallyAccessible":false,"_disabledAccessible":false,"geojson_lng":5.87839598441616,"geojson_lat":51.2153626131972},"geometry":{"type":"Point","coordinates":[5.87839598441616,51.2153626131972]}},{"type":"Feature","properties":{"highway":"bus_stop","public_transport":"platform","name":"Nieuwstraat","ref:IFOPT":"NL:Q:68210180","_quaycode":"NL:Q:68210180","_town":"Baexem","_status":"available","_mode":"bus","_direction":32,"_visuallyAccessible":false,"_disabledAccessible":false,"geojson_lng":5.8819822342748695,"geojson_lat":51.23203081506883},"geometry":{"type":"Point","coordinates":[5.8819822342748695,51.23203081506883]}},{"type":"Feature","properties":{"highway":"bus_stop","public_transport":"platform","name":"Ellerweg","ref:IFOPT":"NL:Q:68320130","_quaycode":"NL:Q:68320130","_town":"Kelpen-Oler","_status":"available","_mode":"bus","_direction":58,"_visuallyAccessible":false,"_disabledAccessible":false,"geojson_lng":5.819386580871682,"geojson_lat":51.22907134996452},"geometry":{"type":"Point","coordinates":[5.819386580871682,51.22907134996452]}},{"type":"Feature","properties":{"highway":"bus_stop","public_transport":"platform","name":"Magrietstraat","ref:IFOPT":"NL:Q:68300150","_quaycode":"NL:Q:68300150","_town":"Grathem","_status":"available","_mode":"bus","_direction":273,"_visuallyAccessible":false,"_disabledAccessible":false,"geojson_lng":5.859630837603152,"geojson_lat":51.194370422582054},"geometry":{"type":"Point","coordinates":[5.859630837603152,51.194370422582054]}},{"type":"Feature","properties":{"highway":"bus_stop","public_transport":"platform","name":"Centrum","ref:IFOPT":"NL:Q:68300110","_quaycode":"NL:Q:68300110","_town":"Grathem","_status":"available","_mode":"bus","_direction":144,"_visuallyAccessible":false,"_disabledAccessible":false,"geojson_lng":5.857930017243953,"geojson_lat":51.1903413087108},"geometry":{"type":"Point","coordinates":[5.857930017243953,51.1903413087108]}},{"type":"Feature","properties":{"highway":"bus_stop","public_transport":"platform","name":"Brandweergarage","ref:IFOPT":"NL:Q:68320220","_quaycode":"NL:Q:68320220","_town":"Kelpen-Oler","_status":"available","_mode":"bus","_direction":3,"_visuallyAccessible":false,"_disabledAccessible":false,"geojson_lng":5.828629452351761,"geojson_lat":51.21362068926963},"geometry":{"type":"Point","coordinates":[5.828629452351761,51.21362068926963]}},{"type":"Feature","properties":{"highway":"bus_stop","public_transport":"platform","name":"Kallestraat","ref:IFOPT":"NL:Q:68400160","_quaycode":"NL:Q:68400160","_town":"Hunsel","_status":"available","_mode":"bus","_direction":121,"_visuallyAccessible":false,"_disabledAccessible":true,"geojson_lng":5.812790803885786,"geojson_lat":51.18943676939819},"geometry":{"type":"Point","coordinates":[5.812790803885786,51.18943676939819]}},{"type":"Feature","properties":{"highway":"bus_stop","public_transport":"platform","name":"De Fuus","ref:IFOPT":"NL:Q:68400110","_quaycode":"NL:Q:68400110","_town":"Ell","_status":"available","_mode":"bus","_direction":162,"_visuallyAccessible":false,"_disabledAccessible":false,"geojson_lng":5.804490752275194,"geojson_lat":51.20633899519529},"geometry":{"type":"Point","coordinates":[5.804490752275194,51.20633899519529]}},{"type":"Feature","properties":{"highway":"bus_stop","public_transport":"platform","name":"Kerkstraat","ref:IFOPT":"NL:Q:68210150","_quaycode":"NL:Q:68210150","_town":"Baexem","_status":"available","_mode":"bus","_direction":168,"_visuallyAccessible":false,"_disabledAccessible":true,"geojson_lng":5.88236431968383,"geojson_lat":51.22897296246205},"geometry":{"type":"Point","coordinates":[5.88236431968383,51.22897296246205]}},{"type":"Feature","properties":{"highway":"bus_stop","public_transport":"platform","name":"Crematorium","ref:IFOPT":"NL:Q:68210100","_quaycode":"NL:Q:68210100","_town":"Baexem","_status":"available","_mode":"bus","_direction":250,"_visuallyAccessible":false,"_disabledAccessible":false,"geojson_lng":5.878296283720586,"geojson_lat":51.21540797905718},"geometry":{"type":"Point","coordinates":[5.878296283720586,51.21540797905718]}},{"type":"Feature","properties":{"highway":"bus_stop","public_transport":"platform","name":"Kerk","ref:IFOPT":"NL:Q:68320150","_quaycode":"NL:Q:68320150","_town":"Kelpen-Oler","_status":"available","_mode":"bus","_direction":336,"_visuallyAccessible":true,"_disabledAccessible":false,"geojson_lng":5.82479593524164,"geojson_lat":51.22283080985563},"geometry":{"type":"Point","coordinates":[5.82479593524164,51.22283080985563]}},{"type":"Feature","properties":{"highway":"bus_stop","public_transport":"platform","name":"Dorpstraat","ref:IFOPT":"NL:Q:68210120","_quaycode":"NL:Q:68210120","_town":"Baexem","_status":"available","_mode":"bus","_direction":340,"_visuallyAccessible":false,"_disabledAccessible":false,"geojson_lng":5.884314344314539,"geojson_lat":51.223966806665736},"geometry":{"type":"Point","coordinates":[5.884314344314539,51.223966806665736]}},{"type":"Feature","properties":{"highway":"bus_stop","public_transport":"platform","name":"Dorpstraat","ref:IFOPT":"NL:Q:68210130","_quaycode":"NL:Q:68210130","_town":"Baexem","_status":"available","_mode":"bus","_direction":166,"_visuallyAccessible":false,"_disabledAccessible":false,"geojson_lng":5.884184345068344,"geojson_lat":51.223859495638195},"geometry":{"type":"Point","coordinates":[5.884184345068344,51.223859495638195]}},{"type":"Feature","properties":{"highway":"bus_stop","public_transport":"platform","name":"Velterweg","ref:IFOPT":"NL:Q:68400340","_quaycode":"NL:Q:68400340","_town":"Kelpen-Oler","_status":"available","_mode":"bus","_direction":123,"_visuallyAccessible":false,"_disabledAccessible":false,"geojson_lng":5.833990581168756,"geojson_lat":51.20862036004785},"geometry":{"type":"Point","coordinates":[5.833990581168756,51.20862036004785]}},{"type":"Feature","properties":{"highway":"bus_stop","public_transport":"platform","name":"Provinciale weg","ref:IFOPT":"NL:Q:68320240","_quaycode":"NL:Q:68320240","_town":"Kelpen-Oler","_status":"available","_mode":"bus","_direction":290,"_visuallyAccessible":false,"_disabledAccessible":false,"geojson_lng":5.817784488898776,"geojson_lat":51.23074922822628},"geometry":{"type":"Point","coordinates":[5.817784488898776,51.23074922822628]}},{"type":"Feature","properties":{"highway":"bus_stop","public_transport":"platform","name":"Provinciale weg","ref:IFOPT":"NL:Q:68320250","_quaycode":"NL:Q:68320250","_town":"Kelpen-Oler","_status":"available","_mode":"bus","_direction":109,"_visuallyAccessible":false,"_disabledAccessible":false,"geojson_lng":5.820583322454981,"geojson_lat":51.22997477325392},"geometry":{"type":"Point","coordinates":[5.820583322454981,51.22997477325392]}}]}