{"type":"FeatureCollection","features":[{"type":"Feature","properties":{"highway":"bus_stop","public_transport":"platform","name":"Centrum","ref:IFOPT":"NL:Q:68300280","_quaycode":"NL:Q:68300280","_town":"Thorn","_status":"available","_mode":"bus","_direction":278,"_visuallyAccessible":true,"_disabledAccessible":true,"geojson_lng":5.842681937285204,"geojson_lat":51.16302190777944},"geometry":{"type":"Point","coordinates":[5.842681937285204,51.16302190777944]}},{"type":"Feature","properties":{"highway":"bus_stop","public_transport":"platform","name":"Eiland","ref:IFOPT":"NL:Q:68360160","_quaycode":"NL:Q:68360160","_town":"Stevensweert","_status":"available","_mode":"bus","_direction":310,"_visuallyAccessible":false,"_disabledAccessible":false,"geojson_lng":5.856646940833988,"geojson_lat":51.13064217350815},"geometry":{"type":"Point","coordinates":[5.856646940833988,51.13064217350815]}},{"type":"Feature","properties":{"highway":"bus_stop","public_transport":"platform","name":"Pater Schreursweg","ref:IFOPT":"NL:Q:68300200","_quaycode":"NL:Q:68300200","_town":"Panheel","_status":"available","_mode":"bus","_direction":330,"_visuallyAccessible":false,"_disabledAccessible":false,"geojson_lng":5.8722912791648305,"geojson_lat":51.17676290905745},"geometry":{"type":"Point","coordinates":[5.8722912791648305,51.17676290905745]}},{"type":"Feature","properties":{"highway":"bus_stop","public_transport":"platform","name":"Kerk","ref:IFOPT":"NL:Q:68400210","_quaycode":"NL:Q:68400210","_town":"Ittervoort","_status":"available","_mode":"bus","_direction":276,"_visuallyAccessible":false,"_disabledAccessible":false,"geojson_lng":5.82412298564752,"geojson_lat":51.170248372629864},"geometry":{"type":"Point","coordinates":[5.82412298564752,51.170248372629864]}},{"type":"Feature","properties":{"highway":"bus_stop","public_transport":"platform","name":"Panheelderweg","ref:IFOPT":"NL:Q:68200180","_quaycode":"NL:Q:68200180","_town":"Heel","_status":"available","_mode":"bus","_direction":260,"_visuallyAccessible":false,"_disabledAccessible":false,"geojson_lng":5.885441182728515,"geojson_lat":51.177489284819416},"geometry":{"type":"Point","coordinates":[5.885441182728515,51.177489284819416]}},{"type":"Feature","properties":{"highway":"bus_stop","public_transport":"platform","name":"Steenfabriek","ref:IFOPT":"NL:Q:68300330","_quaycode":"NL:Q:68300330","_town":"Wessem","_status":"available","_mode":"bus","_direction":117,"_visuallyAccessible":false,"_disabledAccessible":false,"geojson_lng":5.860170618399111,"geojson_lat":51.157927200458104},"geometry":{"type":"Point","coordinates":[5.860170618399111,51.157927200458104]}},{"type":"Feature","properties":{"highway":"bus_stop","public_transport":"platform","name":"Margarethastraat","ref:IFOPT":"NL:Q:68400250","_quaycode":"NL:Q:68400250","_town":"Ittervoort","_status":"available","_mode":"bus","_direction":84,"_visuallyAccessible":false,"_disabledAccessible":true,"geojson_lng":5.815216362142492,"geojson_lat":51.168843316186404},"geometry":{"type":"Point","coordinates":[5.815216362142492,51.168843316186404]}},{"type":"Feature","properties":{"highway":"bus_stop","public_transport":"platform","name":"Burg. Joostenlaan","ref:IFOPT":"NL:Q:68300300","_quaycode":"NL:Q:68300300","_town":"Wessem","_status":"available","_mode":"bus","_direction":250,"_visuallyAccessible":true,"_disabledAccessible":true,"geojson_lng":5.8782699294876295,"geojson_lat":51.160827401373496},"geometry":{"type":"Point","coordinates":[5.8782699294876295,51.160827401373496]}},{"type":"Feature","properties":{"highway":"bus_stop","public_transport":"platform","name":"Heerbaan","ref:IFOPT":"NL:Q:68300270","_quaycode":"NL:Q:68300270","_town":"Thorn","_status":"available","_mode":"bus","_direction":111,"_visuallyAccessible":false,"_disabledAccessible":false,"geojson_lng":5.828254047098331,"geojson_lat":51.1686417244019},"geometry":{"type":"Point","coordinates":[5.828254047098331,51.1686417244019]}},{"type":"Feature","properties":{"highway":"bus_stop","public_transport":"platform","name":"Bedrijventerrein","ref:IFOPT":"NL:Q:68320110","_quaycode":"NL:Q:68320110","_town":"Ittervoort","_status":"available","_mode":"bus","_direction":245,"_visuallyAccessible":false,"_disabledAccessible":false,"geojson_lng":5.833079660652434,"geojson_lat":51.176749257909165},"geometry":{"type":"Point","coordinates":[5.833079660652434,51.176749257909165]}},{"type":"Feature","properties":{"highway":"bus_stop","public_transport":"platform","name":"Ittervoorterweg","ref:IFOPT":"NL:Q:68300220","_quaycode":"NL:Q:68300220","_town":"Thorn","_status":"available","_mode":"bus","_direction":300,"_visuallyAccessible":true,"_disabledAccessible":false,"geojson_lng":5.836808832769283,"geojson_lat":51.16474369602856},"geometry":{"type":"Point","coordinates":[5.836808832769283,51.16474369602856]}},{"type":"Feature","properties":{"highway":"bus_stop","public_transport":"platform","name":"Krekelbergplein","ref:IFOPT":"NL:Q:68400310","_quaycode":"NL:Q:68400310","_town":"Neeritter","_status":"available","_mode":"bus","_direction":204,"_visuallyAccessible":false,"_disabledAccessible":true,"geojson_lng":5.8030080041668635,"geojson_lat":51.162748262546515},"geometry":{"type":"Point","coordinates":[5.8030080041668635,51.162748262546515]}},{"type":"Feature","properties":{"highway":"bus_stop","public_transport":"platform","name":"Stevensweerterweg","ref:IFOPT":"NL:Q:68260300","_quaycode":"NL:Q:68260300","_town":"Maasbracht","_status":"available","_mode":"bus","_direction":116,"_visuallyAccessible":false,"_disabledAccessible":false,"geojson_lng":5.882595238988381,"geojson_lat":51.140377205610015},"geometry":{"type":"Point","coordinates":[5.882595238988381,51.140377205610015]}},{"type":"Feature","properties":{"highway":"bus_stop","public_transport":"platform","name":"Leliestraat","ref:IFOPT":"NL:Q:68400230","_quaycode":"NL:Q:68400230","_town":"Ittervoort","_status":"available","_mode":"bus","_direction":99,"_visuallyAccessible":false,"_disabledAccessible":false,"geojson_lng":5.825549573924202,"geojson_lat":51.17290370844015},"geometry":{"type":"Point","coordinates":[5.825549573924202,51.17290370844015]}},{"type":"Feature","properties":{"highway":"bus_stop","public_transport":"platform","name":"Violenstraat","ref:IFOPT":"NL:Q:68400280","_quaycode":"NL:Q:68400280","_town":"Ittervoort","_status":"available","_mode":"bus","_direction":170,"_visuallyAccessible":false,"_disabledAccessible":true,"geojson_lng":5.822758907346101,"geojson_lat":51.174163662635365},"geometry":{"type":"Point","coordinates":[5.822758907346101,51.174163662635365]}},{"type":"Feature","properties":{"highway":"bus_stop","public_transport":"platform","name":"Heelderweg","ref:IFOPT":"NL:Q:68300190","_quaycode":"NL:Q:68300190","_town":"Panheel","_status":"available","_mode":"bus","_direction":91,"_visuallyAccessible":true,"_disabledAccessible":false,"geojson_lng":5.87502707741907,"geojson_lat":51.175834582323695},"geometry":{"type":"Point","coordinates":[5.87502707741907,51.175834582323695]}},{"type":"Feature","properties":{"highway":"bus_stop","public_transport":"platform","name":"Burg. Joostenlaan","ref:IFOPT":"NL:Q:68300310","_quaycode":"NL:Q:68300310","_town":"Wessem","_status":"available","_mode":"bus","_direction":60,"_visuallyAccessible":true,"_disabledAccessible":true,"geojson_lng":5.879343287104408,"geojson_lat":51.16093971354697},"geometry":{"type":"Point","coordinates":[5.879343287104408,51.16093971354697]}},{"type":"Feature","properties":{"highway":"bus_stop","public_transport":"platform","name":"Centrum","ref:IFOPT":"NL:Q:68300290","_quaycode":"NL:Q:68300290","_town":"Thorn","_status":"available","_mode":"bus","_direction":120,"_visuallyAccessible":true,"_disabledAccessible":false,"geojson_lng":5.842738494917493,"geojson_lat":51.16295876363635},"geometry":{"type":"Point","coordinates":[5.842738494917493,51.16295876363635]}},{"type":"Feature","properties":{"highway":"bus_stop","public_transport":"platform","name":"Echterstraat","ref:IFOPT":"NL:Q:68260120","_quaycode":"NL:Q:68260120","_town":"Maasbracht","_status":"available","_mode":"bus","_direction":233,"_visuallyAccessible":true,"_disabledAccessible":true,"geojson_lng":5.886647075737371,"geojson_lat":51.13980253146635},"geometry":{"type":"Point","coordinates":[5.886647075737371,51.13980253146635]}},{"type":"Feature","properties":{"highway":"bus_stop","public_transport":"platform","name":"Centrum","ref:IFOPT":"NL:Q:68400190","_quaycode":"NL:Q:68400190","_town":"Ittervoort","_status":"available","_mode":"bus","_direction":351,"_visuallyAccessible":false,"_disabledAccessible":false,"geojson_lng":5.822900886380656,"geojson_lat":51.17104398591403},"geometry":{"type":"Point","coordinates":[5.822900886380656,51.17104398591403]}},{"type":"Feature","properties":{"highway":"bus_stop","public_transport":"platform","name":"Violenstraat","ref:IFOPT":"NL:Q:68400270","_quaycode":"NL:Q:68400270","_town":"Ittervoort","_status":"available","_mode":"bus","_direction":345,"_visuallyAccessible":false,"_disabledAccessible":false,"geojson_lng":5.82283296170645,"geojson_lat":51.17443305154172},"geometry":{"type":"Point","coordinates":[5.82283296170645,51.17443305154172]}},{"type":"Feature","properties":{"highway":"bus_stop","public_transport":"platform","name":"Roumerweg","ref:IFOPT":"NL:Q:68360200","_quaycode":"NL:Q:68360200","_town":"Stevensweert","_status":"available","_mode":"bus","_direction":198,"_visuallyAccessible":false,"_disabledAccessible":true,"geojson_lng":5.84253979813318,"geojson_lat":51.128505077327844},"geometry":{"type":"Point","coordinates":[5.84253979813318,51.128505077327844]}},{"type":"Feature","properties":{"highway":"bus_stop","public_transport":"platform","name":"Van Horneplein","ref:IFOPT":"NL:Q:68300340","_quaycode":"NL:Q:68300340","_town":"Wessem","_status":"available","_mode":"bus","_direction":210,"_visuallyAccessible":true,"_disabledAccessible":true,"geojson_lng":5.881582464868992,"geojson_lat":51.16178415021026},"geometry":{"type":"Point","coordinates":[5.881582464868992,51.16178415021026]}},{"type":"Feature","properties":{"highway":"bus_stop","public_transport":"platform","name":"Centrum","ref:IFOPT":"NL:Q:68400200","_quaycode":"NL:Q:68400200","_town":"Ittervoort","_status":"available","_mode":"bus","_direction":190,"_visuallyAccessible":false,"_disabledAccessible":false,"geojson_lng":5.8226254724735815,"geojson_lat":51.17064950768977},"geometry":{"type":"Point","coordinates":[5.8226254724735815,51.17064950768977]}},{"type":"Feature","properties":{"highway":"bus_stop","public_transport":"platform","name":"Leliestraat","ref:IFOPT":"NL:Q:68400240","_quaycode":"NL:Q:68400240","_town":"Ittervoort","_status":"available","_mode":"bus","_direction":253,"_visuallyAccessible":false,"_disabledAccessible":false,"geojson_lng":5.8254071029889785,"geojson_lat":51.172958179390434},"geometry":{"type":"Point","coordinates":[5.8254071029889785,51.172958179390434]}},{"type":"Feature","properties":{"highway":"bus_stop","public_transport":"platform","name":"Driessensstraat","ref:IFOPT":"NL:Q:68400290","_quaycode":"NL:Q:68400290","_town":"Neeritter","_status":"available","_mode":"bus","_direction":225,"_visuallyAccessible":false,"_disabledAccessible":true,"geojson_lng":5.806969332261113,"geojson_lat":51.16602394167998},"geometry":{"type":"Point","coordinates":[5.806969332261113,51.16602394167998]}},{"type":"Feature","properties":{"highway":"bus_stop","public_transport":"platform","name":"Eiland","ref:IFOPT":"NL:Q:68360170","_quaycode":"NL:Q:68360170","_town":"Stevensweert","_status":"available","_mode":"bus","_direction":120,"_visuallyAccessible":true,"_disabledAccessible":false,"geojson_lng":5.856588789384167,"geojson_lat":51.13054353063411},"geometry":{"type":"Point","coordinates":[5.856588789384167,51.13054353063411]}},{"type":"Feature","properties":{"highway":"bus_stop","public_transport":"platform","name":"Pater Schreursweg","ref:IFOPT":"NL:Q:68300210","_quaycode":"NL:Q:68300210","_town":"Panheel","_status":"available","_mode":"bus","_direction":174,"_visuallyAccessible":false,"_disabledAccessible":false,"geojson_lng":5.872176691527696,"geojson_lat":51.17674540971115},"geometry":{"type":"Point","coordinates":[5.872176691527696,51.17674540971115]}},{"type":"Feature","properties":{"highway":"bus_stop","public_transport":"platform","name":"Driessensstraat","ref:IFOPT":"NL:Q:68400300","_quaycode":"NL:Q:68400300","_town":"Neeritter","_status":"available","_mode":"bus","_direction":45,"_visuallyAccessible":true,"_disabledAccessible":false,"geojson_lng":5.807674469614453,"geojson_lat":51.16652476816077},"geometry":{"type":"Point","coordinates":[5.807674469614453,51.16652476816077]}},{"type":"Feature","properties":{"highway":"bus_stop","public_transport":"platform","name":"Roumerweg","ref:IFOPT":"NL:Q:68360210","_quaycode":"NL:Q:68360210","_town":"Stevensweert","_status":"available","_mode":"bus","_direction":288,"_visuallyAccessible":false,"_disabledAccessible":true,"geojson_lng":5.842827720875951,"geojson_lat":51.12872867011144},"geometry":{"type":"Point","coordinates":[5.842827720875951,51.12872867011144]}},{"type":"Feature","properties":{"highway":"bus_stop","public_transport":"platform","name":"Margarethastraat","ref:IFOPT":"NL:Q:68400260","_quaycode":"NL:Q:68400260","_town":"Ittervoort","_status":"available","_mode":"bus","_direction":267,"_visuallyAccessible":false,"_disabledAccessible":false,"geojson_lng":5.815401389010899,"geojson_lat":51.168752745289254},"geometry":{"type":"Point","coordinates":[5.815401389010899,51.168752745289254]}},{"type":"Feature","properties":{"highway":"bus_stop","public_transport":"platform","name":"Trippaardstraat","ref:IFOPT":"NL:Q:68300240","_quaycode":"NL:Q:68300240","_town":"Thorn","_status":"available","_mode":"bus","_direction":288,"_visuallyAccessible":false,"_disabledAccessible":false,"geojson_lng":5.8461001836246576,"geojson_lat":51.16174101541546},"geometry":{"type":"Point","coordinates":[5.8461001836246576,51.16174101541546]}},{"type":"Feature","properties":{"highway":"bus_stop","public_transport":"platform","name":"Panheelderweg","ref:IFOPT":"NL:Q:68200190","_quaycode":"NL:Q:68200190","_town":"Heel","_status":"available","_mode":"bus","_direction":29,"_visuallyAccessible":false,"_disabledAccessible":false,"geojson_lng":5.885095059421092,"geojson_lat":51.177221101303616},"geometry":{"type":"Point","coordinates":[5.885095059421092,51.177221101303616]}},{"type":"Feature","properties":{"highway":"bus_stop","public_transport":"platform","name":"Kerk","ref:IFOPT":"NL:Q:68400220","_quaycode":"NL:Q:68400220","_town":"Ittervoort","_status":"available","_mode":"bus","_direction":166,"_visuallyAccessible":true,"_disabledAccessible":false,"geojson_lng":5.824392331554946,"geojson_lat":51.17000465902798},"geometry":{"type":"Point","coordinates":[5.824392331554946,51.17000465902798]}},{"type":"Feature","properties":{"highway":"bus_stop","public_transport":"platform","name":"Trippaardstraat","ref:IFOPT":"NL:Q:68300250","_quaycode":"NL:Q:68300250","_town":"Thorn","_status":"available","_mode":"bus","_direction":108,"_visuallyAccessible":false,"_disabledAccessible":false,"geojson_lng":5.846084630855825,"geojson_lat":51.161615232241395},"geometry":{"type":"Point","coordinates":[5.846084630855825,51.161615232241395]}},{"type":"Feature","properties":{"highway":"bus_stop","public_transport":"platform","name":"Steenfabriek","ref:IFOPT":"NL:Q:68300320","_quaycode":"NL:Q:68300320","_town":"Wessem","_status":"available","_mode":"bus","_direction":279,"_visuallyAccessible":false,"_disabledAccessible":false,"geojson_lng":5.861398580223062,"geojson_lat":51.15778735573361},"geometry":{"type":"Point","coordinates":[5.861398580223062,51.15778735573361]}},{"type":"Feature","properties":{"highway":"bus_stop","public_transport":"platform","name":"Bedrijventerrein","ref:IFOPT":"NL:Q:68320100","_quaycode":"NL:Q:68320100","_town":"Ittervoort","_status":"available","_mode":"bus","_direction":33,"_visuallyAccessible":false,"_disabledAccessible":false,"geojson_lng":5.833322669343529,"geojson_lat":51.17673933592484},"geometry":{"type":"Point","coordinates":[5.833322669343529,51.17673933592484]}},{"type":"Feature","properties":{"highway":"bus_stop","public_transport":"platform","name":"Heerbaan","ref:IFOPT":"NL:Q:68300260","_quaycode":"NL:Q:68300260","_town":"Thorn","_status":"available","_mode":"bus","_direction":315,"_visuallyAccessible":false,"_disabledAccessible":false,"geojson_lng":5.827941751398554,"geojson_lat":51.16887662114528},"geometry":{"type":"Point","coordinates":[5.827941751398554,51.16887662114528]}},{"type":"Feature","properties":{"highway":"bus_stop","public_transport":"platform","name":"Krekelbergplein","ref:IFOPT":"NL:Q:68400320","_quaycode":"NL:Q:68400320","_town":"Neeritter","_status":"available","_mode":"bus","_direction":45,"_visuallyAccessible":false,"_disabledAccessible":true,"geojson_lng":5.802667190779401,"geojson_lat":51.163001171020774},"geometry":{"type":"Point","coordinates":[5.802667190779401,51.163001171020774]}},{"type":"Feature","properties":{"highway":"bus_stop","public_transport":"platform","name":"Echterstraat","ref:IFOPT":"NL:Q:68260130","_quaycode":"NL:Q:68260130","_town":"Maasbracht","_status":"available","_mode":"bus","_direction":44,"_visuallyAccessible":false,"_disabledAccessible":false,"geojson_lng":5.887075623413578,"geojson_lat":51.13979169809092},"geometry":{"type":"Point","coordinates":[5.887075623413578,51.13979169809092]}},{"type":"Feature","properties":{"highway":"bus_stop","public_transport":"platform","name":"Van Horneplein","ref:IFOPT":"NL:Q:68300350","_quaycode":"NL:Q:68300350","_town":"Wessem","_status":"available","_mode":"bus","_direction":329,"_visuallyAccessible":true,"_disabledAccessible":true,"geojson_lng":5.88183274271187,"geojson_lat":51.162457253630805},"geometry":{"type":"Point","coordinates":[5.88183274271187,51.162457253630805]}},{"type":"Feature","properties":{"highway":"bus_stop","public_transport":"platform","name":"Heelderweg","ref:IFOPT":"NL:Q:68300180","_quaycode":"NL:Q:68300180","_town":"Panheel","_status":"available","_mode":"bus","_direction":282,"_visuallyAccessible":true,"_disabledAccessible":false,"geojson_lng":5.874584940943388,"geojson_lat":51.175944305338},"geometry":{"type":"Point","coordinates":[5.874584940943388,51.175944305338]}},{"type":"Feature","properties":{"highway":"bus_stop","public_transport":"platform","name":"Ittervoorterweg","ref:IFOPT":"NL:Q:68300230","_quaycode":"NL:Q:68300230","_town":"Thorn","_status":"available","_mode":"bus","_direction":120,"_visuallyAccessible":true,"_disabledAccessible":true,"geojson_lng":5.836152973567119,"geojson_lat":51.16492601125978},"geometry":{"type":"Point","coordinates":[5.836152973567119,51.16492601125978]}},{"type":"Feature","properties":{"highway":"bus_stop","public_transport":"platform","name":"Stevensweerterweg","ref:IFOPT":"NL:Q:68260310","_quaycode":"NL:Q:68260310","_town":"Maasbracht","_status":"available","_mode":"bus","_direction":296,"_visuallyAccessible":false,"_disabledAccessible":true,"geojson_lng":5.883123326458618,"geojson_lat":51.14032101740987},"geometry":{"type":"Point","coordinates":[5.883123326458618,51.14032101740987]}},{"type":"Feature","properties":{"highway":"bus_stop","public_transport":"platform","name":"Gouv. Houbenstraat","ref:IFOPT":"NL:Q:68360180","_quaycode":"NL:Q:68360180","_town":"Stevensweert","_status":"available","_mode":"bus","_direction":270,"_visuallyAccessible":true,"_disabledAccessible":true,"geojson_lng":5.850739637892267,"geojson_lat":51.12992882364444},"geometry":{"type":"Point","coordinates":[5.850739637892267,51.12992882364444]}},{"type":"Feature","properties":{"highway":"bus_stop","public_transport":"platform","name":"Gouv. Houbenstraat","ref:IFOPT":"NL:Q:68360190","_quaycode":"NL:Q:68360190","_town":"Stevensweert","_status":"available","_mode":"bus","_direction":106,"_visuallyAccessible":true,"_disabledAccessible":true,"geojson_lng":5.850653111019737,"geojson_lat":51.129848268967336},"geometry":{"type":"Point","coordinates":[5.850653111019737,51.129848268967336]}}]}