{"type":"FeatureCollection","features":[{"type":"Feature","properties":{"SeqNo":"223149","Type":"S","DHID":"de:09576:8018","Parent":"de:09576:8018","Name":"Roth Fr.-Ebert-Str.","MunicipalityCode":"09576143","Municipality":"Roth","DistrictCode":"","District":"","Description":"","Authority":"BEG","DelfiName":"-","THID":"D92568001F52","LastOperationDate":"2024-12-07T00:00:00","SEV":"nein","longitude":"11,095344","latitude":"49,250163","geojson_lng":11.095344,"geojson_lat":49.250163},"geometry":{"type":"Point","coordinates":[11.095344,49.250163]}},{"type":"Feature","properties":{"SeqNo":"223150","Type":"Q","DHID":"de:09576:8018:0:1","Parent":"de:09576:8018","Name":"1 (Ri. Willy-Supf-Platz)","MunicipalityCode":"00000000","Municipality":"-","DistrictCode":"-","District":"-","Description":"","Authority":"BEG","DelfiName":"-","THID":"-","LastOperationDate":"","SEV":"nein","longitude":"11,095092","latitude":"49,250099","geojson_lng":11.095092,"geojson_lat":49.250099},"geometry":{"type":"Point","coordinates":[11.095092,49.250099]}},{"type":"Feature","properties":{"SeqNo":"223151","Type":"Q","DHID":"de:09576:8018:0:2","Parent":"de:09576:8018","Name":"2 (Ri. Schlesier Str.)","MunicipalityCode":"00000000","Municipality":"-","DistrictCode":"-","District":"-","Description":"","Authority":"BEG","DelfiName":"-","THID":"-","LastOperationDate":"","SEV":"nein","longitude":"11,095353","latitude":"49,250163","geojson_lng":11.095353,"geojson_lat":49.250163},"geometry":{"type":"Point","coordinates":[11.095353,49.250163]}},{"type":"Feature","properties":{"SeqNo":"223152","Type":"S","DHID":"de:09576:8019","Parent":"de:09576:8019","Name":"Roth Gartenstr.","MunicipalityCode":"09576143","Municipality":"Roth","DistrictCode":"","District":"","Description":"","Authority":"BEG","DelfiName":"-","THID":"D92568001F53","LastOperationDate":"2024-12-07T00:00:00","SEV":"nein","longitude":"11,093816","latitude":"49,246446","geojson_lng":11.093816,"geojson_lat":49.246446},"geometry":{"type":"Point","coordinates":[11.093816,49.246446]}},{"type":"Feature","properties":{"SeqNo":"223153","Type":"Q","DHID":"de:09576:8019:0:1","Parent":"de:09576:8019","Name":"1","MunicipalityCode":"00000000","Municipality":"-","DistrictCode":"-","District":"-","Description":"","Authority":"BEG","DelfiName":"-","THID":"-","LastOperationDate":"","SEV":"nein","longitude":"11,093816","latitude":"49,246358","geojson_lng":11.093816,"geojson_lat":49.246358},"geometry":{"type":"Point","coordinates":[11.093816,49.246358]}},{"type":"Feature","properties":{"SeqNo":"223154","Type":"Q","DHID":"de:09576:8019:0:2","Parent":"de:09576:8019","Name":"2","MunicipalityCode":"00000000","Municipality":"-","DistrictCode":"-","District":"-","Description":"","Authority":"BEG","DelfiName":"-","THID":"-","LastOperationDate":"","SEV":"nein","longitude":"11,093969","latitude":"49,246358","geojson_lng":11.093969,"geojson_lat":49.246358},"geometry":{"type":"Point","coordinates":[11.093969,49.246358]}},{"type":"Feature","properties":{"SeqNo":"223182","Type":"S","DHID":"de:09576:8031","Parent":"de:09576:8031","Name":"Roth M.-Gesner-Str.","MunicipalityCode":"09576143","Municipality":"Roth","DistrictCode":"","District":"","Description":"","Authority":"BEG","DelfiName":"-","THID":"D92568001F5F","LastOperationDate":"2024-12-07T00:00:00","SEV":"nein","longitude":"11,086055","latitude":"49,252491","geojson_lng":11.086055,"geojson_lat":49.252491},"geometry":{"type":"Point","coordinates":[11.086055,49.252491]}},{"type":"Feature","properties":{"SeqNo":"223183","Type":"Q","DHID":"de:09576:8031:0:1","Parent":"de:09576:8031","Name":"1","MunicipalityCode":"00000000","Municipality":"-","DistrictCode":"-","District":"-","Description":"","Authority":"BEG","DelfiName":"-","THID":"-","LastOperationDate":"","SEV":"nein","longitude":"11,086055","latitude":"49,252491","geojson_lng":11.086055,"geojson_lat":49.252491},"geometry":{"type":"Point","coordinates":[11.086055,49.252491]}},{"type":"Feature","properties":{"SeqNo":"223184","Type":"Q","DHID":"de:09576:8031:0:2","Parent":"de:09576:8031","Name":"2","MunicipalityCode":"00000000","Municipality":"-","DistrictCode":"-","District":"-","Description":"","Authority":"BEG","DelfiName":"-","THID":"-","LastOperationDate":"","SEV":"nein","longitude":"11,086055","latitude":"49,252491","geojson_lng":11.086055,"geojson_lat":49.252491},"geometry":{"type":"Point","coordinates":[11.086055,49.252491]}},{"type":"Feature","properties":{"SeqNo":"223194","Type":"S","DHID":"de:09576:8036","Parent":"de:09576:8036","Name":"Roth N端rnberger Str.","MunicipalityCode":"09576143","Municipality":"Roth","DistrictCode":"-","District":"-","Description":"","Authority":"BEG","DelfiName":"-","THID":"D92568001F64","LastOperationDate":"2025-02-28T00:00:00","SEV":"nein","longitude":"11,086486","latitude":"49,253025","geojson_lng":11.086486,"geojson_lat":49.253025},"geometry":{"type":"Point","coordinates":[11.086486,49.253025]}},{"type":"Feature","properties":{"SeqNo":"223195","Type":"Q","DHID":"de:09576:8036:0:1","Parent":"de:09576:8036","Name":"1","MunicipalityCode":"00000000","Municipality":"-","DistrictCode":"-","District":"-","Description":"1","Authority":"BEG","DelfiName":"-","THID":"-","LastOperationDate":"","SEV":"nein","longitude":"11,086765","latitude":"49,25279","geojson_lng":11.086765,"geojson_lat":49.25279},"geometry":{"type":"Point","coordinates":[11.086765,49.25279]}},{"type":"Feature","properties":{"SeqNo":"223196","Type":"Q","DHID":"de:09576:8036:0:2","Parent":"de:09576:8036","Name":"2","MunicipalityCode":"00000000","Municipality":"-","DistrictCode":"-","District":"-","Description":"2","Authority":"BEG","DelfiName":"-","THID":"-","LastOperationDate":"","SEV":"nein","longitude":"11,08619","latitude":"49,253265","geojson_lng":11.08619,"geojson_lat":49.253265},"geometry":{"type":"Point","coordinates":[11.08619,49.253265]}},{"type":"Feature","properties":{"SeqNo":"223209","Type":"S","DHID":"de:09576:8042","Parent":"de:09576:8042","Name":"Roth Rednitzbr端cke","MunicipalityCode":"09576143","Municipality":"Roth","DistrictCode":"","District":"","Description":"","Authority":"BEG","DelfiName":"-","THID":"D92568001F6A","LastOperationDate":"2025-06-06T00:00:00","SEV":"nein","longitude":"11,088678","latitude":"49,247296","geojson_lng":11.088678,"geojson_lat":49.247296},"geometry":{"type":"Point","coordinates":[11.088678,49.247296]}},{"type":"Feature","properties":{"SeqNo":"223210","Type":"Q","DHID":"de:09576:8042:0:1","Parent":"de:09576:8042","Name":"1","MunicipalityCode":"00000000","Municipality":"-","DistrictCode":"-","District":"-","Description":"","Authority":"BEG","DelfiName":"-","THID":"-","LastOperationDate":"","SEV":"nein","longitude":"11,088606","latitude":"49,247278","geojson_lng":11.088606,"geojson_lat":49.247278},"geometry":{"type":"Point","coordinates":[11.088606,49.247278]}},{"type":"Feature","properties":{"SeqNo":"223211","Type":"Q","DHID":"de:09576:8042:0:2","Parent":"de:09576:8042","Name":"2","MunicipalityCode":"00000000","Municipality":"-","DistrictCode":"-","District":"-","Description":"","Authority":"BEG","DelfiName":"-","THID":"-","LastOperationDate":"","SEV":"nein","longitude":"11,088678","latitude":"49,247296","geojson_lng":11.088678,"geojson_lat":49.247296},"geometry":{"type":"Point","coordinates":[11.088678,49.247296]}},{"type":"Feature","properties":{"SeqNo":"223236","Type":"S","DHID":"de:09576:8054","Parent":"de:09576:8054","Name":"Roth Stieberstr.","MunicipalityCode":"09576143","Municipality":"Roth","DistrictCode":"","District":"","Description":"","Authority":"BEG","DelfiName":"-","THID":"D92568001F76","LastOperationDate":"2025-06-06T00:00:00","SEV":"nein","longitude":"11,089774","latitude":"49,246493","geojson_lng":11.089774,"geojson_lat":49.246493},"geometry":{"type":"Point","coordinates":[11.089774,49.246493]}},{"type":"Feature","properties":{"SeqNo":"223237","Type":"Q","DHID":"de:09576:8054:0:1","Parent":"de:09576:8054","Name":"1","MunicipalityCode":"00000000","Municipality":"-","DistrictCode":"-","District":"-","Description":"","Authority":"BEG","DelfiName":"-","THID":"-","LastOperationDate":"","SEV":"nein","longitude":"11,089864","latitude":"49,246803","geojson_lng":11.089864,"geojson_lat":49.246803},"geometry":{"type":"Point","coordinates":[11.089864,49.246803]}},{"type":"Feature","properties":{"SeqNo":"223257","Type":"S","DHID":"de:09576:8061","Parent":"de:09576:8061","Name":"Roth Willy-Supf-Platz","MunicipalityCode":"09576143","Municipality":"Roth","DistrictCode":"","District":"","Description":"","Authority":"BEG","DelfiName":"-","THID":"D92568001F7D","LastOperationDate":"2025-02-28T00:00:00","SEV":"nein","longitude":"11,090196","latitude":"49,248938","geojson_lng":11.090196,"geojson_lat":49.248938},"geometry":{"type":"Point","coordinates":[11.090196,49.248938]}},{"type":"Feature","properties":{"SeqNo":"223258","Type":"Q","DHID":"de:09576:8061:0:1","Parent":"de:09576:8061","Name":"1","MunicipalityCode":"00000000","Municipality":"-","DistrictCode":"-","District":"-","Description":"","Authority":"BEG","DelfiName":"-","THID":"-","LastOperationDate":"","SEV":"nein","longitude":"11,090017","latitude":"49,248961","geojson_lng":11.090017,"geojson_lat":49.248961},"geometry":{"type":"Point","coordinates":[11.090017,49.248961]}},{"type":"Feature","properties":{"SeqNo":"223259","Type":"Q","DHID":"de:09576:8061:0:2","Parent":"de:09576:8061","Name":"2","MunicipalityCode":"00000000","Municipality":"-","DistrictCode":"-","District":"-","Description":"","Authority":"BEG","DelfiName":"-","THID":"-","LastOperationDate":"","SEV":"nein","longitude":"11,090214","latitude":"49,248997","geojson_lng":11.090214,"geojson_lat":49.248997},"geometry":{"type":"Point","coordinates":[11.090214,49.248997]}},{"type":"Feature","properties":{"SeqNo":"223260","Type":"S","DHID":"de:09576:8062","Parent":"de:09576:8062","Name":"Roth Rothm端hl-Passagen","MunicipalityCode":"09576143","Municipality":"Roth","DistrictCode":"","District":"","Description":"","Authority":"BEG","DelfiName":"-","THID":"D92568001F7E","LastOperationDate":"2025-02-28T00:00:00","SEV":"nein","longitude":"11,091921","latitude":"49,249472","geojson_lng":11.091921,"geojson_lat":49.249472},"geometry":{"type":"Point","coordinates":[11.091921,49.249472]}},{"type":"Feature","properties":{"SeqNo":"223261","Type":"Q","DHID":"de:09576:8062:0:1","Parent":"de:09576:8062","Name":"1","MunicipalityCode":"00000000","Municipality":"-","DistrictCode":"-","District":"-","Description":"","Authority":"BEG","DelfiName":"-","THID":"-","LastOperationDate":"","SEV":"nein","longitude":"11,091921","latitude":"49,249401","geojson_lng":11.091921,"geojson_lat":49.249401},"geometry":{"type":"Point","coordinates":[11.091921,49.249401]}},{"type":"Feature","properties":{"SeqNo":"223262","Type":"Q","DHID":"de:09576:8062:0:2","Parent":"de:09576:8062","Name":"2","MunicipalityCode":"00000000","Municipality":"-","DistrictCode":"-","District":"-","Description":"","Authority":"BEG","DelfiName":"-","THID":"-","LastOperationDate":"","SEV":"nein","longitude":"11,091921","latitude":"49,249472","geojson_lng":11.091921,"geojson_lat":49.249472},"geometry":{"type":"Point","coordinates":[11.091921,49.249472]}},{"type":"Feature","properties":{"SeqNo":"223339","Type":"S","DHID":"de:09576:8090","Parent":"de:09576:8090","Name":"Roth Marktplatz","MunicipalityCode":"09576143","Municipality":"Roth","DistrictCode":"","District":"","Description":"","Authority":"BEG","DelfiName":"-","THID":"D92568001F9A","LastOperationDate":"2025-02-28T00:00:00","SEV":"nein","longitude":"11,090906","latitude":"49,246991","geojson_lng":11.090906,"geojson_lat":49.246991},"geometry":{"type":"Point","coordinates":[11.090906,49.246991]}},{"type":"Feature","properties":{"SeqNo":"223340","Type":"Q","DHID":"de:09576:8090:0:1","Parent":"de:09576:8090","Name":"1","MunicipalityCode":"00000000","Municipality":"-","DistrictCode":"-","District":"-","Description":"","Authority":"BEG","DelfiName":"-","THID":"-","LastOperationDate":"","SEV":"nein","longitude":"11,091014","latitude":"49,247026","geojson_lng":11.091014,"geojson_lat":49.247026},"geometry":{"type":"Point","coordinates":[11.091014,49.247026]}},{"type":"Feature","properties":{"SeqNo":"223341","Type":"Q","DHID":"de:09576:8090:0:2","Parent":"de:09576:8090","Name":"2","MunicipalityCode":"00000000","Municipality":"-","DistrictCode":"-","District":"-","Description":"","Authority":"BEG","DelfiName":"-","THID":"-","LastOperationDate":"","SEV":"nein","longitude":"11,090906","latitude":"49,246991","geojson_lng":11.090906,"geojson_lat":49.246991},"geometry":{"type":"Point","coordinates":[11.090906,49.246991]}},{"type":"Feature","properties":{"SeqNo":"223345","Type":"S","DHID":"de:09576:8092","Parent":"de:09576:8092","Name":"Roth Unteres Tor","MunicipalityCode":"09576143","Municipality":"Roth","DistrictCode":"","District":"","Description":"","Authority":"BEG","DelfiName":"-","THID":"D92568001F9C","LastOperationDate":"2024-12-07T00:00:00","SEV":"nein","longitude":"11,090843","latitude":"49,247988","geojson_lng":11.090843,"geojson_lat":49.247988},"geometry":{"type":"Point","coordinates":[11.090843,49.247988]}},{"type":"Feature","properties":{"SeqNo":"223346","Type":"Q","DHID":"de:09576:8092:0:1","Parent":"de:09576:8092","Name":"1","MunicipalityCode":"00000000","Municipality":"-","DistrictCode":"-","District":"-","Description":"","Authority":"BEG","DelfiName":"-","THID":"-","LastOperationDate":"","SEV":"nein","longitude":"11,090888","latitude":"49,248076","geojson_lng":11.090888,"geojson_lat":49.248076},"geometry":{"type":"Point","coordinates":[11.090888,49.248076]}},{"type":"Feature","properties":{"SeqNo":"223347","Type":"Q","DHID":"de:09576:8092:0:2","Parent":"de:09576:8092","Name":"2","MunicipalityCode":"00000000","Municipality":"-","DistrictCode":"-","District":"-","Description":"","Authority":"BEG","DelfiName":"-","THID":"-","LastOperationDate":"","SEV":"nein","longitude":"11,090843","latitude":"49,247988","geojson_lng":11.090843,"geojson_lat":49.247988},"geometry":{"type":"Point","coordinates":[11.090843,49.247988]}},{"type":"Feature","properties":{"SeqNo":"223354","Type":"S","DHID":"de:09576:8095","Parent":"de:09576:8095","Name":"Roth Sieh-Dich-F端r-Weg","MunicipalityCode":"09576143","Municipality":"Roth","DistrictCode":"-","District":"-","Description":"","Authority":"BEG","DelfiName":"-","THID":"D92568001F9F","LastOperationDate":"2024-12-07T00:00:00","SEV":"nein","longitude":"11,092056","latitude":"49,24817","geojson_lng":11.092056,"geojson_lat":49.24817},"geometry":{"type":"Point","coordinates":[11.092056,49.24817]}},{"type":"Feature","properties":{"SeqNo":"223355","Type":"Q","DHID":"de:09576:8095:0:1","Parent":"de:09576:8095","Name":"1","MunicipalityCode":"00000000","Municipality":"-","DistrictCode":"-","District":"-","Description":"1","Authority":"BEG","DelfiName":"-","THID":"-","LastOperationDate":"","SEV":"nein","longitude":"11,092065","latitude":"49,248152","geojson_lng":11.092065,"geojson_lat":49.248152},"geometry":{"type":"Point","coordinates":[11.092065,49.248152]}},{"type":"Feature","properties":{"SeqNo":"223428","Type":"Q","DHID":"de:09576:8120:0:2","Parent":"de:09576:8120","Name":"2","MunicipalityCode":"00000000","Municipality":"-","DistrictCode":"-","District":"-","Description":"","Authority":"BEG","DelfiName":"-","THID":"-","LastOperationDate":"","SEV":"nein","longitude":"11,085273","latitude":"49,246194","geojson_lng":11.085273,"geojson_lat":49.246194},"geometry":{"type":"Point","coordinates":[11.085273,49.246194]}}]}