{"type":"FeatureCollection","features":[{"type":"Feature","properties":{"SeqNo":"850099","Type":"S","DHID":"de:14626:8217","Parent":"de:14626:8217","Name":"Gablenz Feuerwehr","MunicipalityCode":"14626100","Municipality":"Gablenz","DistrictCode":"","District":"","Description":"","Authority":"VVO","DelfiName":"-","THID":"D93922002019","LastOperationDate":"2025-06-14T00:00:00","SEV":"nein","longitude":"14,663802","latitude":"51,534211","geojson_lng":14.663802,"geojson_lat":51.534211},"geometry":{"type":"Point","coordinates":[14.663802,51.534211]}},{"type":"Feature","properties":{"SeqNo":"850100","Type":"Q","DHID":"de:14626:8217:0:1","Parent":"de:14626:8217","Name":"1 - Ri. Kromlau","MunicipalityCode":"00000000","Municipality":"-","DistrictCode":"-","District":"-","Description":"","Authority":"VVO","DelfiName":"-","THID":"-","LastOperationDate":"","SEV":"nein","longitude":"14,663793","latitude":"51,53425","geojson_lng":14.663793,"geojson_lat":51.53425},"geometry":{"type":"Point","coordinates":[14.663793,51.53425]}},{"type":"Feature","properties":{"SeqNo":"850101","Type":"Q","DHID":"de:14626:8217:0:2","Parent":"de:14626:8217","Name":"2 - Ri. Weißwasser/Bad Muskau","MunicipalityCode":"00000000","Municipality":"-","DistrictCode":"-","District":"-","Description":"","Authority":"VVO","DelfiName":"-","THID":"-","LastOperationDate":"","SEV":"nein","longitude":"14,66382","latitude":"51,534177","geojson_lng":14.66382,"geojson_lat":51.534177},"geometry":{"type":"Point","coordinates":[14.66382,51.534177]}},{"type":"Feature","properties":{"SeqNo":"850102","Type":"S","DHID":"de:14626:8218","Parent":"de:14626:8218","Name":"Gablenz Friedhof","MunicipalityCode":"14626100","Municipality":"Gablenz","DistrictCode":"","District":"","Description":"","Authority":"VVO","DelfiName":"-","THID":"D9392200201A","LastOperationDate":"2025-06-14T00:00:00","SEV":"nein","longitude":"14,659131","latitude":"51,52969","geojson_lng":14.659131,"geojson_lat":51.52969},"geometry":{"type":"Point","coordinates":[14.659131,51.52969]}},{"type":"Feature","properties":{"SeqNo":"850103","Type":"Q","DHID":"de:14626:8218:0:1","Parent":"de:14626:8218","Name":"1 - Ri. Kromlau","MunicipalityCode":"00000000","Municipality":"-","DistrictCode":"-","District":"-","Description":"","Authority":"VVO","DelfiName":"-","THID":"-","LastOperationDate":"","SEV":"nein","longitude":"14,659176","latitude":"51,529634","geojson_lng":14.659176,"geojson_lat":51.529634},"geometry":{"type":"Point","coordinates":[14.659176,51.529634]}},{"type":"Feature","properties":{"SeqNo":"850104","Type":"Q","DHID":"de:14626:8218:0:2","Parent":"de:14626:8218","Name":"2 - Ri. Weißwasser","MunicipalityCode":"00000000","Municipality":"-","DistrictCode":"-","District":"-","Description":"","Authority":"VVO","DelfiName":"-","THID":"-","LastOperationDate":"","SEV":"nein","longitude":"14,659086","latitude":"51,529751","geojson_lng":14.659086,"geojson_lat":51.529751},"geometry":{"type":"Point","coordinates":[14.659086,51.529751]}}]}