{"type":"FeatureCollection","features":[{"type":"Feature","properties":{"SeqNo":"535699","Type":"S","DHID":"de:05154:35603","Parent":"de:05154:35603","Name":"Goch Herzogenstraße","MunicipalityCode":"05154016","Municipality":"Goch","DistrictCode":"","District":"","Description":"","Authority":"VRR","DelfiName":"-","THID":"D91422008B13","LastOperationDate":"2025-06-14T00:00:00","SEV":"nein","longitude":"6,159981","latitude":"51,675205","geojson_lng":6.159981,"geojson_lat":51.675205},"geometry":{"type":"Point","coordinates":[6.159981,51.675205]}},{"type":"Feature","properties":{"SeqNo":"535700","Type":"Q","DHID":"de:05154:35603:0:1","Parent":"de:05154:35603","Name":"Steintor","MunicipalityCode":"00000000","Municipality":"-","DistrictCode":"-","District":"-","Description":"","Authority":"VRR","DelfiName":"-","THID":"-","LastOperationDate":"","SEV":"nein","longitude":"6,160449","latitude":"51,675121","geojson_lng":6.160449,"geojson_lat":51.675121},"geometry":{"type":"Point","coordinates":[6.160449,51.675121]}},{"type":"Feature","properties":{"SeqNo":"535703","Type":"S","DHID":"de:05154:35605","Parent":"de:05154:35605","Name":"Goch Markt","MunicipalityCode":"05154016","Municipality":"Goch","DistrictCode":"","District":"","Description":"","Authority":"VRR","DelfiName":"-","THID":"D91422008B15","LastOperationDate":"2025-06-14T00:00:00","SEV":"nein","longitude":"6,155041","latitude":"51,676107","geojson_lng":6.155041,"geojson_lat":51.676107},"geometry":{"type":"Point","coordinates":[6.155041,51.676107]}},{"type":"Feature","properties":{"SeqNo":"535704","Type":"Q","DHID":"de:05154:35605:0:1","Parent":"de:05154:35605","Name":"Adolf-Kolping-Straße","MunicipalityCode":"00000000","Municipality":"-","DistrictCode":"-","District":"-","Description":"","Authority":"VRR","DelfiName":"-","THID":"-","LastOperationDate":"","SEV":"nein","longitude":"6,154888","latitude":"51,676335","geojson_lng":6.154888,"geojson_lat":51.676335},"geometry":{"type":"Point","coordinates":[6.154888,51.676335]}},{"type":"Feature","properties":{"SeqNo":"535708","Type":"S","DHID":"de:05154:35608","Parent":"de:05154:35608","Name":"Goch Steintor","MunicipalityCode":"05154016","Municipality":"Goch","DistrictCode":"","District":"","Description":"","Authority":"VRR","DelfiName":"-","THID":"D91422008B18","LastOperationDate":"2025-06-14T00:00:00","SEV":"nein","longitude":"6,15867","latitude":"51,67638","geojson_lng":6.15867,"geojson_lat":51.67638},"geometry":{"type":"Point","coordinates":[6.15867,51.67638]}},{"type":"Feature","properties":{"SeqNo":"535709","Type":"Q","DHID":"de:05154:35608:0:1","Parent":"de:05154:35608","Name":"Bahnhof","MunicipalityCode":"00000000","Municipality":"-","DistrictCode":"-","District":"-","Description":"","Authority":"VRR","DelfiName":"-","THID":"-","LastOperationDate":"","SEV":"nein","longitude":"6,158706","latitude":"51,676291","geojson_lng":6.158706,"geojson_lat":51.676291},"geometry":{"type":"Point","coordinates":[6.158706,51.676291]}},{"type":"Feature","properties":{"SeqNo":"535716","Type":"S","DHID":"de:05154:35612","Parent":"de:05154:35612","Name":"Goch Voßtor","MunicipalityCode":"05154016","Municipality":"Goch","DistrictCode":"","District":"","Description":"","Authority":"VRR","DelfiName":"-","THID":"D91422008B1C","LastOperationDate":"2025-06-14T00:00:00","SEV":"nein","longitude":"6,163314","latitude":"51,674168","geojson_lng":6.163314,"geojson_lat":51.674168},"geometry":{"type":"Point","coordinates":[6.163314,51.674168]}},{"type":"Feature","properties":{"SeqNo":"536993","Type":"S","DHID":"de:05154:36073","Parent":"de:05154:36073","Name":"Goch Adolf-Kolping-Str.","MunicipalityCode":"05154016","Municipality":"Goch","DistrictCode":"","District":"","Description":"","Authority":"VRR","DelfiName":"-","THID":"D91422008CE9","LastOperationDate":"2025-06-14T00:00:00","SEV":"nein","longitude":"6,153819","latitude":"51,676608","geojson_lng":6.153819,"geojson_lat":51.676608},"geometry":{"type":"Point","coordinates":[6.153819,51.676608]}},{"type":"Feature","properties":{"SeqNo":"536994","Type":"Q","DHID":"de:05154:36073:0:1","Parent":"de:05154:36073","Name":"Gesamtschule/Frauentorplatz","MunicipalityCode":"00000000","Municipality":"-","DistrictCode":"-","District":"-","Description":"","Authority":"VRR","DelfiName":"-","THID":"-","LastOperationDate":"","SEV":"nein","longitude":"6,153738","latitude":"51,676603","geojson_lng":6.153738,"geojson_lat":51.676603},"geometry":{"type":"Point","coordinates":[6.153738,51.676603]}},{"type":"Feature","properties":{"SeqNo":"537519","Type":"S","DHID":"de:05154:37364","Parent":"de:05154:37364","Name":"Goch Arnold-Janssen-Schule","MunicipalityCode":"05154016","Municipality":"Goch","DistrictCode":"","District":"","Description":"","Authority":"VRR","DelfiName":"-","THID":"D914220091F4","LastOperationDate":"1999-12-31T00:00:00","SEV":"nein","longitude":"6,152678","latitude":"51,676419","geojson_lng":6.152678,"geojson_lat":51.676419},"geometry":{"type":"Point","coordinates":[6.152678,51.676419]}},{"type":"Feature","properties":{"SeqNo":"537520","Type":"Q","DHID":"de:05154:37364:0:1","Parent":"de:05154:37364","Name":"Alle Richtungen","MunicipalityCode":"00000000","Municipality":"-","DistrictCode":"-","District":"-","Description":"","Authority":"VRR","DelfiName":"-","THID":"-","LastOperationDate":"","SEV":"nein","longitude":"6,152552","latitude":"51,676475","geojson_lng":6.152552,"geojson_lat":51.676475},"geometry":{"type":"Point","coordinates":[6.152552,51.676475]}}]}