{"type":"FeatureCollection","features":[{"type":"Feature","properties":{"highway":"bus_stop","public_transport":"platform","name":"Oudenhoorn","ref:IFOPT":"NL:Q:52660040","_quaycode":"NL:Q:52660040","_town":"Oudenhoorn","_status":"available","_mode":"bus","_direction":295,"_visuallyAccessible":false,"_disabledAccessible":true,"geojson_lng":4.18960182017067,"geojson_lat":51.82984943262541},"geometry":{"type":"Point","coordinates":[4.18960182017067,51.82984943262541]}},{"type":"Feature","properties":{"highway":"bus_stop","public_transport":"platform","name":"Ruigendijk","ref:IFOPT":"NL:Q:52660020","_quaycode":"NL:Q:52660020","_town":"Oudenhoorn","_status":"available","_mode":"bus","_direction":235,"_visuallyAccessible":false,"_disabledAccessible":false,"geojson_lng":4.218835774346056,"geojson_lat":51.8270608137356},"geometry":{"type":"Point","coordinates":[4.218835774346056,51.8270608137356]}},{"type":"Feature","properties":{"highway":"bus_stop","public_transport":"platform","name":"Vlasakkerlaan","ref:IFOPT":"NL:Q:52760170","_quaycode":"NL:Q:52760170","_town":"Hellevoetsluis","_status":"available","_mode":"bus","_direction":60,"_visuallyAccessible":false,"_disabledAccessible":true,"geojson_lng":4.138958795608706,"geojson_lat":51.82388322261111},"geometry":{"type":"Point","coordinates":[4.138958795608706,51.82388322261111]}},{"type":"Feature","properties":{"highway":"bus_stop","public_transport":"platform","name":"Dorp","ref:IFOPT":"NL:Q:75580080","_quaycode":"NL:Q:75580080","_town":"Dreischor","_status":"available","_mode":"bus","_direction":312,"_visuallyAccessible":false,"_disabledAccessible":false,"geojson_lng":3.9810200453857183,"geojson_lat":51.68821490206693},"geometry":{"type":"Point","coordinates":[3.9810200453857183,51.68821490206693]}},{"type":"Feature","properties":{"highway":"bus_stop","public_transport":"platform","name":"Vlasakkerlaan","ref:IFOPT":"NL:Q:52760240","_quaycode":"NL:Q:52760240","_town":"Hellevoetsluis","_status":"available","_mode":"bus","_direction":240,"_visuallyAccessible":false,"_disabledAccessible":true,"geojson_lng":4.138626738199014,"geojson_lat":51.823825754461126},"geometry":{"type":"Point","coordinates":[4.138626738199014,51.823825754461126]}},{"type":"Feature","properties":{"highway":"bus_stop","public_transport":"platform","name":"De Sprong","ref:IFOPT":"NL:Q:52760180","_quaycode":"NL:Q:52760180","_town":"Hellevoetsluis","_status":"available","_mode":"bus","_direction":313,"_visuallyAccessible":true,"_disabledAccessible":true,"geojson_lng":4.1503139968651634,"geojson_lat":51.83246234647451},"geometry":{"type":"Point","coordinates":[4.1503139968651634,51.83246234647451]}},{"type":"Feature","properties":{"highway":"bus_stop","public_transport":"platform","name":"Ebstroom","ref:IFOPT":"NL:Q:52760100","_quaycode":"NL:Q:52760100","_town":"Hellevoetsluis","_status":"available","_mode":"bus","_direction":263,"_visuallyAccessible":false,"_disabledAccessible":false,"geojson_lng":4.1537801300874895,"geojson_lat":51.82457030276254},"geometry":{"type":"Point","coordinates":[4.1537801300874895,51.82457030276254]}},{"type":"Feature","properties":{"highway":"bus_stop","public_transport":"platform","name":"Hoonaartstraat","ref:IFOPT":"NL:Q:52760340","_quaycode":"NL:Q:52760340","_town":"Hellevoetsluis","_status":"available","_mode":"bus","_direction":35,"_visuallyAccessible":false,"_disabledAccessible":false,"geojson_lng":4.13336091005664,"geojson_lat":51.836858002180456},"geometry":{"type":"Point","coordinates":[4.13336091005664,51.836858002180456]}},{"type":"Feature","properties":{"highway":"bus_stop","public_transport":"platform","name":"Wellestrijpsedijk","ref:IFOPT":"NL:Q:74410060","_quaycode":"NL:Q:74410060","_town":"Herkingen","_status":"available","_mode":"bus","_direction":288,"_visuallyAccessible":false,"_disabledAccessible":false,"geojson_lng":4.093308812943927,"geojson_lat":51.7156507906255},"geometry":{"type":"Point","coordinates":[4.093308812943927,51.7156507906255]}},{"type":"Feature","properties":{"highway":"bus_stop","public_transport":"platform","name":"M.L.Kinglaan","ref:IFOPT":"NL:Q:52760430","_quaycode":"NL:Q:52760430","_town":"Hellevoetsluis","_status":"available","_mode":"bus","_direction":77,"_visuallyAccessible":false,"_disabledAccessible":false,"geojson_lng":4.153701388654624,"geojson_lat":51.83910509043857},"geometry":{"type":"Point","coordinates":[4.153701388654624,51.83910509043857]}},{"type":"Feature","properties":{"highway":"bus_stop","public_transport":"platform","name":"Wellestrijpsedijk","ref:IFOPT":"NL:Q:74410050","_quaycode":"NL:Q:74410050","_town":"Herkingen","_status":"available","_mode":"bus","_direction":99,"_visuallyAccessible":false,"_disabledAccessible":false,"geojson_lng":4.093440304607764,"geojson_lat":51.715607295525295},"geometry":{"type":"Point","coordinates":[4.093440304607764,51.715607295525295]}},{"type":"Feature","properties":{"highway":"bus_stop","public_transport":"platform","name":"N215","ref:IFOPT":"NL:Q:74170080","_quaycode":"NL:Q:74170080","_town":"Nieuwe Tonge","_status":"available","_mode":"bus","_direction":139,"_visuallyAccessible":false,"_disabledAccessible":true,"geojson_lng":4.173401953023469,"geojson_lat":51.71918679493148},"geometry":{"type":"Point","coordinates":[4.173401953023469,51.71918679493148]}},{"type":"Feature","properties":{"highway":"bus_stop","public_transport":"platform","name":"Stephensonweg","ref:IFOPT":"NL:Q:52760520","_quaycode":"NL:Q:52760520","_town":"Hellevoetsluis","_status":"available","_mode":"bus","_direction":225,"_visuallyAccessible":false,"_disabledAccessible":false,"geojson_lng":4.16994959008765,"geojson_lat":51.83873535759217},"geometry":{"type":"Point","coordinates":[4.16994959008765,51.83873535759217]}},{"type":"Feature","properties":{"highway":"bus_stop","public_transport":"platform","name":"Hoonaartstraat","ref:IFOPT":"NL:Q:52760070","_quaycode":"NL:Q:52760070","_town":"Hellevoetsluis","_status":"available","_mode":"bus","_direction":215,"_visuallyAccessible":false,"_disabledAccessible":false,"geojson_lng":4.1332005892733,"geojson_lat":51.83688325729768},"geometry":{"type":"Point","coordinates":[4.1332005892733,51.83688325729768]}},{"type":"Feature","properties":{"highway":"bus_stop","public_transport":"platform","name":"Oudenhoorn","ref:IFOPT":"NL:Q:52660050","_quaycode":"NL:Q:52660050","_town":"Oudenhoorn","_status":"available","_mode":"bus","_direction":115,"_visuallyAccessible":true,"_disabledAccessible":true,"geojson_lng":4.190940807575244,"geojson_lat":51.8291439522922},"geometry":{"type":"Point","coordinates":[4.190940807575244,51.8291439522922]}},{"type":"Feature","properties":{"highway":"bus_stop","public_transport":"platform","name":"N215","ref:IFOPT":"NL:Q:74170091","_quaycode":"NL:Q:74170091","_town":"Nieuwe Tonge","_status":"available","_mode":"bus","_direction":250,"_visuallyAccessible":false,"_disabledAccessible":false,"geojson_lng":4.173065550038186,"geojson_lat":51.719318149337866},"geometry":{"type":"Point","coordinates":[4.173065550038186,51.719318149337866]}},{"type":"Feature","properties":{"highway":"bus_stop","public_transport":"platform","name":"Busstation","ref:IFOPT":"NL:Q:74000012","_quaycode":"NL:Q:74000012","_town":"Oude-Tonge","_status":"available","_mode":"bus","_direction":298,"_visuallyAccessible":true,"_disabledAccessible":true,"geojson_lng":4.212387827094968,"geojson_lat":51.69594236803248},"geometry":{"type":"Point","coordinates":[4.212387827094968,51.69594236803248]}},{"type":"Feature","properties":{"highway":"bus_stop","public_transport":"platform","name":"Binnenhof","ref:IFOPT":"NL:Q:74270180","_quaycode":"NL:Q:74270180","_town":"Middelharnis","_status":"available","_mode":"bus","_direction":303,"_visuallyAccessible":false,"_disabledAccessible":false,"geojson_lng":4.188418321501306,"geojson_lat":51.76362264203259},"geometry":{"type":"Point","coordinates":[4.188418321501306,51.76362264203259]}},{"type":"Feature","properties":{"highway":"bus_stop","public_transport":"platform","name":"Gemeentehuis","ref:IFOPT":"NL:Q:74270050","_quaycode":"NL:Q:74270050","_town":"Middelharnis","_status":"available","_mode":"bus","_direction":256,"_visuallyAccessible":true,"_disabledAccessible":true,"geojson_lng":4.160349691023014,"geojson_lat":51.755358767591304},"geometry":{"type":"Point","coordinates":[4.160349691023014,51.755358767591304]}},{"type":"Feature","properties":{"highway":"bus_stop","public_transport":"platform","name":"Hernesseroord","ref:IFOPT":"NL:Q:74270170","_quaycode":"NL:Q:74270170","_town":"Middelharnis","_status":"available","_mode":"bus","_direction":241,"_visuallyAccessible":false,"_disabledAccessible":false,"geojson_lng":4.182847650754037,"geojson_lat":51.75956532243401},"geometry":{"type":"Point","coordinates":[4.182847650754037,51.75956532243401]}},{"type":"Feature","properties":{"highway":"bus_stop","public_transport":"platform","name":"Zuid","ref:IFOPT":"NL:Q:74270130","_quaycode":"NL:Q:74270130","_town":"Sommelsdijk","_status":"available","_mode":"bus","_direction":262,"_visuallyAccessible":true,"_disabledAccessible":true,"geojson_lng":4.151837705565664,"geojson_lat":51.754846349810684},"geometry":{"type":"Point","coordinates":[4.151837705565664,51.754846349810684]}},{"type":"Feature","properties":{"highway":"bus_stop","public_transport":"platform","name":"Prinsessestraat","ref:IFOPT":"NL:Q:74170110","_quaycode":"NL:Q:74170110","_town":"Nieuwe Tonge","_status":"available","_mode":"bus","_direction":108,"_visuallyAccessible":false,"_disabledAccessible":false,"geojson_lng":4.162977263212006,"geojson_lat":51.71506908265416},"geometry":{"type":"Point","coordinates":[4.162977263212006,51.71506908265416]}},{"type":"Feature","properties":{"highway":"bus_stop","public_transport":"platform","name":"Busstation","ref:IFOPT":"NL:Q:74000021","_quaycode":"NL:Q:74000021","_town":"Oude-Tonge","_status":"available","_mode":"bus","_direction":297,"_visuallyAccessible":true,"_disabledAccessible":true,"geojson_lng":4.212683358232432,"geojson_lat":51.695702620975965},"geometry":{"type":"Point","coordinates":[4.212683358232432,51.695702620975965]}},{"type":"Feature","properties":{"highway":"bus_stop","public_transport":"platform","name":"Centrum","ref:IFOPT":"NL:Q:74270060","_quaycode":"NL:Q:74270060","_town":"Middelharnis","_status":"available","_mode":"bus","_direction":276,"_visuallyAccessible":true,"_disabledAccessible":true,"geojson_lng":4.1598373790872465,"geojson_lat":51.760351464099514},"geometry":{"type":"Point","coordinates":[4.1598373790872465,51.760351464099514]}},{"type":"Feature","properties":{"highway":"bus_stop","public_transport":"platform","name":"Molen","ref:IFOPT":"NL:Q:74170010","_quaycode":"NL:Q:74170010","_town":"Nieuwe Tonge","_status":"available","_mode":"bus","_direction":236,"_visuallyAccessible":false,"_disabledAccessible":false,"geojson_lng":4.167759690960328,"geojson_lat":51.71696177456812},"geometry":{"type":"Point","coordinates":[4.167759690960328,51.71696177456812]}},{"type":"Feature","properties":{"highway":"bus_stop","public_transport":"platform","name":"Gemeentehuis","ref:IFOPT":"NL:Q:74270040","_quaycode":"NL:Q:74270040","_town":"Middelharnis","_status":"available","_mode":"bus","_direction":76,"_visuallyAccessible":true,"_disabledAccessible":true,"geojson_lng":4.160885706908461,"geojson_lat":51.7553553867143},"geometry":{"type":"Point","coordinates":[4.160885706908461,51.7553553867143]}},{"type":"Feature","properties":{"highway":"bus_stop","public_transport":"platform","name":"Faunapark","ref:IFOPT":"NL:Q:74170120","_quaycode":"NL:Q:74170120","_town":"Nieuwe Tonge","_status":"available","_mode":"bus","_direction":294,"_visuallyAccessible":false,"_disabledAccessible":false,"geojson_lng":4.143049660904521,"geojson_lat":51.71770878525498},"geometry":{"type":"Point","coordinates":[4.143049660904521,51.71770878525498]}},{"type":"Feature","properties":{"highway":"bus_stop","public_transport":"platform","name":"Binnenweg","ref:IFOPT":"NL:Q:74270251","_quaycode":"NL:Q:74270251","_town":"Sommelsdijk","_status":"available","_mode":"bus","_direction":150,"_visuallyAccessible":false,"_disabledAccessible":false,"geojson_lng":4.155046803350583,"geojson_lat":51.75966297168676},"geometry":{"type":"Point","coordinates":[4.155046803350583,51.75966297168676]}},{"type":"Feature","properties":{"highway":"bus_stop","public_transport":"platform","name":"Doetinchemsestraat","ref:IFOPT":"NL:Q:74270070","_quaycode":"NL:Q:74270070","_town":"Middelharnis","_status":"available","_mode":"bus","_direction":146,"_visuallyAccessible":false,"_disabledAccessible":true,"geojson_lng":4.165051149072135,"geojson_lat":51.75343921719729},"geometry":{"type":"Point","coordinates":[4.165051149072135,51.75343921719729]}},{"type":"Feature","properties":{"highway":"bus_stop","public_transport":"platform","name":"Noord","ref:IFOPT":"NL:Q:74270080","_quaycode":"NL:Q:74270080","_town":"Sommelsdijk","_status":"available","_mode":"bus","_direction":273,"_visuallyAccessible":true,"_disabledAccessible":true,"geojson_lng":4.150499435420792,"geojson_lat":51.76120620118854},"geometry":{"type":"Point","coordinates":[4.150499435420792,51.76120620118854]}},{"type":"Feature","properties":{"highway":"bus_stop","public_transport":"platform","name":"Molen","ref:IFOPT":"NL:Q:74170040","_quaycode":"NL:Q:74170040","_town":"Nieuwe Tonge","_status":"available","_mode":"bus","_direction":60,"_visuallyAccessible":false,"_disabledAccessible":false,"geojson_lng":4.1678911154509795,"geojson_lat":51.716918195705766},"geometry":{"type":"Point","coordinates":[4.1678911154509795,51.716918195705766]}},{"type":"Feature","properties":{"highway":"bus_stop","public_transport":"platform","name":"Wentinkstraat","ref:IFOPT":"NL:Q:74170030","_quaycode":"NL:Q:74170030","_town":"Nieuwe Tonge","_status":"available","_mode":"bus","_direction":285,"_visuallyAccessible":false,"_disabledAccessible":false,"geojson_lng":4.168536253615529,"geojson_lat":51.71231337502649},"geometry":{"type":"Point","coordinates":[4.168536253615529,51.71231337502649]}},{"type":"Feature","properties":{"highway":"bus_stop","public_transport":"platform","name":"Binnenweg","ref:IFOPT":"NL:Q:74270290","_quaycode":"NL:Q:74270290","_town":"Sommelsdijk","_status":"available","_mode":"bus","_direction":330,"_visuallyAccessible":false,"_disabledAccessible":false,"geojson_lng":4.15502177496009,"geojson_lat":51.76004924940241},"geometry":{"type":"Point","coordinates":[4.15502177496009,51.76004924940241]}},{"type":"Feature","properties":{"highway":"bus_stop","public_transport":"platform","name":"Doetinchemsestraat","ref:IFOPT":"NL:Q:74270020","_quaycode":"NL:Q:74270020","_town":"Middelharnis","_status":"available","_mode":"bus","_direction":319,"_visuallyAccessible":false,"_disabledAccessible":true,"geojson_lng":4.165465821005694,"geojson_lat":51.753101945862504},"geometry":{"type":"Point","coordinates":[4.165465821005694,51.753101945862504]}},{"type":"Feature","properties":{"highway":"bus_stop","public_transport":"platform","name":"Zuid","ref:IFOPT":"NL:Q:74270140","_quaycode":"NL:Q:74270140","_town":"Sommelsdijk","_status":"available","_mode":"bus","_direction":87,"_visuallyAccessible":true,"_disabledAccessible":true,"geojson_lng":4.1519513968274,"geojson_lat":51.75473121463154},"geometry":{"type":"Point","coordinates":[4.1519513968274,51.75473121463154]}},{"type":"Feature","properties":{"highway":"bus_stop","public_transport":"platform","name":"Busstation","ref:IFOPT":"NL:Q:74000023","_quaycode":"NL:Q:74000023","_town":"Oude-Tonge","_status":"available","_mode":"bus","_direction":133,"_visuallyAccessible":false,"_disabledAccessible":false,"geojson_lng":4.2125146985931075,"geojson_lat":51.69595375785889},"geometry":{"type":"Point","coordinates":[4.2125146985931075,51.69595375785889]}},{"type":"Feature","properties":{"highway":"bus_stop","public_transport":"platform","name":"Centrum","ref:IFOPT":"NL:Q:74270030","_quaycode":"NL:Q:74270030","_town":"Middelharnis","_status":"available","_mode":"bus","_direction":100,"_visuallyAccessible":false,"_disabledAccessible":true,"geojson_lng":4.160828008556796,"geojson_lat":51.760146087384754},"geometry":{"type":"Point","coordinates":[4.160828008556796,51.760146087384754]}},{"type":"Feature","properties":{"highway":"bus_stop","public_transport":"platform","name":"Busstation","ref:IFOPT":"NL:Q:74000010","_quaycode":"NL:Q:74000010","_town":"Oude-Tonge","_status":"available","_mode":"bus","_direction":114,"_visuallyAccessible":true,"_disabledAccessible":true,"geojson_lng":4.212838934101605,"geojson_lat":51.69583902047526},"geometry":{"type":"Point","coordinates":[4.212838934101605,51.69583902047526]}},{"type":"Feature","properties":{"highway":"bus_stop","public_transport":"platform","name":"N215","ref:IFOPT":"NL:Q:74170090","_quaycode":"NL:Q:74170090","_town":"Nieuwe Tonge","_status":"available","_mode":"bus","_direction":333,"_visuallyAccessible":false,"_disabledAccessible":true,"geojson_lng":4.173108927272673,"geojson_lat":51.72039731866024},"geometry":{"type":"Point","coordinates":[4.173108927272673,51.72039731866024]}},{"type":"Feature","properties":{"highway":"bus_stop","public_transport":"platform","name":"N215","ref:IFOPT":"NL:Q:74170081","_quaycode":"NL:Q:74170081","_town":"Nieuwe Tonge","_status":"available","_mode":"bus","_direction":261,"_visuallyAccessible":false,"_disabledAccessible":false,"geojson_lng":4.173795981413901,"geojson_lat":51.71960438559886},"geometry":{"type":"Point","coordinates":[4.173795981413901,51.71960438559886]}},{"type":"Feature","properties":{"highway":"bus_stop","public_transport":"platform","name":"Noord","ref:IFOPT":"NL:Q:74270010","_quaycode":"NL:Q:74270010","_town":"Sommelsdijk","_status":"available","_mode":"bus","_direction":95,"_visuallyAccessible":true,"_disabledAccessible":true,"geojson_lng":4.151155315147027,"geojson_lat":51.76106029943881},"geometry":{"type":"Point","coordinates":[4.151155315147027,51.76106029943881]}},{"type":"Feature","properties":{"highway":"bus_stop","public_transport":"platform","name":"Campus","ref:IFOPT":"NL:Q:74270310","_quaycode":"NL:Q:74270310","_town":"Sommelsdijk","_status":"available","_mode":"bus","_direction":154,"_visuallyAccessible":true,"_disabledAccessible":true,"geojson_lng":4.15958987444384,"geojson_lat":51.751634691157754},"geometry":{"type":"Point","coordinates":[4.15958987444384,51.751634691157754]}},{"type":"Feature","properties":{"highway":"bus_stop","public_transport":"platform","name":"Wentinkstraat","ref:IFOPT":"NL:Q:74170020","_quaycode":"NL:Q:74170020","_town":"Nieuwe Tonge","_status":"available","_mode":"bus","_direction":32,"_visuallyAccessible":false,"_disabledAccessible":false,"geojson_lng":4.1687657810158605,"geojson_lat":51.71238767722777},"geometry":{"type":"Point","coordinates":[4.1687657810158605,51.71238767722777]}},{"type":"Feature","properties":{"highway":"bus_stop","public_transport":"platform","name":"Faunapark","ref:IFOPT":"NL:Q:74170130","_quaycode":"NL:Q:74170130","_town":"Nieuwe Tonge","_status":"available","_mode":"bus","_direction":115,"_visuallyAccessible":false,"_disabledAccessible":false,"geojson_lng":4.143053371212752,"geojson_lat":51.71757398399588},"geometry":{"type":"Point","coordinates":[4.143053371212752,51.71757398399588]}},{"type":"Feature","properties":{"highway":"bus_stop","public_transport":"platform","name":"Prinsessestraat","ref:IFOPT":"NL:Q:74170100","_quaycode":"NL:Q:74170100","_town":"Nieuwe Tonge","_status":"available","_mode":"bus","_direction":289,"_visuallyAccessible":false,"_disabledAccessible":false,"geojson_lng":4.162813253441147,"geojson_lat":51.71524715572769},"geometry":{"type":"Point","coordinates":[4.162813253441147,51.71524715572769]}},{"type":"Feature","properties":{"highway":"bus_stop","public_transport":"platform","name":"Dorp","ref:IFOPT":"NL:Q:74370100","_quaycode":"NL:Q:74370100","_town":"Dirksland","_status":"available","_mode":"bus","_direction":304,"_visuallyAccessible":false,"_disabledAccessible":true,"geojson_lng":4.105253408096722,"geojson_lat":51.748629442291275},"geometry":{"type":"Point","coordinates":[4.105253408096722,51.748629442291275]}},{"type":"Feature","properties":{"highway":"bus_stop","public_transport":"platform","name":"Staakweg","ref:IFOPT":"NL:Q:74370140","_quaycode":"NL:Q:74370140","_town":"Dirksland","_status":"available","_mode":"bus","_direction":342,"_visuallyAccessible":false,"_disabledAccessible":true,"geojson_lng":4.095944409137695,"geojson_lat":51.751556695562456},"geometry":{"type":"Point","coordinates":[4.095944409137695,51.751556695562456]}},{"type":"Feature","properties":{"highway":"bus_stop","public_transport":"platform","name":"Ziekenhuis","ref:IFOPT":"NL:Q:74370030","_quaycode":"NL:Q:74370030","_town":"Dirksland","_status":"available","_mode":"bus","_direction":82,"_visuallyAccessible":false,"_disabledAccessible":true,"geojson_lng":4.099969511812653,"geojson_lat":51.750585162513815},"geometry":{"type":"Point","coordinates":[4.099969511812653,51.750585162513815]}},{"type":"Feature","properties":{"highway":"bus_stop","public_transport":"platform","name":"Dorp","ref:IFOPT":"NL:Q:74370090","_quaycode":"NL:Q:74370090","_town":"Dirksland","_status":"available","_mode":"bus","_direction":124,"_visuallyAccessible":true,"_disabledAccessible":true,"geojson_lng":4.1053763734253765,"geojson_lat":51.748379083744794},"geometry":{"type":"Point","coordinates":[4.1053763734253765,51.748379083744794]}},{"type":"Feature","properties":{"highway":"bus_stop","public_transport":"platform","name":"Ziekenhuis","ref:IFOPT":"NL:Q:74370120","_quaycode":"NL:Q:74370120","_town":"Dirksland","_status":"available","_mode":"bus","_direction":350,"_visuallyAccessible":false,"_disabledAccessible":true,"geojson_lng":4.100008336562284,"geojson_lat":51.75074739825389},"geometry":{"type":"Point","coordinates":[4.100008336562284,51.75074739825389]}},{"type":"Feature","properties":{"highway":"bus_stop","public_transport":"platform","name":"Staakweg","ref:IFOPT":"NL:Q:74370010","_quaycode":"NL:Q:74370010","_town":"Dirksland","_status":"available","_mode":"bus","_direction":162,"_visuallyAccessible":true,"_disabledAccessible":true,"geojson_lng":4.09572362881788,"geojson_lat":51.751680115123925},"geometry":{"type":"Point","coordinates":[4.09572362881788,51.751680115123925]}},{"type":"Feature","properties":{"highway":"bus_stop","public_transport":"platform","name":"Haven","ref:IFOPT":"NL:Q:74410010","_quaycode":"NL:Q:74410010","_town":"Herkingen","_status":"available","_mode":"bus","_direction":220,"_visuallyAccessible":false,"_disabledAccessible":false,"geojson_lng":4.086504440404399,"geojson_lat":51.709705321459566},"geometry":{"type":"Point","coordinates":[4.086504440404399,51.709705321459566]}},{"type":"Feature","properties":{"highway":"bus_stop","public_transport":"platform","name":"Tuindorp","ref:IFOPT":"NL:Q:74410020","_quaycode":"NL:Q:74410020","_town":"Herkingen","_status":"available","_mode":"bus","_direction":210,"_visuallyAccessible":false,"_disabledAccessible":false,"geojson_lng":4.08933934696219,"geojson_lat":51.71223131284649},"geometry":{"type":"Point","coordinates":[4.08933934696219,51.71223131284649]}},{"type":"Feature","properties":{"highway":"bus_stop","public_transport":"platform","name":"Tuindorp","ref:IFOPT":"NL:Q:74410030","_quaycode":"NL:Q:74410030","_town":"Herkingen","_status":"available","_mode":"bus","_direction":40,"_visuallyAccessible":false,"_disabledAccessible":false,"geojson_lng":4.0895701743787995,"geojson_lat":51.71229232915617},"geometry":{"type":"Point","coordinates":[4.0895701743787995,51.71229232915617]}},{"type":"Feature","properties":{"highway":"bus_stop","public_transport":"platform","name":"Tunneltje","ref:IFOPT":"NL:Q:74470050","_quaycode":"NL:Q:74470050","_town":"Melissant","_status":"available","_mode":"bus","_direction":135,"_visuallyAccessible":true,"_disabledAccessible":true,"geojson_lng":4.074610109046803,"geojson_lat":51.773487694442615},"geometry":{"type":"Point","coordinates":[4.074610109046803,51.773487694442615]}},{"type":"Feature","properties":{"highway":"bus_stop","public_transport":"platform","name":"Tunneltje","ref:IFOPT":"NL:Q:74470060","_quaycode":"NL:Q:74470060","_town":"Melissant","_status":"available","_mode":"bus","_direction":323,"_visuallyAccessible":true,"_disabledAccessible":true,"geojson_lng":4.075057484787925,"geojson_lat":51.7730522196001},"geometry":{"type":"Point","coordinates":[4.075057484787925,51.7730522196001]}},{"type":"Feature","properties":{"highway":"bus_stop","public_transport":"platform","name":"Kerkhoek","ref:IFOPT":"NL:Q:74670120","_quaycode":"NL:Q:74670120","_town":"Ouddorp","_status":"available","_mode":"bus","_direction":180,"_visuallyAccessible":false,"_disabledAccessible":true,"geojson_lng":3.942182782377557,"geojson_lat":51.8082485625937},"geometry":{"type":"Point","coordinates":[3.942182782377557,51.8082485625937]}},{"type":"Feature","properties":{"highway":"bus_stop","public_transport":"platform","name":"Busstation","ref:IFOPT":"NL:Q:74570080","_quaycode":"NL:Q:74570080","_town":"Stellendam","_status":"available","_mode":"bus","_direction":359,"_visuallyAccessible":false,"_disabledAccessible":true,"geojson_lng":4.026149879671374,"geojson_lat":51.808727409885535},"geometry":{"type":"Point","coordinates":[4.026149879671374,51.808727409885535]}},{"type":"Feature","properties":{"highway":"bus_stop","public_transport":"platform","name":"Zwembad","ref:IFOPT":"NL:Q:74570060","_quaycode":"NL:Q:74570060","_town":"Stellendam","_status":"available","_mode":"bus","_direction":191,"_visuallyAccessible":false,"_disabledAccessible":false,"geojson_lng":4.028920716649535,"geojson_lat":51.81057932838393},"geometry":{"type":"Point","coordinates":[4.028920716649535,51.81057932838393]}},{"type":"Feature","properties":{"highway":"bus_stop","public_transport":"platform","name":"Groene Weide","ref:IFOPT":"NL:Q:74670010","_quaycode":"NL:Q:74670010","_town":"Ouddorp","_status":"available","_mode":"bus","_direction":76,"_visuallyAccessible":false,"_disabledAccessible":true,"geojson_lng":3.92785880511122,"geojson_lat":51.826490993247134},"geometry":{"type":"Point","coordinates":[3.92785880511122,51.826490993247134]}},{"type":"Feature","properties":{"highway":"bus_stop","public_transport":"platform","name":"Provincialeweg N215","ref:IFOPT":"NL:Q:74570110","_quaycode":"NL:Q:74570110","_town":"Stellendam","_status":"available","_mode":"bus","_direction":119,"_visuallyAccessible":false,"_disabledAccessible":true,"geojson_lng":4.020690677468693,"geojson_lat":51.79837492771201},"geometry":{"type":"Point","coordinates":[4.020690677468693,51.79837492771201]}},{"type":"Feature","properties":{"highway":"bus_stop","public_transport":"platform","name":"Oudelandseweg","ref:IFOPT":"NL:Q:74770120","_quaycode":"NL:Q:74770120","_town":"Ouddorp","_status":"available","_mode":"bus","_direction":135,"_visuallyAccessible":false,"_disabledAccessible":false,"geojson_lng":3.8830318107878816,"geojson_lat":51.7933822178057},"geometry":{"type":"Point","coordinates":[3.8830318107878816,51.7933822178057]}},{"type":"Feature","properties":{"highway":"bus_stop","public_transport":"platform","name":"Busstation","ref:IFOPT":"NL:Q:74570010","_quaycode":"NL:Q:74570010","_town":"Stellendam","_status":"available","_mode":"bus","_direction":205,"_visuallyAccessible":false,"_disabledAccessible":true,"geojson_lng":4.026471252536827,"geojson_lat":51.808609220149975},"geometry":{"type":"Point","coordinates":[4.026471252536827,51.808609220149975]}},{"type":"Feature","properties":{"highway":"bus_stop","public_transport":"platform","name":"Zwembad","ref:IFOPT":"NL:Q:74570050","_quaycode":"NL:Q:74570050","_town":"Stellendam","_status":"available","_mode":"bus","_direction":10,"_visuallyAccessible":false,"_disabledAccessible":false,"geojson_lng":4.029285077709246,"geojson_lat":51.81148249215991},"geometry":{"type":"Point","coordinates":[4.029285077709246,51.81148249215991]}},{"type":"Feature","properties":{"highway":"bus_stop","public_transport":"platform","name":"Oudelandseweg","ref:IFOPT":"NL:Q:74770110","_quaycode":"NL:Q:74770110","_town":"Ouddorp","_status":"available","_mode":"bus","_direction":318,"_visuallyAccessible":false,"_disabledAccessible":false,"geojson_lng":3.883114562201137,"geojson_lat":51.793509135182134},"geometry":{"type":"Point","coordinates":[3.883114562201137,51.793509135182134]}},{"type":"Feature","properties":{"highway":"bus_stop","public_transport":"platform","name":"Klepperstee","ref:IFOPT":"NL:Q:74770060","_quaycode":"NL:Q:74770060","_town":"Ouddorp","_status":"available","_mode":"bus","_direction":253,"_visuallyAccessible":false,"_disabledAccessible":false,"geojson_lng":3.899123626392721,"geojson_lat":51.81711348940895},"geometry":{"type":"Point","coordinates":[3.899123626392721,51.81711348940895]}},{"type":"Feature","properties":{"highway":"bus_stop","public_transport":"platform","name":"Provincialeweg N215","ref:IFOPT":"NL:Q:74570120","_quaycode":"NL:Q:74570120","_town":"Stellendam","_status":"available","_mode":"bus","_direction":300,"_visuallyAccessible":false,"_disabledAccessible":true,"geojson_lng":4.020549070063837,"geojson_lat":51.79874184695793},"geometry":{"type":"Point","coordinates":[4.020549070063837,51.79874184695793]}},{"type":"Feature","properties":{"highway":"bus_stop","public_transport":"platform","name":"Bernhardweg","ref:IFOPT":"NL:Q:74670110","_quaycode":"NL:Q:74670110","_town":"Ouddorp","_status":"available","_mode":"bus","_direction":142,"_visuallyAccessible":true,"_disabledAccessible":true,"geojson_lng":3.936992194549258,"geojson_lat":51.81677858331003},"geometry":{"type":"Point","coordinates":[3.936992194549258,51.81677858331003]}},{"type":"Feature","properties":{"highway":"bus_stop","public_transport":"platform","name":"Bernhardweg","ref:IFOPT":"NL:Q:74670030","_quaycode":"NL:Q:74670030","_town":"Ouddorp","_status":"available","_mode":"bus","_direction":84,"_visuallyAccessible":true,"_disabledAccessible":true,"geojson_lng":3.9361013922244594,"geojson_lat":51.81696534115787},"geometry":{"type":"Point","coordinates":[3.9361013922244594,51.81696534115787]}},{"type":"Feature","properties":{"highway":"bus_stop","public_transport":"platform","name":"Vissersweg","ref:IFOPT":"NL:Q:74670020","_quaycode":"NL:Q:74670020","_town":"Goedereede","_status":"available","_mode":"bus","_direction":217,"_visuallyAccessible":true,"_disabledAccessible":true,"geojson_lng":3.9829781221285936,"geojson_lat":51.81658282347772},"geometry":{"type":"Point","coordinates":[3.9829781221285936,51.81658282347772]}},{"type":"Feature","properties":{"highway":"bus_stop","public_transport":"platform","name":"Vissersweg","ref:IFOPT":"NL:Q:74670090","_quaycode":"NL:Q:74670090","_town":"Goedereede","_status":"available","_mode":"bus","_direction":38,"_visuallyAccessible":true,"_disabledAccessible":true,"geojson_lng":3.983221248480754,"geojson_lat":51.81669360726893},"geometry":{"type":"Point","coordinates":[3.983221248480754,51.81669360726893]}},{"type":"Feature","properties":{"highway":"bus_stop","public_transport":"platform","name":"Kerkhoek","ref:IFOPT":"NL:Q:74670130","_quaycode":"NL:Q:74670130","_town":"Ouddorp","_status":"available","_mode":"bus","_direction":58,"_visuallyAccessible":false,"_disabledAccessible":true,"geojson_lng":3.9419032287271016,"geojson_lat":51.80792149304423},"geometry":{"type":"Point","coordinates":[3.9419032287271016,51.80792149304423]}},{"type":"Feature","properties":{"highway":"bus_stop","public_transport":"platform","name":"Hofdijksweg","ref:IFOPT":"NL:Q:74670050","_quaycode":"NL:Q:74670050","_town":"Ouddorp","_status":"available","_mode":"bus","_direction":229,"_visuallyAccessible":false,"_disabledAccessible":true,"geojson_lng":3.937625092245555,"geojson_lat":51.81288491398699},"geometry":{"type":"Point","coordinates":[3.937625092245555,51.81288491398699]}},{"type":"Feature","properties":{"highway":"bus_stop","public_transport":"platform","name":"Vissershaven","ref:IFOPT":"NL:Q:74570040","_quaycode":"NL:Q:74570040","_town":"Stellendam","_status":"available","_mode":"bus","_direction":239,"_visuallyAccessible":false,"_disabledAccessible":false,"geojson_lng":4.037588173502367,"geojson_lat":51.82140375719725},"geometry":{"type":"Point","coordinates":[4.037588173502367,51.82140375719725]}},{"type":"Feature","properties":{"highway":"bus_stop","public_transport":"platform","name":"Rijksweg N57","ref:IFOPT":"NL:Q:74670140","_quaycode":"NL:Q:74670140","_town":"Goedereede","_status":"available","_mode":"bus","_direction":268,"_visuallyAccessible":false,"_disabledAccessible":false,"geojson_lng":3.981288807922807,"geojson_lat":51.815870399873454},"geometry":{"type":"Point","coordinates":[3.981288807922807,51.815870399873454]}},{"type":"Feature","properties":{"highway":"bus_stop","public_transport":"platform","name":"Station","ref:IFOPT":"NL:Q:74670070","_quaycode":"NL:Q:74670070","_town":"Ouddorp","_status":"available","_mode":"bus","_direction":72,"_visuallyAccessible":false,"_disabledAccessible":false,"geojson_lng":3.9375702819560128,"geojson_lat":51.81007947779627},"geometry":{"type":"Point","coordinates":[3.9375702819560128,51.81007947779627]}},{"type":"Feature","properties":{"highway":"bus_stop","public_transport":"platform","name":"Station","ref:IFOPT":"NL:Q:74670040","_quaycode":"NL:Q:74670040","_town":"Ouddorp","_status":"available","_mode":"bus","_direction":319,"_visuallyAccessible":false,"_disabledAccessible":false,"geojson_lng":3.93715507720922,"geojson_lat":51.80991253365439},"geometry":{"type":"Point","coordinates":[3.93715507720922,51.80991253365439]}},{"type":"Feature","properties":{"highway":"bus_stop","public_transport":"platform","name":"Hoge Pad","ref:IFOPT":"NL:Q:74670060","_quaycode":"NL:Q:74670060","_town":"Ouddorp","_status":"available","_mode":"bus","_direction":337,"_visuallyAccessible":false,"_disabledAccessible":true,"geojson_lng":3.936535235150544,"geojson_lat":51.81385131124233},"geometry":{"type":"Point","coordinates":[3.936535235150544,51.81385131124233]}},{"type":"Feature","properties":{"highway":"bus_stop","public_transport":"platform","name":"Toppershoedje","ref:IFOPT":"NL:Q:74770040","_quaycode":"NL:Q:74770040","_town":"Ouddorp","_status":"available","_mode":"bus","_direction":264,"_visuallyAccessible":false,"_disabledAccessible":false,"geojson_lng":3.9183371335020736,"geojson_lat":51.824403467608086},"geometry":{"type":"Point","coordinates":[3.9183371335020736,51.824403467608086]}},{"type":"Feature","properties":{"highway":"bus_stop","public_transport":"platform","name":"Vissershaven","ref:IFOPT":"NL:Q:74570070","_quaycode":"NL:Q:74570070","_town":"Stellendam","_status":"available","_mode":"bus","_direction":59,"_visuallyAccessible":false,"_disabledAccessible":false,"geojson_lng":4.0376534434632445,"geojson_lat":51.821161793077124},"geometry":{"type":"Point","coordinates":[4.0376534434632445,51.821161793077124]}},{"type":"Feature","properties":{"highway":"bus_stop","public_transport":"platform","name":"Klepperstee","ref:IFOPT":"NL:Q:74770050","_quaycode":"NL:Q:74770050","_town":"Ouddorp","_status":"available","_mode":"bus","_direction":72,"_visuallyAccessible":false,"_disabledAccessible":false,"geojson_lng":3.8977353509416233,"geojson_lat":51.81654750395955},"geometry":{"type":"Point","coordinates":[3.8977353509416233,51.81654750395955]}},{"type":"Feature","properties":{"highway":"bus_stop","public_transport":"platform","name":"Groene Weide","ref:IFOPT":"NL:Q:74670080","_quaycode":"NL:Q:74670080","_town":"Ouddorp","_status":"available","_mode":"bus","_direction":254,"_visuallyAccessible":false,"_disabledAccessible":true,"geojson_lng":3.927696662810305,"geojson_lat":51.82656988328118},"geometry":{"type":"Point","coordinates":[3.927696662810305,51.82656988328118]}},{"type":"Feature","properties":{"highway":"bus_stop","public_transport":"platform","name":"Vuurtoren","ref:IFOPT":"NL:Q:74770030","_quaycode":"NL:Q:74770030","_town":"Ouddorp","_status":"available","_mode":"bus","_direction":90,"_visuallyAccessible":false,"_disabledAccessible":false,"geojson_lng":3.8740455405111005,"geojson_lat":51.808009792191086},"geometry":{"type":"Point","coordinates":[3.8740455405111005,51.808009792191086]}},{"type":"Feature","properties":{"highway":"bus_stop","public_transport":"platform","name":"Toppershoedje","ref:IFOPT":"NL:Q:74770070","_quaycode":"NL:Q:74770070","_town":"Ouddorp","_status":"available","_mode":"bus","_direction":82,"_visuallyAccessible":false,"_disabledAccessible":false,"geojson_lng":3.917156233566004,"geojson_lat":51.82413697009658},"geometry":{"type":"Point","coordinates":[3.917156233566004,51.82413697009658]}},{"type":"Feature","properties":{"highway":"bus_stop","public_transport":"platform","name":"Vuurtoren","ref:IFOPT":"NL:Q:74770080","_quaycode":"NL:Q:74770080","_town":"Ouddorp","_status":"available","_mode":"bus","_direction":262,"_visuallyAccessible":false,"_disabledAccessible":false,"geojson_lng":3.8738827683237163,"geojson_lat":51.808106579589015},"geometry":{"type":"Point","coordinates":[3.8738827683237163,51.808106579589015]}},{"type":"Feature","properties":{"highway":"bus_stop","public_transport":"platform","name":"Rijksweg N57","ref:IFOPT":"NL:Q:74670150","_quaycode":"NL:Q:74670150","_town":"Goedereede","_status":"available","_mode":"bus","_direction":7,"_visuallyAccessible":false,"_disabledAccessible":false,"geojson_lng":3.982920306219527,"geojson_lat":51.81517976465612},"geometry":{"type":"Point","coordinates":[3.982920306219527,51.81517976465612]}},{"type":"Feature","properties":{"highway":"bus_stop","public_transport":"platform","name":"Busstation","ref:IFOPT":"NL:Q:74570012","_quaycode":"NL:Q:74570012","_town":"Stellendam","_status":"available","_mode":"bus","_direction":176,"_visuallyAccessible":false,"_disabledAccessible":false,"geojson_lng":4.0259742913603,"geojson_lat":51.80873829717353},"geometry":{"type":"Point","coordinates":[4.0259742913603,51.80873829717353]}},{"type":"Feature","properties":{"highway":"bus_stop","public_transport":"platform","name":"Busstation","ref:IFOPT":"NL:Q:74570014","_quaycode":"NL:Q:74570014","_town":"Stellendam","_status":"available","_mode":"bus","_direction":58,"_visuallyAccessible":false,"_disabledAccessible":true,"geojson_lng":4.0263050058449394,"geojson_lat":51.808832028536294},"geometry":{"type":"Point","coordinates":[4.0263050058449394,51.808832028536294]}},{"type":"Feature","properties":{"highway":"bus_stop","public_transport":"platform","name":"Zorgboerderij","ref:IFOPT":"NL:Q:52660060","_quaycode":"NL:Q:52660060","_town":"Oudenhoorn","_status":"available","_mode":"bus","_direction":115,"_visuallyAccessible":false,"_disabledAccessible":false,"geojson_lng":4.2087013598737055,"geojson_lat":51.820720994067},"geometry":{"type":"Point","coordinates":[4.2087013598737055,51.820720994067]}},{"type":"Feature","properties":{"highway":"bus_stop","public_transport":"platform","name":"J.Blankenstraat","ref:IFOPT":"NL:Q:52760130","_quaycode":"NL:Q:52760130","_town":"Hellevoetsluis","_status":"available","_mode":"bus","_direction":239,"_visuallyAccessible":false,"_disabledAccessible":false,"geojson_lng":4.13848764680963,"geojson_lat":51.82989203605605},"geometry":{"type":"Point","coordinates":[4.13848764680963,51.82989203605605]}},{"type":"Feature","properties":{"highway":"bus_stop","public_transport":"platform","name":"Zorgboerderij","ref:IFOPT":"NL:Q:52660070","_quaycode":"NL:Q:52660070","_town":"Oudenhoorn","_status":"available","_mode":"bus","_direction":237,"_visuallyAccessible":false,"_disabledAccessible":false,"geojson_lng":4.209539160613715,"geojson_lat":51.82085525340561},"geometry":{"type":"Point","coordinates":[4.209539160613715,51.82085525340561]}},{"type":"Feature","properties":{"highway":"bus_stop","public_transport":"platform","name":"Busstation","ref:IFOPT":"NL:Q:75490063","_quaycode":"NL:Q:75490063","_town":"Zierikzee","_status":"available","_mode":"bus","_direction":108,"_visuallyAccessible":false,"_disabledAccessible":false,"geojson_lng":3.922597630650077,"geojson_lat":51.65439843639803},"geometry":{"type":"Point","coordinates":[3.922597630650077,51.65439843639803]}},{"type":"Feature","properties":{"highway":"bus_stop","public_transport":"platform","name":"Roterijdijk","ref:IFOPT":"NL:Q:75490170","_quaycode":"NL:Q:75490170","_town":"Schuddebeurs","_status":"available","_mode":"bus","_direction":270,"_visuallyAccessible":false,"_disabledAccessible":false,"geojson_lng":3.9518500466658786,"geojson_lat":51.6753652878513},"geometry":{"type":"Point","coordinates":[3.9518500466658786,51.6753652878513]}},{"type":"Feature","properties":{"highway":"bus_stop","public_transport":"platform","name":"Gemeentehuis","ref:IFOPT":"NL:Q:75490192","_quaycode":"NL:Q:75490192","_town":"Zierikzee","_status":"available","_mode":"bus","_direction":11,"_visuallyAccessible":false,"_disabledAccessible":false,"geojson_lng":3.913184726790493,"geojson_lat":51.65408248985365},"geometry":{"type":"Point","coordinates":[3.913184726790493,51.65408248985365]}},{"type":"Feature","properties":{"highway":"bus_stop","public_transport":"platform","name":"Grevelingenstraat","ref:IFOPT":"NL:Q:75490100","_quaycode":"NL:Q:75490100","_town":"Zierikzee","_status":"available","_mode":"bus","_direction":1,"_visuallyAccessible":false,"_disabledAccessible":false,"geojson_lng":3.906527539953398,"geojson_lat":51.65214655575213},"geometry":{"type":"Point","coordinates":[3.906527539953398,51.65214655575213]}},{"type":"Feature","properties":{"highway":"bus_stop","public_transport":"platform","name":"Steenzwaenshof","ref:IFOPT":"NL:Q:88880800","_quaycode":"NL:Q:88880800","_town":"Nieuwerkerk","_status":"available","_mode":"bus","_direction":356,"_visuallyAccessible":false,"_disabledAccessible":false,"geojson_lng":3.99878658241169,"geojson_lat":51.650328793332996},"geometry":{"type":"Point","coordinates":[3.99878658241169,51.650328793332996]}},{"type":"Feature","properties":{"highway":"bus_stop","public_transport":"platform","name":"Vissersweg","ref:IFOPT":"NL:Q:74490040","_quaycode":"NL:Q:74490040","_town":"Ouwerkerk","_status":"available","_mode":"bus","_direction":276,"_visuallyAccessible":false,"_disabledAccessible":false,"geojson_lng":3.9814744623677543,"geojson_lat":51.6442608537497},"geometry":{"type":"Point","coordinates":[3.9814744623677543,51.6442608537497]}},{"type":"Feature","properties":{"highway":"bus_stop","public_transport":"platform","name":"Zuidwal","ref:IFOPT":"NL:Q:75680070","_quaycode":"NL:Q:75680070","_town":"Brouwershaven","_status":"available","_mode":"bus","_direction":26,"_visuallyAccessible":false,"_disabledAccessible":false,"geojson_lng":3.9126826439077758,"geojson_lat":51.7231895237622},"geometry":{"type":"Point","coordinates":[3.9126826439077758,51.7231895237622]}},{"type":"Feature","properties":{"highway":"bus_stop","public_transport":"platform","name":"Verpleeghuis Cornelia","ref:IFOPT":"NL:Q:75490130","_quaycode":"NL:Q:75490130","_town":"Zierikzee","_status":"available","_mode":"bus","_direction":89,"_visuallyAccessible":false,"_disabledAccessible":false,"geojson_lng":3.93127647756633,"geojson_lat":51.656871029315},"geometry":{"type":"Point","coordinates":[3.93127647756633,51.656871029315]}},{"type":"Feature","properties":{"highway":"bus_stop","public_transport":"platform","name":"Poortdijkstraat","ref:IFOPT":"NL:Q:75680090","_quaycode":"NL:Q:75680090","_town":"Brouwershaven","_status":"available","_mode":"bus","_direction":60,"_visuallyAccessible":false,"_disabledAccessible":false,"geojson_lng":3.9163197051100047,"geojson_lat":51.72440390620634},"geometry":{"type":"Point","coordinates":[3.9163197051100047,51.72440390620634]}},{"type":"Feature","properties":{"highway":"bus_stop","public_transport":"platform","name":"De Val","ref:IFOPT":"NL:Q:75390010","_quaycode":"NL:Q:75390010","_town":"Zierikzee","_status":"available","_mode":"bus","_direction":91,"_visuallyAccessible":false,"_disabledAccessible":false,"geojson_lng":3.925180354863755,"geojson_lat":51.63080556550352},"geometry":{"type":"Point","coordinates":[3.925180354863755,51.63080556550352]}},{"type":"Feature","properties":{"highway":"bus_stop","public_transport":"platform","name":"Dorp","ref:IFOPT":"NL:Q:74290021","_quaycode":"NL:Q:74290021","_town":"Bruinisse","_status":"available","_mode":"bus","_direction":108,"_visuallyAccessible":true,"_disabledAccessible":true,"geojson_lng":4.087839742093768,"geojson_lat":51.662732088263226},"geometry":{"type":"Point","coordinates":[4.087839742093768,51.662732088263226]}},{"type":"Feature","properties":{"highway":"bus_stop","public_transport":"platform","name":"Schendersweg","ref:IFOPT":"NL:Q:75680050","_quaycode":"NL:Q:75680050","_town":"Brijdorpe","_status":"available","_mode":"bus","_direction":155,"_visuallyAccessible":false,"_disabledAccessible":false,"geojson_lng":3.878214246703692,"geojson_lat":51.71270994849351},"geometry":{"type":"Point","coordinates":[3.878214246703692,51.71270994849351]}},{"type":"Feature","properties":{"highway":"bus_stop","public_transport":"platform","name":"Haven","ref:IFOPT":"NL:Q:72490010","_quaycode":"NL:Q:72490010","_town":"Sint Philipsland","_status":"available","_mode":"bus","_direction":334,"_visuallyAccessible":false,"_disabledAccessible":true,"geojson_lng":4.167928689003734,"geojson_lat":51.61676784436111},"geometry":{"type":"Point","coordinates":[4.167928689003734,51.61676784436111]}},{"type":"Feature","properties":{"highway":"bus_stop","public_transport":"platform","name":"Ziekenhuis","ref:IFOPT":"NL:Q:75490110","_quaycode":"NL:Q:75490110","_town":"Zierikzee","_status":"available","_mode":"bus","_direction":265,"_visuallyAccessible":false,"_disabledAccessible":false,"geojson_lng":3.9298143523180458,"geojson_lat":51.65739221852918},"geometry":{"type":"Point","coordinates":[3.9298143523180458,51.65739221852918]}},{"type":"Feature","properties":{"highway":"bus_stop","public_transport":"platform","name":"Scheldestraat","ref:IFOPT":"NL:Q:75490080","_quaycode":"NL:Q:75490080","_town":"Zierikzee","_status":"available","_mode":"bus","_direction":1,"_visuallyAccessible":false,"_disabledAccessible":false,"geojson_lng":3.9064903731023244,"geojson_lat":51.64930530443224},"geometry":{"type":"Point","coordinates":[3.9064903731023244,51.64930530443224]}},{"type":"Feature","properties":{"highway":"bus_stop","public_transport":"platform","name":"Dorp","ref:IFOPT":"NL:Q:75680010","_quaycode":"NL:Q:75680010","_town":"Looperskapelle","_status":"available","_mode":"bus","_direction":153,"_visuallyAccessible":false,"_disabledAccessible":false,"geojson_lng":3.8635607615265877,"geojson_lat":51.72688511051507},"geometry":{"type":"Point","coordinates":[3.8635607615265877,51.72688511051507]}},{"type":"Feature","properties":{"highway":"bus_stop","public_transport":"platform","name":"Dorp","ref:IFOPT":"NL:Q:75580010","_quaycode":"NL:Q:75580010","_town":"Zonnemaire","_status":"available","_mode":"bus","_direction":221,"_visuallyAccessible":false,"_disabledAccessible":false,"geojson_lng":3.9522873153843583,"geojson_lat":51.7131004125103},"geometry":{"type":"Point","coordinates":[3.9522873153843583,51.7131004125103]}},{"type":"Feature","properties":{"highway":"bus_stop","public_transport":"platform","name":"Busstation","ref:IFOPT":"NL:Q:75490061","_quaycode":"NL:Q:75490061","_town":"Zierikzee","_status":"available","_mode":"bus","_direction":291,"_visuallyAccessible":false,"_disabledAccessible":false,"geojson_lng":3.923082513303064,"geojson_lat":51.65415278927149},"geometry":{"type":"Point","coordinates":[3.923082513303064,51.65415278927149]}},{"type":"Feature","properties":{"highway":"bus_stop","public_transport":"platform","name":"Goemanszorg","ref:IFOPT":"NL:Q:75580190","_quaycode":"NL:Q:75580190","_town":"Dreischor","_status":"available","_mode":"bus","_direction":143,"_visuallyAccessible":false,"_disabledAccessible":false,"geojson_lng":3.9858295138625306,"geojson_lat":51.68936929365088},"geometry":{"type":"Point","coordinates":[3.9858295138625306,51.68936929365088]}},{"type":"Feature","properties":{"highway":"bus_stop","public_transport":"platform","name":"Dorp","ref:IFOPT":"NL:Q:72390090","_quaycode":"NL:Q:72390090","_town":"Anna Jacobapolder","_status":"available","_mode":"bus","_direction":291,"_visuallyAccessible":false,"_disabledAccessible":true,"geojson_lng":4.130045058381747,"geojson_lat":51.63785168580095},"geometry":{"type":"Point","coordinates":[4.130045058381747,51.63785168580095]}},{"type":"Feature","properties":{"highway":"bus_stop","public_transport":"platform","name":"Haneweg","ref:IFOPT":"NL:Q:75580090","_quaycode":"NL:Q:75580090","_town":"Noordgouwe","_status":"available","_mode":"bus","_direction":138,"_visuallyAccessible":false,"_disabledAccessible":false,"geojson_lng":3.9420551370526122,"geojson_lat":51.684153614012345},"geometry":{"type":"Point","coordinates":[3.9420551370526122,51.684153614012345]}},{"type":"Feature","properties":{"highway":"bus_stop","public_transport":"platform","name":"Sas","ref:IFOPT":"NL:Q:75490092","_quaycode":"NL:Q:75490092","_town":"Zierikzee","_status":"available","_mode":"bus","_direction":120,"_visuallyAccessible":false,"_disabledAccessible":false,"geojson_lng":3.935517491888572,"geojson_lat":51.64811374052655},"geometry":{"type":"Point","coordinates":[3.935517491888572,51.64811374052655]}},{"type":"Feature","properties":{"highway":"bus_stop","public_transport":"platform","name":"Langeweg","ref:IFOPT":"NL:Q:72390030","_quaycode":"NL:Q:72390030","_town":"Anna Jacobapolder","_status":"available","_mode":"bus","_direction":122,"_visuallyAccessible":false,"_disabledAccessible":false,"geojson_lng":4.120741638142266,"geojson_lat":51.64145502888906},"geometry":{"type":"Point","coordinates":[4.120741638142266,51.64145502888906]}},{"type":"Feature","properties":{"highway":"bus_stop","public_transport":"platform","name":"Dorp","ref:IFOPT":"NL:Q:75580011","_quaycode":"NL:Q:75580011","_town":"Zonnemaire","_status":"available","_mode":"bus","_direction":41,"_visuallyAccessible":false,"_disabledAccessible":false,"geojson_lng":3.952474800271599,"geojson_lat":51.71312068823451},"geometry":{"type":"Point","coordinates":[3.952474800271599,51.71312068823451]}},{"type":"Feature","properties":{"highway":"bus_stop","public_transport":"platform","name":"Dorp","ref:IFOPT":"NL:Q:74390090","_quaycode":"NL:Q:74390090","_town":"Sirjansland","_status":"available","_mode":"bus","_direction":182,"_visuallyAccessible":false,"_disabledAccessible":false,"geojson_lng":4.032226509462371,"geojson_lat":51.67641298330298},"geometry":{"type":"Point","coordinates":[4.032226509462371,51.67641298330298]}},{"type":"Feature","properties":{"highway":"bus_stop","public_transport":"platform","name":"Dorp","ref:IFOPT":"NL:Q:75680030","_quaycode":"NL:Q:75680030","_town":"Brijdorpe","_status":"available","_mode":"bus","_direction":112,"_visuallyAccessible":false,"_disabledAccessible":false,"geojson_lng":3.873708524877624,"geojson_lat":51.71996862243054},"geometry":{"type":"Point","coordinates":[3.873708524877624,51.71996862243054]}},{"type":"Feature","properties":{"highway":"bus_stop","public_transport":"platform","name":"Sas","ref:IFOPT":"NL:Q:75490093","_quaycode":"NL:Q:75490093","_town":"Zierikzee","_status":"available","_mode":"bus","_direction":121,"_visuallyAccessible":false,"_disabledAccessible":false,"geojson_lng":3.93549177040807,"geojson_lat":51.648014534033315},"geometry":{"type":"Point","coordinates":[3.93549177040807,51.648014534033315]}},{"type":"Feature","properties":{"highway":"bus_stop","public_transport":"platform","name":"De Val","ref:IFOPT":"NL:Q:75390040","_quaycode":"NL:Q:75390040","_town":"Zierikzee","_status":"available","_mode":"bus","_direction":270,"_visuallyAccessible":false,"_disabledAccessible":false,"geojson_lng":3.924914936319118,"geojson_lat":51.630973054591735},"geometry":{"type":"Point","coordinates":[3.924914936319118,51.630973054591735]}},{"type":"Feature","properties":{"highway":"bus_stop","public_transport":"platform","name":"Verseputseweg","ref:IFOPT":"NL:Q:75590070","_quaycode":"NL:Q:75590070","_town":"Kerkwerve","_status":"available","_mode":"bus","_direction":139,"_visuallyAccessible":false,"_disabledAccessible":false,"geojson_lng":3.868737631708218,"geojson_lat":51.67362459635843},"geometry":{"type":"Point","coordinates":[3.868737631708218,51.67362459635843]}},{"type":"Feature","properties":{"highway":"bus_stop","public_transport":"platform","name":"Sas","ref:IFOPT":"NL:Q:75490040","_quaycode":"NL:Q:75490040","_town":"Zierikzee","_status":"available","_mode":"bus","_direction":300,"_visuallyAccessible":false,"_disabledAccessible":false,"geojson_lng":3.9349657026431286,"geojson_lat":51.64819679213023},"geometry":{"type":"Point","coordinates":[3.9349657026431286,51.64819679213023]}},{"type":"Feature","properties":{"highway":"bus_stop","public_transport":"platform","name":"Kruisweg","ref:IFOPT":"NL:Q:75580030","_quaycode":"NL:Q:75580030","_town":"Zonnemaire","_status":"available","_mode":"bus","_direction":215,"_visuallyAccessible":false,"_disabledAccessible":true,"geojson_lng":3.9479792830852474,"geojson_lat":51.70705143944931},"geometry":{"type":"Point","coordinates":[3.9479792830852474,51.70705143944931]}},{"type":"Feature","properties":{"highway":"bus_stop","public_transport":"platform","name":"Port Greve","ref:IFOPT":"NL:Q:75680110","_quaycode":"NL:Q:75680110","_town":"Den Osse","_status":"available","_mode":"bus","_direction":120,"_visuallyAccessible":false,"_disabledAccessible":false,"geojson_lng":3.8953903844681985,"geojson_lat":51.738819571548},"geometry":{"type":"Point","coordinates":[3.8953903844681985,51.738819571548]}},{"type":"Feature","properties":{"highway":"bus_stop","public_transport":"platform","name":"Ziekenhuis","ref:IFOPT":"NL:Q:75490140","_quaycode":"NL:Q:75490140","_town":"Zierikzee","_status":"available","_mode":"bus","_direction":82,"_visuallyAccessible":false,"_disabledAccessible":false,"geojson_lng":3.9296441598460268,"geojson_lat":51.65729121177857},"geometry":{"type":"Point","coordinates":[3.9296441598460268,51.65729121177857]}},{"type":"Feature","properties":{"highway":"bus_stop","public_transport":"platform","name":"Busstation","ref:IFOPT":"NL:Q:75490074","_quaycode":"NL:Q:75490074","_town":"Zierikzee","_status":"available","_mode":"bus","_direction":210,"_visuallyAccessible":false,"_disabledAccessible":false,"geojson_lng":3.923316567264768,"geojson_lat":51.65406581918961},"geometry":{"type":"Point","coordinates":[3.923316567264768,51.65406581918961]}},{"type":"Feature","properties":{"highway":"bus_stop","public_transport":"platform","name":"Dorp","ref:IFOPT":"NL:Q:75490150","_quaycode":"NL:Q:75490150","_town":"Schuddebeurs","_status":"available","_mode":"bus","_direction":131,"_visuallyAccessible":true,"_disabledAccessible":true,"geojson_lng":3.9490895828170482,"geojson_lat":51.67805529712965},"geometry":{"type":"Point","coordinates":[3.9490895828170482,51.67805529712965]}},{"type":"Feature","properties":{"highway":"bus_stop","public_transport":"platform","name":"Busstation","ref:IFOPT":"NL:Q:75490071","_quaycode":"NL:Q:75490071","_town":"Zierikzee","_status":"available","_mode":"bus","_direction":108,"_visuallyAccessible":false,"_disabledAccessible":false,"geojson_lng":3.9233844438267713,"geojson_lat":51.65420151488198},"geometry":{"type":"Point","coordinates":[3.9233844438267713,51.65420151488198]}},{"type":"Feature","properties":{"highway":"bus_stop","public_transport":"platform","name":"Poortdijkstraat","ref:IFOPT":"NL:Q:75680080","_quaycode":"NL:Q:75680080","_town":"Brouwershaven","_status":"available","_mode":"bus","_direction":240,"_visuallyAccessible":false,"_disabledAccessible":false,"geojson_lng":3.9158885542146944,"geojson_lat":51.724308595394795},"geometry":{"type":"Point","coordinates":[3.9158885542146944,51.724308595394795]}},{"type":"Feature","properties":{"highway":"bus_stop","public_transport":"platform","name":"Busstation","ref:IFOPT":"NL:Q:75490075","_quaycode":"NL:Q:75490075","_town":"Zierikzee","_status":"available","_mode":"bus","_direction":190,"_visuallyAccessible":false,"_disabledAccessible":false,"geojson_lng":3.9236369342781354,"geojson_lat":51.654120773089566},"geometry":{"type":"Point","coordinates":[3.9236369342781354,51.654120773089566]}},{"type":"Feature","properties":{"highway":"bus_stop","public_transport":"platform","name":"Haringvlietstraat","ref:IFOPT":"NL:Q:75490010","_quaycode":"NL:Q:75490010","_town":"Zierikzee","_status":"available","_mode":"bus","_direction":180,"_visuallyAccessible":false,"_disabledAccessible":false,"geojson_lng":3.899436872723921,"geojson_lat":51.65242521456344},"geometry":{"type":"Point","coordinates":[3.899436872723921,51.65242521456344]}},{"type":"Feature","properties":{"highway":"bus_stop","public_transport":"platform","name":"Busstation","ref:IFOPT":"NL:Q:75490064","_quaycode":"NL:Q:75490064","_town":"Zierikzee","_status":"available","_mode":"bus","_direction":291,"_visuallyAccessible":false,"_disabledAccessible":false,"geojson_lng":3.9223517429659362,"geojson_lat":51.65440434890791},"geometry":{"type":"Point","coordinates":[3.9223517429659362,51.65440434890791]}},{"type":"Feature","properties":{"highway":"bus_stop","public_transport":"platform","name":"Kruisweg","ref:IFOPT":"NL:Q:75580100","_quaycode":"NL:Q:75580100","_town":"Zonnemaire","_status":"available","_mode":"bus","_direction":35,"_visuallyAccessible":false,"_disabledAccessible":true,"geojson_lng":3.948251808007306,"geojson_lat":51.70712670519397},"geometry":{"type":"Point","coordinates":[3.948251808007306,51.70712670519397]}},{"type":"Feature","properties":{"highway":"bus_stop","public_transport":"platform","name":"Even Buiten","ref:IFOPT":"NL:Q:74390010","_quaycode":"NL:Q:74390010","_town":"Oosterland","_status":"available","_mode":"bus","_direction":107,"_visuallyAccessible":false,"_disabledAccessible":true,"geojson_lng":4.0294541765484775,"geojson_lat":51.65266630869372},"geometry":{"type":"Point","coordinates":[4.0294541765484775,51.65266630869372]}},{"type":"Feature","properties":{"highway":"bus_stop","public_transport":"platform","name":"Sluisweg","ref:IFOPT":"NL:Q:72390160","_quaycode":"NL:Q:72390160","_town":"Anna Jacobapolder","_status":"available","_mode":"bus","_direction":123,"_visuallyAccessible":false,"_disabledAccessible":false,"geojson_lng":4.107417297468282,"geojson_lat":51.64003355932522},"geometry":{"type":"Point","coordinates":[4.107417297468282,51.64003355932522]}},{"type":"Feature","properties":{"highway":"bus_stop","public_transport":"platform","name":"Zuidwal","ref:IFOPT":"NL:Q:75680020","_quaycode":"NL:Q:75680020","_town":"Brouwershaven","_status":"available","_mode":"bus","_direction":216,"_visuallyAccessible":false,"_disabledAccessible":false,"geojson_lng":3.912078670707469,"geojson_lat":51.72262455701667},"geometry":{"type":"Point","coordinates":[3.912078670707469,51.72262455701667]}},{"type":"Feature","properties":{"highway":"bus_stop","public_transport":"platform","name":"Even Buiten","ref:IFOPT":"NL:Q:74390060","_quaycode":"NL:Q:74390060","_town":"Oosterland","_status":"available","_mode":"bus","_direction":287,"_visuallyAccessible":false,"_disabledAccessible":true,"geojson_lng":4.029378708858093,"geojson_lat":51.65277330846696},"geometry":{"type":"Point","coordinates":[4.029378708858093,51.65277330846696]}},{"type":"Feature","properties":{"highway":"bus_stop","public_transport":"platform","name":"Goemanszorg","ref:IFOPT":"NL:Q:75580180","_quaycode":"NL:Q:75580180","_town":"Dreischor","_status":"available","_mode":"bus","_direction":299,"_visuallyAccessible":false,"_disabledAccessible":false,"geojson_lng":3.986032766109965,"geojson_lat":51.68934475684968},"geometry":{"type":"Point","coordinates":[3.986032766109965,51.68934475684968]}},{"type":"Feature","properties":{"highway":"bus_stop","public_transport":"platform","name":"Busstation","ref:IFOPT":"NL:Q:75490062","_quaycode":"NL:Q:75490062","_town":"Zierikzee","_status":"available","_mode":"bus","_direction":291,"_visuallyAccessible":false,"_disabledAccessible":false,"geojson_lng":3.922745586909207,"geojson_lat":51.65429241042444},"geometry":{"type":"Point","coordinates":[3.922745586909207,51.65429241042444]}},{"type":"Feature","properties":{"highway":"bus_stop","public_transport":"platform","name":"Grevelingenstraat","ref:IFOPT":"NL:Q:75490030","_quaycode":"NL:Q:75490030","_town":"Zierikzee","_status":"available","_mode":"bus","_direction":181,"_visuallyAccessible":false,"_disabledAccessible":false,"geojson_lng":3.9063998759832286,"geojson_lat":51.652073022014434},"geometry":{"type":"Point","coordinates":[3.9063998759832286,51.652073022014434]}},{"type":"Feature","properties":{"highway":"bus_stop","public_transport":"platform","name":"Dorp","ref:IFOPT":"NL:Q:75680060","_quaycode":"NL:Q:75680060","_town":"Brijdorpe","_status":"available","_mode":"bus","_direction":292,"_visuallyAccessible":false,"_disabledAccessible":false,"geojson_lng":3.8737052147619973,"geojson_lat":51.72006746759893},"geometry":{"type":"Point","coordinates":[3.8737052147619973,51.72006746759893]}},{"type":"Feature","properties":{"highway":"bus_stop","public_transport":"platform","name":"Sas","ref:IFOPT":"NL:Q:75490041","_quaycode":"NL:Q:75490041","_town":"Zierikzee","_status":"available","_mode":"bus","_direction":300,"_visuallyAccessible":false,"_disabledAccessible":false,"geojson_lng":3.9352288810975593,"geojson_lat":51.64810117028381},"geometry":{"type":"Point","coordinates":[3.9352288810975593,51.64810117028381]}},{"type":"Feature","properties":{"highway":"bus_stop","public_transport":"platform","name":"Vissersweg","ref:IFOPT":"NL:Q:74490010","_quaycode":"NL:Q:74490010","_town":"Ouwerkerk","_status":"available","_mode":"bus","_direction":94,"_visuallyAccessible":false,"_disabledAccessible":false,"geojson_lng":3.9841021809388995,"geojson_lat":51.64386088473078},"geometry":{"type":"Point","coordinates":[3.9841021809388995,51.64386088473078]}},{"type":"Feature","properties":{"highway":"bus_stop","public_transport":"platform","name":"Port Greve","ref:IFOPT":"NL:Q:75680100","_quaycode":"NL:Q:75680100","_town":"Den Osse","_status":"available","_mode":"bus","_direction":300,"_visuallyAccessible":false,"_disabledAccessible":false,"geojson_lng":3.8954453117874976,"geojson_lat":51.73891016831659},"geometry":{"type":"Point","coordinates":[3.8954453117874976,51.73891016831659]}},{"type":"Feature","properties":{"highway":"bus_stop","public_transport":"platform","name":"Dorp","ref:IFOPT":"NL:Q:75580060","_quaycode":"NL:Q:75580060","_town":"Noordgouwe","_status":"available","_mode":"bus","_direction":41,"_visuallyAccessible":true,"_disabledAccessible":true,"geojson_lng":3.9356552837641345,"geojson_lat":51.69385528014059},"geometry":{"type":"Point","coordinates":[3.9356552837641345,51.69385528014059]}},{"type":"Feature","properties":{"highway":"bus_stop","public_transport":"platform","name":"Zuidwal","ref:IFOPT":"NL:Q:75680021","_quaycode":"NL:Q:75680021","_town":"Brouwershaven","_status":"available","_mode":"bus","_direction":0,"_visuallyAccessible":false,"_disabledAccessible":false,"geojson_lng":3.9122370435969547,"geojson_lat":51.723094017480456},"geometry":{"type":"Point","coordinates":[3.9122370435969547,51.723094017480456]}},{"type":"Feature","properties":{"highway":"bus_stop","public_transport":"platform","name":"Oud Heiligeweg","ref:IFOPT":"NL:Q:74390050","_quaycode":"NL:Q:74390050","_town":"Oosterland","_status":"available","_mode":"bus","_direction":34,"_visuallyAccessible":false,"_disabledAccessible":false,"geojson_lng":4.044670477621042,"geojson_lat":51.65661746514153},"geometry":{"type":"Point","coordinates":[4.044670477621042,51.65661746514153]}},{"type":"Feature","properties":{"highway":"bus_stop","public_transport":"platform","name":"Scheldestraat","ref:IFOPT":"NL:Q:75490050","_quaycode":"NL:Q:75490050","_town":"Zierikzee","_status":"available","_mode":"bus","_direction":180,"_visuallyAccessible":false,"_disabledAccessible":false,"geojson_lng":3.9063371064201693,"geojson_lat":51.64957305955982},"geometry":{"type":"Point","coordinates":[3.9063371064201693,51.64957305955982]}},{"type":"Feature","properties":{"highway":"bus_stop","public_transport":"platform","name":"Dorp","ref:IFOPT":"NL:Q:75790020","_quaycode":"NL:Q:75790020","_town":"Looperskapelle","_status":"available","_mode":"bus","_direction":325,"_visuallyAccessible":false,"_disabledAccessible":false,"geojson_lng":3.8636912921118913,"geojson_lat":51.72687781804153},"geometry":{"type":"Point","coordinates":[3.8636912921118913,51.72687781804153]}},{"type":"Feature","properties":{"highway":"bus_stop","public_transport":"platform","name":"Dorp","ref:IFOPT":"NL:Q:75580050","_quaycode":"NL:Q:75580050","_town":"Dreischor","_status":"available","_mode":"bus","_direction":132,"_visuallyAccessible":false,"_disabledAccessible":false,"geojson_lng":3.9810945697900686,"geojson_lat":51.68814387970691},"geometry":{"type":"Point","coordinates":[3.9810945697900686,51.68814387970691]}},{"type":"Feature","properties":{"highway":"bus_stop","public_transport":"platform","name":"Langeweg","ref:IFOPT":"NL:Q:72390020","_quaycode":"NL:Q:72390020","_town":"Anna Jacobapolder","_status":"available","_mode":"bus","_direction":302,"_visuallyAccessible":false,"_disabledAccessible":false,"geojson_lng":4.120826793149528,"geojson_lat":51.64150988729787},"geometry":{"type":"Point","coordinates":[4.120826793149528,51.64150988729787]}},{"type":"Feature","properties":{"highway":"bus_stop","public_transport":"platform","name":"Busstation","ref:IFOPT":"NL:Q:75490072","_quaycode":"NL:Q:75490072","_town":"Zierikzee","_status":"available","_mode":"bus","_direction":115,"_visuallyAccessible":false,"_disabledAccessible":false,"geojson_lng":3.9229428798690607,"geojson_lat":51.65433758584349},"geometry":{"type":"Point","coordinates":[3.9229428798690607,51.65433758584349]}},{"type":"Feature","properties":{"highway":"bus_stop","public_transport":"platform","name":"Dorp","ref:IFOPT":"NL:Q:74390040","_quaycode":"NL:Q:74390040","_town":"Oosterland","_status":"available","_mode":"bus","_direction":268,"_visuallyAccessible":false,"_disabledAccessible":true,"geojson_lng":4.037454628813786,"geojson_lat":51.65043953153379},"geometry":{"type":"Point","coordinates":[4.037454628813786,51.65043953153379]}},{"type":"Feature","properties":{"highway":"bus_stop","public_transport":"platform","name":"Sas","ref:IFOPT":"NL:Q:75490090","_quaycode":"NL:Q:75490090","_town":"Zierikzee","_status":"available","_mode":"bus","_direction":121,"_visuallyAccessible":false,"_disabledAccessible":false,"geojson_lng":3.935242749864107,"geojson_lat":51.648119321887094},"geometry":{"type":"Point","coordinates":[3.935242749864107,51.648119321887094]}},{"type":"Feature","properties":{"highway":"bus_stop","public_transport":"platform","name":"Dorp","ref:IFOPT":"NL:Q:88880210","_quaycode":"NL:Q:88880210","_town":"Ouwerkerk","_status":"available","_mode":"bus","_direction":195,"_visuallyAccessible":false,"_disabledAccessible":false,"geojson_lng":3.982450450490658,"geojson_lat":51.62583470412497},"geometry":{"type":"Point","coordinates":[3.982450450490658,51.62583470412497]}},{"type":"Feature","properties":{"highway":"bus_stop","public_transport":"platform","name":"Philipsdam","ref:IFOPT":"NL:Q:72490080","_quaycode":"NL:Q:72490080","_town":"Sint Philipsland","_status":"available","_mode":"bus","_direction":287,"_visuallyAccessible":false,"_disabledAccessible":false,"geojson_lng":4.176139400719021,"geojson_lat":51.65049147669099},"geometry":{"type":"Point","coordinates":[4.176139400719021,51.65049147669099]}},{"type":"Feature","properties":{"highway":"bus_stop","public_transport":"platform","name":"Sas","ref:IFOPT":"NL:Q:75490042","_quaycode":"NL:Q:75490042","_town":"Zierikzee","_status":"available","_mode":"bus","_direction":300,"_visuallyAccessible":false,"_disabledAccessible":false,"geojson_lng":3.9347753244353414,"geojson_lat":51.648275337404364},"geometry":{"type":"Point","coordinates":[3.9347753244353414,51.648275337404364]}},{"type":"Feature","properties":{"highway":"bus_stop","public_transport":"platform","name":"Dorp","ref:IFOPT":"NL:Q:75580020","_quaycode":"NL:Q:75580020","_town":"Schuddebeurs","_status":"available","_mode":"bus","_direction":311,"_visuallyAccessible":true,"_disabledAccessible":true,"geojson_lng":3.949112494732822,"geojson_lat":51.6782443626275},"geometry":{"type":"Point","coordinates":[3.949112494732822,51.6782443626275]}},{"type":"Feature","properties":{"highway":"bus_stop","public_transport":"platform","name":"Verseputseweg","ref:IFOPT":"NL:Q:75590020","_quaycode":"NL:Q:75590020","_town":"Kerkwerve","_status":"available","_mode":"bus","_direction":310,"_visuallyAccessible":false,"_disabledAccessible":false,"geojson_lng":3.8673934313441163,"geojson_lat":51.67490169401191},"geometry":{"type":"Point","coordinates":[3.8673934313441163,51.67490169401191]}},{"type":"Feature","properties":{"highway":"bus_stop","public_transport":"platform","name":"Dorp","ref:IFOPT":"NL:Q:75580070","_quaycode":"NL:Q:75580070","_town":"Noordgouwe","_status":"available","_mode":"bus","_direction":221,"_visuallyAccessible":true,"_disabledAccessible":true,"geojson_lng":3.935369265649668,"geojson_lat":51.693752847660676},"geometry":{"type":"Point","coordinates":[3.935369265649668,51.693752847660676]}},{"type":"Feature","properties":{"highway":"bus_stop","public_transport":"platform","name":"Dorp","ref:IFOPT":"NL:Q:74390030","_quaycode":"NL:Q:74390030","_town":"Oosterland","_status":"available","_mode":"bus","_direction":88,"_visuallyAccessible":false,"_disabledAccessible":true,"geojson_lng":4.037644571682544,"geojson_lat":51.65036980519636},"geometry":{"type":"Point","coordinates":[4.037644571682544,51.65036980519636]}},{"type":"Feature","properties":{"highway":"bus_stop","public_transport":"platform","name":"Haneweg","ref:IFOPT":"NL:Q:75580040","_quaycode":"NL:Q:75580040","_town":"Noordgouwe","_status":"available","_mode":"bus","_direction":320,"_visuallyAccessible":false,"_disabledAccessible":false,"geojson_lng":3.941731454017141,"geojson_lat":51.68477889943243},"geometry":{"type":"Point","coordinates":[3.941731454017141,51.68477889943243]}},{"type":"Feature","properties":{"highway":"bus_stop","public_transport":"platform","name":"Schendersweg","ref:IFOPT":"NL:Q:75680040","_quaycode":"NL:Q:75680040","_town":"Brijdorpe","_status":"available","_mode":"bus","_direction":335,"_visuallyAccessible":false,"_disabledAccessible":false,"geojson_lng":3.878322534461703,"geojson_lat":51.71269245625725},"geometry":{"type":"Point","coordinates":[3.878322534461703,51.71269245625725]}},{"type":"Feature","properties":{"highway":"bus_stop","public_transport":"platform","name":"de Wieken (Centrum)","ref:IFOPT":"NL:Q:75490230","_quaycode":"NL:Q:75490230","_town":"Zierikzee","_status":"available","_mode":"bus","_direction":303,"_visuallyAccessible":false,"_disabledAccessible":false,"geojson_lng":3.9213077965471825,"geojson_lat":51.650489710843715},"geometry":{"type":"Point","coordinates":[3.9213077965471825,51.650489710843715]}},{"type":"Feature","properties":{"highway":"bus_stop","public_transport":"platform","name":"Roterijdijk","ref:IFOPT":"NL:Q:75580140","_quaycode":"NL:Q:75580140","_town":"Schuddebeurs","_status":"available","_mode":"bus","_direction":91,"_visuallyAccessible":false,"_disabledAccessible":false,"geojson_lng":3.951996578844958,"geojson_lat":51.675304156223284},"geometry":{"type":"Point","coordinates":[3.951996578844958,51.675304156223284]}},{"type":"Feature","properties":{"highway":"bus_stop","public_transport":"platform","name":"Stationsstraat","ref:IFOPT":"NL:Q:72490020","_quaycode":"NL:Q:72490020","_town":"Sint Philipsland","_status":"available","_mode":"bus","_direction":233,"_visuallyAccessible":false,"_disabledAccessible":false,"geojson_lng":4.170482319228192,"geojson_lat":51.61846646556732},"geometry":{"type":"Point","coordinates":[4.170482319228192,51.61846646556732]}},{"type":"Feature","properties":{"highway":"bus_stop","public_transport":"platform","name":"Gemeentehuis","ref:IFOPT":"NL:Q:75490193","_quaycode":"NL:Q:75490193","_town":"Zierikzee","_status":"available","_mode":"bus","_direction":205,"_visuallyAccessible":false,"_disabledAccessible":false,"geojson_lng":3.9119148675341697,"geojson_lat":51.65269105010461},"geometry":{"type":"Point","coordinates":[3.9119148675341697,51.65269105010461]}},{"type":"Feature","properties":{"highway":"bus_stop","public_transport":"platform","name":"Busstation","ref:IFOPT":"NL:Q:74490020","_quaycode":"NL:Q:74490020","_town":"Nieuwerkerk","_status":"available","_mode":"bus","_direction":292,"_visuallyAccessible":false,"_disabledAccessible":false,"geojson_lng":4.000725488536627,"geojson_lat":51.64694469940875},"geometry":{"type":"Point","coordinates":[4.000725488536627,51.64694469940875]}},{"type":"Feature","properties":{"highway":"bus_stop","public_transport":"platform","name":"Oud Heiligeweg","ref:IFOPT":"NL:Q:74390020","_quaycode":"NL:Q:74390020","_town":"Oosterland","_status":"available","_mode":"bus","_direction":214,"_visuallyAccessible":false,"_disabledAccessible":false,"geojson_lng":4.044512346830769,"geojson_lat":51.65658868251952},"geometry":{"type":"Point","coordinates":[4.044512346830769,51.65658868251952]}},{"type":"Feature","properties":{"highway":"bus_stop","public_transport":"platform","name":"Dorp","ref:IFOPT":"NL:Q:72390080","_quaycode":"NL:Q:72390080","_town":"Anna Jacobapolder","_status":"available","_mode":"bus","_direction":302,"_visuallyAccessible":false,"_disabledAccessible":false,"geojson_lng":4.130072447455578,"geojson_lat":51.63790591684162},"geometry":{"type":"Point","coordinates":[4.130072447455578,51.63790591684162]}},{"type":"Feature","properties":{"highway":"bus_stop","public_transport":"platform","name":"Steenzwaenshof","ref:IFOPT":"NL:Q:88880790","_quaycode":"NL:Q:88880790","_town":"Nieuwerkerk","_status":"available","_mode":"bus","_direction":178,"_visuallyAccessible":false,"_disabledAccessible":false,"geojson_lng":3.998685460610065,"geojson_lat":51.65032759363987},"geometry":{"type":"Point","coordinates":[3.998685460610065,51.65032759363987]}},{"type":"Feature","properties":{"highway":"bus_stop","public_transport":"platform","name":"Sas","ref:IFOPT":"NL:Q:75490091","_quaycode":"NL:Q:75490091","_town":"Zierikzee","_status":"available","_mode":"bus","_direction":121,"_visuallyAccessible":false,"_disabledAccessible":false,"geojson_lng":3.934979571332789,"geojson_lat":51.64821494376423},"geometry":{"type":"Point","coordinates":[3.934979571332789,51.64821494376423]}},{"type":"Feature","properties":{"highway":"bus_stop","public_transport":"platform","name":"Kanaalweg","ref:IFOPT":"NL:Q:52760390","_quaycode":"NL:Q:52760390","_town":"Hellevoetsluis","_status":"available","_mode":"bus","_direction":167,"_visuallyAccessible":false,"_disabledAccessible":false,"geojson_lng":4.1445801783753415,"geojson_lat":51.833084964183776},"geometry":{"type":"Point","coordinates":[4.1445801783753415,51.833084964183776]}},{"type":"Feature","properties":{"highway":"bus_stop","public_transport":"platform","name":"Vesting","ref:IFOPT":"NL:Q:52760261","_quaycode":"NL:Q:52760261","_town":"Hellevoetsluis","_status":"available","_mode":"bus","_direction":118,"_visuallyAccessible":false,"_disabledAccessible":false,"geojson_lng":4.134792146868717,"geojson_lat":51.82347925768858},"geometry":{"type":"Point","coordinates":[4.134792146868717,51.82347925768858]}},{"type":"Feature","properties":{"highway":"bus_stop","public_transport":"platform","name":"J.Blankenstraat","ref:IFOPT":"NL:Q:52760280","_quaycode":"NL:Q:52760280","_town":"Hellevoetsluis","_status":"available","_mode":"bus","_direction":67,"_visuallyAccessible":false,"_disabledAccessible":false,"geojson_lng":4.139448475679083,"geojson_lat":51.830297783047044},"geometry":{"type":"Point","coordinates":[4.139448475679083,51.830297783047044]}},{"type":"Feature","properties":{"highway":"bus_stop","public_transport":"platform","name":"Winkelcentrum","ref:IFOPT":"NL:Q:52760250","_quaycode":"NL:Q:52760250","_town":"Hellevoetsluis","_status":"available","_mode":"bus","_direction":254,"_visuallyAccessible":false,"_disabledAccessible":false,"geojson_lng":4.147561259948965,"geojson_lat":51.83073433461431},"geometry":{"type":"Point","coordinates":[4.147561259948965,51.83073433461431]}},{"type":"Feature","properties":{"highway":"bus_stop","public_transport":"platform","name":"Winkelcentrum","ref:IFOPT":"NL:Q:52760160","_quaycode":"NL:Q:52760160","_town":"Hellevoetsluis","_status":"available","_mode":"bus","_direction":72,"_visuallyAccessible":false,"_disabledAccessible":false,"geojson_lng":4.147954364063916,"geojson_lat":51.83068455047818},"geometry":{"type":"Point","coordinates":[4.147954364063916,51.83068455047818]}},{"type":"Feature","properties":{"highway":"bus_stop","public_transport":"platform","name":"Vlotbrug","ref:IFOPT":"NL:Q:52760330","_quaycode":"NL:Q:52760330","_town":"Hellevoetsluis","_status":"available","_mode":"bus","_direction":88,"_visuallyAccessible":false,"_disabledAccessible":true,"geojson_lng":4.15507854056216,"geojson_lat":51.83226076209262},"geometry":{"type":"Point","coordinates":[4.15507854056216,51.83226076209262]}},{"type":"Feature","properties":{"highway":"bus_stop","public_transport":"platform","name":"Kooistee","ref:IFOPT":"NL:Q:52760350","_quaycode":"NL:Q:52760350","_town":"Hellevoetsluis","_status":"available","_mode":"bus","_direction":128,"_visuallyAccessible":false,"_disabledAccessible":true,"geojson_lng":4.159743356591703,"geojson_lat":51.82879484696094},"geometry":{"type":"Point","coordinates":[4.159743356591703,51.82879484696094]}},{"type":"Feature","properties":{"highway":"bus_stop","public_transport":"platform","name":"Vesting","ref:IFOPT":"NL:Q:52760260","_quaycode":"NL:Q:52760260","_town":"Hellevoetsluis","_status":"available","_mode":"bus","_direction":41,"_visuallyAccessible":false,"_disabledAccessible":true,"geojson_lng":4.1341558215240335,"geojson_lat":51.824452297055004},"geometry":{"type":"Point","coordinates":[4.1341558215240335,51.824452297055004]}},{"type":"Feature","properties":{"highway":"bus_stop","public_transport":"platform","name":"Mandenmaker","ref:IFOPT":"NL:Q:52760370","_quaycode":"NL:Q:52760370","_town":"Hellevoetsluis","_status":"available","_mode":"bus","_direction":13,"_visuallyAccessible":false,"_disabledAccessible":false,"geojson_lng":4.166158339196709,"geojson_lat":51.83298782163953},"geometry":{"type":"Point","coordinates":[4.166158339196709,51.83298782163953]}},{"type":"Feature","properties":{"highway":"bus_stop","public_transport":"platform","name":"Struytse Hoeck","ref:IFOPT":"NL:Q:52760510","_quaycode":"NL:Q:52760510","_town":"Hellevoetsluis","_status":"available","_mode":"bus","_direction":85,"_visuallyAccessible":true,"_disabledAccessible":true,"geojson_lng":4.144761949920458,"geojson_lat":51.834911708200856},"geometry":{"type":"Point","coordinates":[4.144761949920458,51.834911708200856]}},{"type":"Feature","properties":{"highway":"bus_stop","public_transport":"platform","name":"Plataanlaan","ref:IFOPT":"NL:Q:52760140","_quaycode":"NL:Q:52760140","_town":"Hellevoetsluis","_status":"available","_mode":"bus","_direction":334,"_visuallyAccessible":false,"_disabledAccessible":true,"geojson_lng":4.146036630086966,"geojson_lat":51.826565181462016},"geometry":{"type":"Point","coordinates":[4.146036630086966,51.826565181462016]}},{"type":"Feature","properties":{"highway":"bus_stop","public_transport":"platform","name":"Vesting","ref:IFOPT":"NL:Q:52760150","_quaycode":"NL:Q:52760150","_town":"Hellevoetsluis","_status":"available","_mode":"bus","_direction":221,"_visuallyAccessible":false,"_disabledAccessible":true,"geojson_lng":4.133781508877587,"geojson_lat":51.82434941756133},"geometry":{"type":"Point","coordinates":[4.133781508877587,51.82434941756133]}},{"type":"Feature","properties":{"highway":"bus_stop","public_transport":"platform","name":"Smitsweg","ref:IFOPT":"NL:Q:52760090","_quaycode":"NL:Q:52760090","_town":"Hellevoetsluis","_status":"available","_mode":"bus","_direction":85,"_visuallyAccessible":false,"_disabledAccessible":true,"geojson_lng":4.122949365467595,"geojson_lat":51.83350118706431},"geometry":{"type":"Point","coordinates":[4.122949365467595,51.83350118706431]}},{"type":"Feature","properties":{"highway":"bus_stop","public_transport":"platform","name":"Provincialeweg/Voorweg","ref:IFOPT":"NL:Q:52760110","_quaycode":"NL:Q:52760110","_town":"Hellevoetsluis","_status":"available","_mode":"bus","_direction":192,"_visuallyAccessible":false,"_disabledAccessible":true,"geojson_lng":4.093901098380009,"geojson_lat":51.83855132647508},"geometry":{"type":"Point","coordinates":[4.093901098380009,51.83855132647508]}},{"type":"Feature","properties":{"highway":"bus_stop","public_transport":"platform","name":"Ruigendijk","ref:IFOPT":"NL:Q:52560010","_quaycode":"NL:Q:52560010","_town":"Oudenhoorn","_status":"available","_mode":"bus","_direction":55,"_visuallyAccessible":false,"_disabledAccessible":false,"geojson_lng":4.218809796518998,"geojson_lat":51.826943696012115},"geometry":{"type":"Point","coordinates":[4.218809796518998,51.826943696012115]}},{"type":"Feature","properties":{"highway":"bus_stop","public_transport":"platform","name":"Vlotbrug","ref:IFOPT":"NL:Q:52760080","_quaycode":"NL:Q:52760080","_town":"Hellevoetsluis","_status":"available","_mode":"bus","_direction":268,"_visuallyAccessible":false,"_disabledAccessible":true,"geojson_lng":4.1553922449578975,"geojson_lat":51.83246181833379},"geometry":{"type":"Point","coordinates":[4.1553922449578975,51.83246181833379]}},{"type":"Feature","properties":{"highway":"bus_stop","public_transport":"platform","name":"Sportlaan","ref:IFOPT":"NL:Q:52760210","_quaycode":"NL:Q:52760210","_town":"Hellevoetsluis","_status":"available","_mode":"bus","_direction":86,"_visuallyAccessible":false,"_disabledAccessible":true,"geojson_lng":4.1393607493134805,"geojson_lat":51.83451281760088},"geometry":{"type":"Point","coordinates":[4.1393607493134805,51.83451281760088]}},{"type":"Feature","properties":{"highway":"bus_stop","public_transport":"platform","name":"Plataanlaan","ref:IFOPT":"NL:Q:52760270","_quaycode":"NL:Q:52760270","_town":"Hellevoetsluis","_status":"available","_mode":"bus","_direction":154,"_visuallyAccessible":false,"_disabledAccessible":true,"geojson_lng":4.146014307518786,"geojson_lat":51.82632223520201},"geometry":{"type":"Point","coordinates":[4.146014307518786,51.82632223520201]}},{"type":"Feature","properties":{"highway":"bus_stop","public_transport":"platform","name":"De Sprong","ref:IFOPT":"NL:Q:52760230","_quaycode":"NL:Q:52760230","_town":"Hellevoetsluis","_status":"available","_mode":"bus","_direction":131,"_visuallyAccessible":true,"_disabledAccessible":true,"geojson_lng":4.149325861739174,"geojson_lat":51.8330452196014},"geometry":{"type":"Point","coordinates":[4.149325861739174,51.8330452196014]}},{"type":"Feature","properties":{"highway":"bus_stop","public_transport":"platform","name":"Smitsweg","ref:IFOPT":"NL:Q:52760320","_quaycode":"NL:Q:52760320","_town":"Hellevoetsluis","_status":"available","_mode":"bus","_direction":266,"_visuallyAccessible":false,"_disabledAccessible":true,"geojson_lng":4.122334845976726,"geojson_lat":51.83368334125904},"geometry":{"type":"Point","coordinates":[4.122334845976726,51.83368334125904]}},{"type":"Feature","properties":{"highway":"bus_stop","public_transport":"platform","name":"Kanaalweg","ref:IFOPT":"NL:Q:52760400","_quaycode":"NL:Q:52760400","_town":"Hellevoetsluis","_status":"available","_mode":"bus","_direction":8,"_visuallyAccessible":false,"_disabledAccessible":false,"geojson_lng":4.144867177341195,"geojson_lat":51.832674496388414},"geometry":{"type":"Point","coordinates":[4.144867177341195,51.832674496388414]}},{"type":"Feature","properties":{"highway":"bus_stop","public_transport":"platform","name":"Struytse Hoeck","ref:IFOPT":"NL:Q:52760500","_quaycode":"NL:Q:52760500","_town":"Hellevoetsluis","_status":"available","_mode":"bus","_direction":265,"_visuallyAccessible":true,"_disabledAccessible":true,"geojson_lng":4.144367069905882,"geojson_lat":51.835024387923276},"geometry":{"type":"Point","coordinates":[4.144367069905882,51.835024387923276]}},{"type":"Feature","properties":{"highway":"bus_stop","public_transport":"platform","name":"Amnesty Internationallaan","ref:IFOPT":"NL:Q:52760222","_quaycode":"NL:Q:52760222","_town":"Hellevoetsluis","_status":"available","_mode":"bus","_direction":260,"_visuallyAccessible":false,"_disabledAccessible":false,"geojson_lng":4.132705416459724,"geojson_lat":51.834342990281435},"geometry":{"type":"Point","coordinates":[4.132705416459724,51.834342990281435]}},{"type":"Feature","properties":{"highway":"bus_stop","public_transport":"platform","name":"Amnesty Internationallaan","ref:IFOPT":"NL:Q:52760191","_quaycode":"NL:Q:52760191","_town":"Hellevoetsluis","_status":"available","_mode":"bus","_direction":80,"_visuallyAccessible":false,"_disabledAccessible":true,"geojson_lng":4.13300078210094,"geojson_lat":51.83415737205685},"geometry":{"type":"Point","coordinates":[4.13300078210094,51.83415737205685]}},{"type":"Feature","properties":{"highway":"bus_stop","public_transport":"platform","name":"Kooistee","ref:IFOPT":"NL:Q:52760410","_quaycode":"NL:Q:52760410","_town":"Hellevoetsluis","_status":"available","_mode":"bus","_direction":333,"_visuallyAccessible":false,"_disabledAccessible":true,"geojson_lng":4.160424238943669,"geojson_lat":51.82829856858339},"geometry":{"type":"Point","coordinates":[4.160424238943669,51.82829856858339]}},{"type":"Feature","properties":{"highway":"bus_stop","public_transport":"platform","name":"Mandenmaker","ref:IFOPT":"NL:Q:52760040","_quaycode":"NL:Q:52760040","_town":"Hellevoetsluis","_status":"available","_mode":"bus","_direction":192,"_visuallyAccessible":false,"_disabledAccessible":true,"geojson_lng":4.166120693763146,"geojson_lat":51.83384140676103},"geometry":{"type":"Point","coordinates":[4.166120693763146,51.83384140676103]}},{"type":"Feature","properties":{"highway":"bus_stop","public_transport":"platform","name":"Kooistee","ref:IFOPT":"NL:Q:52760060","_quaycode":"NL:Q:52760060","_town":"Hellevoetsluis","_status":"available","_mode":"bus","_direction":253,"_visuallyAccessible":false,"_disabledAccessible":true,"geojson_lng":4.160585317471609,"geojson_lat":51.82877668207495},"geometry":{"type":"Point","coordinates":[4.160585317471609,51.82877668207495]}},{"type":"Feature","properties":{"highway":"bus_stop","public_transport":"platform","name":"Sportlaan","ref:IFOPT":"NL:Q:52760200","_quaycode":"NL:Q:52760200","_town":"Hellevoetsluis","_status":"available","_mode":"bus","_direction":266,"_visuallyAccessible":false,"_disabledAccessible":true,"geojson_lng":4.139471318643606,"geojson_lat":51.834711756938304},"geometry":{"type":"Point","coordinates":[4.139471318643606,51.834711756938304]}},{"type":"Feature","properties":{"highway":"bus_stop","public_transport":"platform","name":"Ebstroom","ref:IFOPT":"NL:Q:52760310","_quaycode":"NL:Q:52760310","_town":"Hellevoetsluis","_status":"available","_mode":"bus","_direction":82,"_visuallyAccessible":false,"_disabledAccessible":false,"geojson_lng":4.154042897023896,"geojson_lat":51.824510139427765},"geometry":{"type":"Point","coordinates":[4.154042897023896,51.824510139427765]}},{"type":"Feature","properties":{"highway":"bus_stop","public_transport":"platform","name":"Philipsdam","ref:IFOPT":"NL:Q:72490070","_quaycode":"NL:Q:72490070","_town":"Sint Philipsland","_status":"available","_mode":"bus","_direction":107,"_visuallyAccessible":false,"_disabledAccessible":false,"geojson_lng":4.177617013877892,"geojson_lat":51.64981457417257},"geometry":{"type":"Point","coordinates":[4.177617013877892,51.64981457417257]}}]}