{"type":"FeatureCollection","features":[{"type":"Feature","properties":{"highway":"bus_stop","public_transport":"platform","name":"Station","ref:IFOPT":"NL:Q:38001355","_quaycode":"NL:Q:38001355","_town":"Hoorn","_status":"available","_mode":"bus","_direction":280,"_visuallyAccessible":false,"_disabledAccessible":false,"geojson_lng":5.054103690330796,"geojson_lat":52.64472251687819},"geometry":{"type":"Point","coordinates":[5.054103690330796,52.64472251687819]}},{"type":"Feature","properties":{"highway":"bus_stop","public_transport":"platform","name":"Stijgbeugel","ref:IFOPT":"NL:Q:38001131","_quaycode":"NL:Q:38001131","_town":"Zwaag","_status":"available","_mode":"bus","_direction":160,"_visuallyAccessible":true,"_disabledAccessible":true,"geojson_lng":5.039704082698195,"geojson_lat":52.666047535482996},"geometry":{"type":"Point","coordinates":[5.039704082698195,52.666047535482996]}},{"type":"Feature","properties":{"highway":"bus_stop","public_transport":"platform","name":"Raadhuisplein","ref:IFOPT":"NL:Q:38120050","_quaycode":"NL:Q:38120050","_town":"Wognum","_status":"available","_mode":"bus","_direction":194,"_visuallyAccessible":false,"_disabledAccessible":true,"geojson_lng":5.031341215851096,"geojson_lat":52.68053291002278},"geometry":{"type":"Point","coordinates":[5.031341215851096,52.68053291002278]}},{"type":"Feature","properties":{"highway":"bus_stop","public_transport":"platform","name":"Kolblei","ref:IFOPT":"NL:Q:38270065","_quaycode":"NL:Q:38270065","_town":"Avenhorn","_status":"available","_mode":"bus","_direction":317,"_visuallyAccessible":false,"_disabledAccessible":false,"geojson_lng":4.947350250904472,"geojson_lat":52.61993954111971},"geometry":{"type":"Point","coordinates":[4.947350250904472,52.61993954111971]}},{"type":"Feature","properties":{"highway":"bus_stop","public_transport":"platform","name":"Pastoor Nuijenstraat","ref:IFOPT":"NL:Q:38110550","_quaycode":"NL:Q:38110550","_town":"Zwaag","_status":"available","_mode":"bus","_direction":252,"_visuallyAccessible":false,"_disabledAccessible":false,"geojson_lng":5.075859149444496,"geojson_lat":52.66884876611807},"geometry":{"type":"Point","coordinates":[5.075859149444496,52.66884876611807]}},{"type":"Feature","properties":{"highway":"bus_stop","public_transport":"platform","name":"Prot. Kerk","ref:IFOPT":"NL:Q:38270060","_quaycode":"NL:Q:38270060","_town":"Avenhorn","_status":"available","_mode":"bus","_direction":316,"_visuallyAccessible":false,"_disabledAccessible":true,"geojson_lng":4.949468590007278,"geojson_lat":52.61778144748878},"geometry":{"type":"Point","coordinates":[4.949468590007278,52.61778144748878]}},{"type":"Feature","properties":{"highway":"bus_stop","public_transport":"platform","name":"Raadhuisplein","ref:IFOPT":"NL:Q:38120060","_quaycode":"NL:Q:38120060","_town":"Wognum","_status":"available","_mode":"bus","_direction":15,"_visuallyAccessible":true,"_disabledAccessible":true,"geojson_lng":5.031473351126942,"geojson_lat":52.680650136227754},"geometry":{"type":"Point","coordinates":[5.031473351126942,52.680650136227754]}},{"type":"Feature","properties":{"highway":"bus_stop","public_transport":"platform","name":"Schonemansbrug","ref:IFOPT":"NL:Q:38400220","_quaycode":"NL:Q:38400220","_town":"Bovenkarspel","_status":"available","_mode":"bus","_direction":0,"_visuallyAccessible":false,"_disabledAccessible":false,"geojson_lng":5.241821367799139,"geojson_lat":52.69799730983923},"geometry":{"type":"Point","coordinates":[5.241821367799139,52.69799730983923]}},{"type":"Feature","properties":{"highway":"bus_stop","public_transport":"platform","name":"Raadhuisje","ref:IFOPT":"NL:Q:38360210","_quaycode":"NL:Q:38360210","_town":"Spanbroek","_status":"available","_mode":"bus","_direction":132,"_visuallyAccessible":false,"_disabledAccessible":true,"geojson_lng":4.944081440756618,"geojson_lat":52.69822304294976},"geometry":{"type":"Point","coordinates":[4.944081440756618,52.69822304294976]}},{"type":"Feature","properties":{"highway":"bus_stop","public_transport":"platform","name":"Busstation","ref:IFOPT":"NL:Q:38491015","_quaycode":"NL:Q:38491015","_town":"Edam","_status":"available","_mode":"bus","_direction":261,"_visuallyAccessible":false,"_disabledAccessible":true,"geojson_lng":5.04486851090174,"geojson_lat":52.5099058108133},"geometry":{"type":"Point","coordinates":[5.04486851090174,52.5099058108133]}},{"type":"Feature","properties":{"highway":"bus_stop","public_transport":"platform","name":"De Corantijn","ref:IFOPT":"NL:Q:38110070","_quaycode":"NL:Q:38110070","_town":"Zwaag","_status":"available","_mode":"bus","_direction":42,"_visuallyAccessible":true,"_disabledAccessible":true,"geojson_lng":5.068345482952585,"geojson_lat":52.66937707839345},"geometry":{"type":"Point","coordinates":[5.068345482952585,52.66937707839345]}},{"type":"Feature","properties":{"highway":"bus_stop","public_transport":"platform","name":"IJsselweg","ref:IFOPT":"NL:Q:38110230","_quaycode":"NL:Q:38110230","_town":"Hoorn","_status":"available","_mode":"bus","_direction":255,"_visuallyAccessible":false,"_disabledAccessible":false,"geojson_lng":5.077323175576251,"geojson_lat":52.65618985513682},"geometry":{"type":"Point","coordinates":[5.077323175576251,52.65618985513682]}},{"type":"Feature","properties":{"highway":"bus_stop","public_transport":"platform","name":"Schoener","ref:IFOPT":"NL:Q:38490430","_quaycode":"NL:Q:38490430","_town":"Volendam","_status":"available","_mode":"bus","_direction":167,"_visuallyAccessible":true,"_disabledAccessible":true,"geojson_lng":5.047199248211362,"geojson_lat":52.49797726869792},"geometry":{"type":"Point","coordinates":[5.047199248211362,52.49797726869792]}},{"type":"Feature","properties":{"highway":"bus_stop","public_transport":"platform","name":"Graanmaalderij","ref:IFOPT":"NL:Q:37404030","_quaycode":"NL:Q:37404030","_town":"Purmerend","_status":"available","_mode":"bus","_direction":52,"_visuallyAccessible":false,"_disabledAccessible":true,"geojson_lng":4.934350517135313,"geojson_lat":52.509814161075376},"geometry":{"type":"Point","coordinates":[4.934350517135313,52.509814161075376]}},{"type":"Feature","properties":{"highway":"bus_stop","public_transport":"platform","name":"Station Overwhere","ref:IFOPT":"NL:Q:37402160","_quaycode":"NL:Q:37402160","_town":"Purmerend","_status":"available","_mode":"bus","_direction":338,"_visuallyAccessible":true,"_disabledAccessible":true,"geojson_lng":4.966837357577206,"geojson_lat":52.510598751758494},"geometry":{"type":"Point","coordinates":[4.966837357577206,52.510598751758494]}},{"type":"Feature","properties":{"highway":"bus_stop","public_transport":"platform","name":"Signaal","ref:IFOPT":"NL:Q:37405250","_quaycode":"NL:Q:37405250","_town":"Purmerend","_status":"available","_mode":"bus","_direction":302,"_visuallyAccessible":false,"_disabledAccessible":false,"geojson_lng":5.006277566296544,"geojson_lat":52.5131495038663},"geometry":{"type":"Point","coordinates":[5.006277566296544,52.5131495038663]}},{"type":"Feature","properties":{"highway":"bus_stop","public_transport":"platform","name":"Beets (N247)","ref:IFOPT":"NL:Q:38290010","_quaycode":"NL:Q:38290010","_town":"Beets","_status":"available","_mode":"bus","_direction":187,"_visuallyAccessible":false,"_disabledAccessible":false,"geojson_lng":5.001046415484387,"geojson_lat":52.590836822576655},"geometry":{"type":"Point","coordinates":[5.001046415484387,52.590836822576655]}},{"type":"Feature","properties":{"highway":"bus_stop","public_transport":"platform","name":"Melkweg Nr 21","ref:IFOPT":"NL:Q:37312350","_quaycode":"NL:Q:37312350","_town":"Purmerland","_status":"available","_mode":"bus","_direction":205,"_visuallyAccessible":false,"_disabledAccessible":false,"geojson_lng":4.930931457077807,"geojson_lat":52.49001071130855},"geometry":{"type":"Point","coordinates":[4.930931457077807,52.49001071130855]}},{"type":"Feature","properties":{"highway":"bus_stop","public_transport":"platform","name":"Viaduct A7","ref:IFOPT":"NL:Q:38291090","_quaycode":"NL:Q:38291090","_town":"Beets","_status":"available","_mode":"bus","_direction":260,"_visuallyAccessible":false,"_disabledAccessible":false,"geojson_lng":4.984766572474662,"geojson_lat":52.58953357949731},"geometry":{"type":"Point","coordinates":[4.984766572474662,52.58953357949731]}},{"type":"Feature","properties":{"highway":"bus_stop","public_transport":"platform","name":"Bovenlandsestraat","ref:IFOPT":"NL:Q:37400890","_quaycode":"NL:Q:37400890","_town":"Purmerend","_status":"available","_mode":"bus","_direction":121,"_visuallyAccessible":true,"_disabledAccessible":false,"geojson_lng":4.962386817838715,"geojson_lat":52.4970208866567},"geometry":{"type":"Point","coordinates":[4.962386817838715,52.4970208866567]}},{"type":"Feature","properties":{"highway":"bus_stop","public_transport":"platform","name":"Beethovenstraat","ref:IFOPT":"NL:Q:37400350","_quaycode":"NL:Q:37400350","_town":"Purmerend","_status":"available","_mode":"bus","_direction":309,"_visuallyAccessible":true,"_disabledAccessible":true,"geojson_lng":4.968452097085804,"geojson_lat":52.48787525934929},"geometry":{"type":"Point","coordinates":[4.968452097085804,52.48787525934929]}},{"type":"Feature","properties":{"highway":"bus_stop","public_transport":"platform","name":"Hannie Schaftstraat","ref:IFOPT":"NL:Q:37402100","_quaycode":"NL:Q:37402100","_town":"Purmerend","_status":"available","_mode":"bus","_direction":34,"_visuallyAccessible":true,"_disabledAccessible":true,"geojson_lng":4.972588167829984,"geojson_lat":52.50681731009358},"geometry":{"type":"Point","coordinates":[4.972588167829984,52.50681731009358]}},{"type":"Feature","properties":{"highway":"bus_stop","public_transport":"platform","name":"Volendam Centrum","ref:IFOPT":"NL:Q:38490630","_quaycode":"NL:Q:38490630","_town":"Volendam","_status":"available","_mode":"bus","_direction":217,"_visuallyAccessible":false,"_disabledAccessible":false,"geojson_lng":5.070910176940876,"geojson_lat":52.49561624305092},"geometry":{"type":"Point","coordinates":[5.070910176940876,52.49561624305092]}},{"type":"Feature","properties":{"highway":"bus_stop","public_transport":"platform","name":"Neckerbrug","ref:IFOPT":"NL:Q:37404010","_quaycode":"NL:Q:37404010","_town":"Neck","_status":"available","_mode":"bus","_direction":69,"_visuallyAccessible":false,"_disabledAccessible":false,"geojson_lng":4.919225086867608,"geojson_lat":52.50820963891396},"geometry":{"type":"Point","coordinates":[4.919225086867608,52.50820963891396]}},{"type":"Feature","properties":{"highway":"bus_stop","public_transport":"platform","name":"Station Purmerend","ref:IFOPT":"NL:Q:37400700","_quaycode":"NL:Q:37400700","_town":"Purmerend","_status":"available","_mode":"bus","_direction":152,"_visuallyAccessible":true,"_disabledAccessible":true,"geojson_lng":4.955093315166108,"geojson_lat":52.50348347373415},"geometry":{"type":"Point","coordinates":[4.955093315166108,52.50348347373415]}},{"type":"Feature","properties":{"highway":"bus_stop","public_transport":"platform","name":"Keern","ref:IFOPT":"NL:Q:38004180","_quaycode":"NL:Q:38004180","_town":"Zwaag","_status":"available","_mode":"bus","_direction":167,"_visuallyAccessible":false,"_disabledAccessible":false,"geojson_lng":5.04232825771119,"geojson_lat":52.65976027128807},"geometry":{"type":"Point","coordinates":[5.04232825771119,52.65976027128807]}},{"type":"Feature","properties":{"highway":"bus_stop","public_transport":"platform","name":"Nieuwe Gouw","ref:IFOPT":"NL:Q:37405010","_quaycode":"NL:Q:37405010","_town":"Purmerend","_status":"available","_mode":"bus","_direction":211,"_visuallyAccessible":true,"_disabledAccessible":true,"geojson_lng":4.985045796121766,"geojson_lat":52.52009860617641},"geometry":{"type":"Point","coordinates":[4.985045796121766,52.52009860617641]}},{"type":"Feature","properties":{"highway":"bus_stop","public_transport":"platform","name":"Basisveenstraat","ref:IFOPT":"NL:Q:37400800","_quaycode":"NL:Q:37400800","_town":"Purmerend","_status":"available","_mode":"bus","_direction":114,"_visuallyAccessible":false,"_disabledAccessible":true,"geojson_lng":4.96554531403139,"geojson_lat":52.500896747577954},"geometry":{"type":"Point","coordinates":[4.96554531403139,52.500896747577954]}},{"type":"Feature","properties":{"highway":"bus_stop","public_transport":"platform","name":"Jan Blankenbrug","ref:IFOPT":"NL:Q:37400061","_quaycode":"NL:Q:37400061","_town":"Purmerend","_status":"available","_mode":"bus","_direction":79,"_visuallyAccessible":false,"_disabledAccessible":false,"geojson_lng":4.948886693610625,"geojson_lat":52.496684183801094},"geometry":{"type":"Point","coordinates":[4.948886693610625,52.496684183801094]}},{"type":"Feature","properties":{"highway":"bus_stop","public_transport":"platform","name":"Vallettastraat","ref:IFOPT":"NL:Q:37403660","_quaycode":"NL:Q:37403660","_town":"Purmerend","_status":"available","_mode":"bus","_direction":208,"_visuallyAccessible":true,"_disabledAccessible":true,"geojson_lng":4.938459892193795,"geojson_lat":52.504041868749844},"geometry":{"type":"Point","coordinates":[4.938459892193795,52.504041868749844]}},{"type":"Feature","properties":{"highway":"bus_stop","public_transport":"platform","name":"M.L. Kingweg","ref:IFOPT":"NL:Q:37402520","_quaycode":"NL:Q:37402520","_town":"Purmerend","_status":"available","_mode":"bus","_direction":291,"_visuallyAccessible":true,"_disabledAccessible":true,"geojson_lng":4.964694238398921,"geojson_lat":52.523676784406035},"geometry":{"type":"Point","coordinates":[4.964694238398921,52.523676784406035]}},{"type":"Feature","properties":{"highway":"bus_stop","public_transport":"platform","name":"M.L. Kingweg","ref:IFOPT":"NL:Q:37400261","_quaycode":"NL:Q:37400261","_town":"Purmerend","_status":"available","_mode":"bus","_direction":111,"_visuallyAccessible":true,"_disabledAccessible":true,"geojson_lng":4.965212421591325,"geojson_lat":52.52341799373015},"geometry":{"type":"Point","coordinates":[4.965212421591325,52.52341799373015]}},{"type":"Feature","properties":{"highway":"bus_stop","public_transport":"platform","name":"Oosthuizen Dorp","ref:IFOPT":"NL:Q:38290043","_quaycode":"NL:Q:38290043","_town":"Oosthuizen","_status":"available","_mode":"bus","_direction":40,"_visuallyAccessible":false,"_disabledAccessible":false,"geojson_lng":4.997855748084618,"geojson_lat":52.57448760717187},"geometry":{"type":"Point","coordinates":[4.997855748084618,52.57448760717187]}},{"type":"Feature","properties":{"highway":"bus_stop","public_transport":"platform","name":"Zeddeweg","ref:IFOPT":"NL:Q:38490270","_quaycode":"NL:Q:38490270","_town":"Volendam","_status":"available","_mode":"bus","_direction":174,"_visuallyAccessible":true,"_disabledAccessible":true,"geojson_lng":5.057006384240177,"geojson_lat":52.49210923253519},"geometry":{"type":"Point","coordinates":[5.057006384240177,52.49210923253519]}},{"type":"Feature","properties":{"highway":"bus_stop","public_transport":"platform","name":"Hannie Schaftstraat","ref:IFOPT":"NL:Q:37402150","_quaycode":"NL:Q:37402150","_town":"Purmerend","_status":"available","_mode":"bus","_direction":304,"_visuallyAccessible":true,"_disabledAccessible":false,"geojson_lng":4.969826389737638,"geojson_lat":52.507607508101735},"geometry":{"type":"Point","coordinates":[4.969826389737638,52.507607508101735]}},{"type":"Feature","properties":{"highway":"bus_stop","public_transport":"platform","name":"Vallettastraat","ref:IFOPT":"NL:Q:37403670","_quaycode":"NL:Q:37403670","_town":"Purmerend","_status":"available","_mode":"bus","_direction":28,"_visuallyAccessible":true,"_disabledAccessible":true,"geojson_lng":4.939147436409589,"geojson_lat":52.50450282588941},"geometry":{"type":"Point","coordinates":[4.939147436409589,52.50450282588941]}},{"type":"Feature","properties":{"highway":"bus_stop","public_transport":"platform","name":"Harlingenlaan","ref:IFOPT":"NL:Q:38490650","_quaycode":"NL:Q:38490650","_town":"Volendam","_status":"available","_mode":"bus","_direction":20,"_visuallyAccessible":true,"_disabledAccessible":true,"geojson_lng":5.073074082802082,"geojson_lat":52.51021748469172},"geometry":{"type":"Point","coordinates":[5.073074082802082,52.51021748469172]}},{"type":"Feature","properties":{"highway":"bus_stop","public_transport":"platform","name":"Zuiderweg","ref:IFOPT":"NL:Q:36570090","_quaycode":"NL:Q:36570090","_town":"Zuidoostbeemster","_status":"available","_mode":"bus","_direction":103,"_visuallyAccessible":false,"_disabledAccessible":false,"geojson_lng":4.924858112339836,"geojson_lat":52.51745281501817},"geometry":{"type":"Point","coordinates":[4.924858112339836,52.51745281501817]}},{"type":"Feature","properties":{"highway":"bus_stop","public_transport":"platform","name":"Tramplein","ref:IFOPT":"NL:Q:37401700","_quaycode":"NL:Q:37401700","_town":"Purmerend","_status":"available","_mode":"bus","_direction":170,"_visuallyAccessible":false,"_disabledAccessible":false,"geojson_lng":4.944292157418469,"geojson_lat":52.506984695099945},"geometry":{"type":"Point","coordinates":[4.944292157418469,52.506984695099945]}},{"type":"Feature","properties":{"highway":"bus_stop","public_transport":"platform","name":"Mastbos","ref:IFOPT":"NL:Q:37401050","_quaycode":"NL:Q:37401050","_town":"Purmerend","_status":"available","_mode":"bus","_direction":210,"_visuallyAccessible":true,"_disabledAccessible":true,"geojson_lng":4.973696999854264,"geojson_lat":52.492207629032606},"geometry":{"type":"Point","coordinates":[4.973696999854264,52.492207629032606]}},{"type":"Feature","properties":{"highway":"bus_stop","public_transport":"platform","name":"Verkavelingweg","ref:IFOPT":"NL:Q:38390010","_quaycode":"NL:Q:38390010","_town":"Warder","_status":"available","_mode":"bus","_direction":154,"_visuallyAccessible":false,"_disabledAccessible":false,"geojson_lng":5.009135222035139,"geojson_lat":52.56135769173967},"geometry":{"type":"Point","coordinates":[5.009135222035139,52.56135769173967]}},{"type":"Feature","properties":{"highway":"bus_stop","public_transport":"platform","name":"M.L. Kingweg","ref:IFOPT":"NL:Q:37400260","_quaycode":"NL:Q:37400260","_town":"Purmerend","_status":"available","_mode":"bus","_direction":110,"_visuallyAccessible":true,"_disabledAccessible":false,"geojson_lng":4.962894090704911,"geojson_lat":52.52393998459771},"geometry":{"type":"Point","coordinates":[4.962894090704911,52.52393998459771]}},{"type":"Feature","properties":{"highway":"bus_stop","public_transport":"platform","name":"Zuivelpad","ref:IFOPT":"NL:Q:37400450","_quaycode":"NL:Q:37400450","_town":"Purmerend","_status":"available","_mode":"bus","_direction":212,"_visuallyAccessible":false,"_disabledAccessible":true,"geojson_lng":4.985172631049795,"geojson_lat":52.499688657868546},"geometry":{"type":"Point","coordinates":[4.985172631049795,52.499688657868546]}},{"type":"Feature","properties":{"highway":"bus_stop","public_transport":"platform","name":"Viaduct A7","ref:IFOPT":"NL:Q:38291100","_quaycode":"NL:Q:38291100","_town":"Beets","_status":"available","_mode":"bus","_direction":79,"_visuallyAccessible":false,"_disabledAccessible":false,"geojson_lng":4.984796741121788,"geojson_lat":52.58946178380192},"geometry":{"type":"Point","coordinates":[4.984796741121788,52.58946178380192]}},{"type":"Feature","properties":{"highway":"bus_stop","public_transport":"platform","name":"Tuyp","ref:IFOPT":"NL:Q:36470540","_quaycode":"NL:Q:36470540","_town":"Middenbeemster","_status":"available","_mode":"bus","_direction":31,"_visuallyAccessible":false,"_disabledAccessible":false,"geojson_lng":4.918320607554187,"geojson_lat":52.55734010433963},"geometry":{"type":"Point","coordinates":[4.918320607554187,52.55734010433963]}},{"type":"Feature","properties":{"highway":"bus_stop","public_transport":"platform","name":"IJe","ref:IFOPT":"NL:Q:38490280","_quaycode":"NL:Q:38490280","_town":"Edam","_status":"available","_mode":"bus","_direction":320,"_visuallyAccessible":false,"_disabledAccessible":false,"geojson_lng":5.0528379638606244,"geojson_lat":52.5059381374922},"geometry":{"type":"Point","coordinates":[5.0528379638606244,52.5059381374922]}},{"type":"Feature","properties":{"highway":"bus_stop","public_transport":"platform","name":"Brug","ref:IFOPT":"NL:Q:38381010","_quaycode":"NL:Q:38381010","_town":"Hobrede","_status":"available","_mode":"bus","_direction":153,"_visuallyAccessible":false,"_disabledAccessible":false,"geojson_lng":4.97651846347454,"geojson_lat":52.548262730733164},"geometry":{"type":"Point","coordinates":[4.97651846347454,52.548262730733164]}},{"type":"Feature","properties":{"highway":"bus_stop","public_transport":"platform","name":"Orinocostraat","ref:IFOPT":"NL:Q:37403940","_quaycode":"NL:Q:37403940","_town":"Purmerend","_status":"available","_mode":"bus","_direction":12,"_visuallyAccessible":true,"_disabledAccessible":true,"geojson_lng":4.929153394387361,"geojson_lat":52.4967804031908},"geometry":{"type":"Point","coordinates":[4.929153394387361,52.4967804031908]}},{"type":"Feature","properties":{"highway":"bus_stop","public_transport":"platform","name":"Korenstraat","ref:IFOPT":"NL:Q:37400500","_quaycode":"NL:Q:37400500","_town":"Purmerend","_status":"available","_mode":"bus","_direction":173,"_visuallyAccessible":false,"_disabledAccessible":true,"geojson_lng":4.993446011680122,"geojson_lat":52.51158875803765},"geometry":{"type":"Point","coordinates":[4.993446011680122,52.51158875803765]}},{"type":"Feature","properties":{"highway":"bus_stop","public_transport":"platform","name":"Jonk","ref:IFOPT":"NL:Q:36570580","_quaycode":"NL:Q:36570580","_town":"Zuidoostbeemster","_status":"available","_mode":"bus","_direction":283,"_visuallyAccessible":false,"_disabledAccessible":false,"geojson_lng":4.921723837886669,"geojson_lat":52.52827937265106},"geometry":{"type":"Point","coordinates":[4.921723837886669,52.52827937265106]}},{"type":"Feature","properties":{"highway":"bus_stop","public_transport":"platform","name":"Velzeboer","ref:IFOPT":"NL:Q:36470550","_quaycode":"NL:Q:36470550","_town":"Middenbeemster","_status":"available","_mode":"bus","_direction":211,"_visuallyAccessible":false,"_disabledAccessible":false,"geojson_lng":4.925073933631991,"geojson_lat":52.568627686790755},"geometry":{"type":"Point","coordinates":[4.925073933631991,52.568627686790755]}},{"type":"Feature","properties":{"highway":"bus_stop","public_transport":"platform","name":"Brink","ref:IFOPT":"NL:Q:37501130","_quaycode":"NL:Q:37501130","_town":"Middelie","_status":"available","_mode":"bus","_direction":270,"_visuallyAccessible":false,"_disabledAccessible":false,"geojson_lng":5.013621933351825,"geojson_lat":52.531327312824395},"geometry":{"type":"Point","coordinates":[5.013621933351825,52.531327312824395]}},{"type":"Feature","properties":{"highway":"bus_stop","public_transport":"platform","name":"Woestijnstraat","ref:IFOPT":"NL:Q:37403880","_quaycode":"NL:Q:37403880","_town":"Purmerend","_status":"available","_mode":"bus","_direction":204,"_visuallyAccessible":false,"_disabledAccessible":false,"geojson_lng":4.935106315390526,"geojson_lat":52.49209381051799},"geometry":{"type":"Point","coordinates":[4.935106315390526,52.49209381051799]}},{"type":"Feature","properties":{"highway":"bus_stop","public_transport":"platform","name":"Wijkcentrum","ref:IFOPT":"NL:Q:37400590","_quaycode":"NL:Q:37400590","_town":"Purmerend","_status":"available","_mode":"bus","_direction":209,"_visuallyAccessible":true,"_disabledAccessible":true,"geojson_lng":4.982352348532773,"geojson_lat":52.50372340526878},"geometry":{"type":"Point","coordinates":[4.982352348532773,52.50372340526878]}},{"type":"Feature","properties":{"highway":"bus_stop","public_transport":"platform","name":"Junoplantsoen","ref:IFOPT":"NL:Q:38490080","_quaycode":"NL:Q:38490080","_town":"Volendam","_status":"available","_mode":"bus","_direction":72,"_visuallyAccessible":false,"_disabledAccessible":false,"geojson_lng":5.061979576254323,"geojson_lat":52.496589702897744},"geometry":{"type":"Point","coordinates":[5.061979576254323,52.496589702897744]}},{"type":"Feature","properties":{"highway":"bus_stop","public_transport":"platform","name":"Oosthuizerweg","ref:IFOPT":"NL:Q:36371020","_quaycode":"NL:Q:36371020","_town":"Noordbeemster","_status":"available","_mode":"bus","_direction":180,"_visuallyAccessible":true,"_disabledAccessible":true,"geojson_lng":4.93241989679311,"geojson_lat":52.5800069890327},"geometry":{"type":"Point","coordinates":[4.93241989679311,52.5800069890327]}},{"type":"Feature","properties":{"highway":"bus_stop","public_transport":"platform","name":"Mastbos","ref:IFOPT":"NL:Q:37401161","_quaycode":"NL:Q:37401161","_town":"Purmerend","_status":"available","_mode":"bus","_direction":32,"_visuallyAccessible":false,"_disabledAccessible":true,"geojson_lng":4.975027712962321,"geojson_lat":52.49319189008657},"geometry":{"type":"Point","coordinates":[4.975027712962321,52.49319189008657]}},{"type":"Feature","properties":{"highway":"bus_stop","public_transport":"platform","name":"Waterlandlaan","ref:IFOPT":"NL:Q:37402040","_quaycode":"NL:Q:37402040","_town":"Purmerend","_status":"available","_mode":"bus","_direction":36,"_visuallyAccessible":false,"_disabledAccessible":true,"geojson_lng":4.962728119127163,"geojson_lat":52.50288191108932},"geometry":{"type":"Point","coordinates":[4.962728119127163,52.50288191108932]}},{"type":"Feature","properties":{"highway":"bus_stop","public_transport":"platform","name":"Durkweg","ref:IFOPT":"NL:Q:36572050","_quaycode":"NL:Q:36572050","_town":"Kwadijk","_status":"available","_mode":"bus","_direction":240,"_visuallyAccessible":false,"_disabledAccessible":false,"geojson_lng":4.984802840171022,"geojson_lat":52.52735957694236},"geometry":{"type":"Point","coordinates":[4.984802840171022,52.52735957694236]}},{"type":"Feature","properties":{"highway":"bus_stop","public_transport":"platform","name":"Hotel Volendam","ref:IFOPT":"NL:Q:38490020","_quaycode":"NL:Q:38490020","_town":"Katwoude","_status":"available","_mode":"bus","_direction":89,"_visuallyAccessible":false,"_disabledAccessible":true,"geojson_lng":5.035506999996779,"geojson_lat":52.488704136269966},"geometry":{"type":"Point","coordinates":[5.035506999996779,52.488704136269966]}},{"type":"Feature","properties":{"highway":"bus_stop","public_transport":"platform","name":"Tuyp","ref:IFOPT":"NL:Q:36470590","_quaycode":"NL:Q:36470590","_town":"Middenbeemster","_status":"available","_mode":"bus","_direction":211,"_visuallyAccessible":false,"_disabledAccessible":false,"geojson_lng":4.918666857701321,"geojson_lat":52.55806045761279},"geometry":{"type":"Point","coordinates":[4.918666857701321,52.55806045761279]}},{"type":"Feature","properties":{"highway":"bus_stop","public_transport":"platform","name":"Gedempte Where","ref:IFOPT":"NL:Q:37400730","_quaycode":"NL:Q:37400730","_town":"Purmerend","_status":"available","_mode":"bus","_direction":124,"_visuallyAccessible":false,"_disabledAccessible":false,"geojson_lng":4.950338788821491,"geojson_lat":52.50918206461984},"geometry":{"type":"Point","coordinates":[4.950338788821491,52.50918206461984]}},{"type":"Feature","properties":{"highway":"bus_stop","public_transport":"platform","name":"Klemweg","ref:IFOPT":"NL:Q:37501050","_quaycode":"NL:Q:37501050","_town":"Middelie","_status":"available","_mode":"bus","_direction":160,"_visuallyAccessible":false,"_disabledAccessible":false,"geojson_lng":5.010314212356283,"geojson_lat":52.5441867127613},"geometry":{"type":"Point","coordinates":[5.010314212356283,52.5441867127613]}},{"type":"Feature","properties":{"highway":"bus_stop","public_transport":"platform","name":"Jonk","ref:IFOPT":"NL:Q:36570550","_quaycode":"NL:Q:36570550","_town":"Zuidoostbeemster","_status":"available","_mode":"bus","_direction":103,"_visuallyAccessible":false,"_disabledAccessible":false,"geojson_lng":4.922463169183214,"geojson_lat":52.52803960990519},"geometry":{"type":"Point","coordinates":[4.922463169183214,52.52803960990519]}},{"type":"Feature","properties":{"highway":"bus_stop","public_transport":"platform","name":"Harmonie","ref:IFOPT":"NL:Q:37501080","_quaycode":"NL:Q:37501080","_town":"Middelie","_status":"available","_mode":"bus","_direction":343,"_visuallyAccessible":false,"_disabledAccessible":false,"geojson_lng":5.0134042632618865,"geojson_lat":52.53963092225171},"geometry":{"type":"Point","coordinates":[5.0134042632618865,52.53963092225171]}},{"type":"Feature","properties":{"highway":"bus_stop","public_transport":"platform","name":"Gildeplein","ref:IFOPT":"NL:Q:37400620","_quaycode":"NL:Q:37400620","_town":"Purmerend","_status":"available","_mode":"bus","_direction":347,"_visuallyAccessible":true,"_disabledAccessible":true,"geojson_lng":4.983978614340602,"geojson_lat":52.506272378716034},"geometry":{"type":"Point","coordinates":[4.983978614340602,52.506272378716034]}},{"type":"Feature","properties":{"highway":"bus_stop","public_transport":"platform","name":"Groenveld","ref:IFOPT":"NL:Q:36470240","_quaycode":"NL:Q:36470240","_town":"Middenbeemster","_status":"available","_mode":"bus","_direction":291,"_visuallyAccessible":false,"_disabledAccessible":false,"geojson_lng":4.9209871160320615,"geojson_lat":52.54641300351134},"geometry":{"type":"Point","coordinates":[4.9209871160320615,52.54641300351134]}},{"type":"Feature","properties":{"highway":"bus_stop","public_transport":"platform","name":"Halfweg","ref:IFOPT":"NL:Q:36570560","_quaycode":"NL:Q:36570560","_town":"Zuidoostbeemster","_status":"available","_mode":"bus","_direction":283,"_visuallyAccessible":false,"_disabledAccessible":false,"geojson_lng":4.928370900482275,"geojson_lat":52.52675942057048},"geometry":{"type":"Point","coordinates":[4.928370900482275,52.52675942057048]}},{"type":"Feature","properties":{"highway":"bus_stop","public_transport":"platform","name":"Aalscholverstraat","ref:IFOPT":"NL:Q:37400024","_quaycode":"NL:Q:37400024","_town":"Purmerend","_status":"available","_mode":"bus","_direction":181,"_visuallyAccessible":true,"_disabledAccessible":true,"geojson_lng":4.957274865404251,"geojson_lat":52.52448597004068},"geometry":{"type":"Point","coordinates":[4.957274865404251,52.52448597004068]}},{"type":"Feature","properties":{"highway":"bus_stop","public_transport":"platform","name":"Zoeloestraat","ref:IFOPT":"NL:Q:37403920","_quaycode":"NL:Q:37403920","_town":"Purmerend","_status":"available","_mode":"bus","_direction":314,"_visuallyAccessible":true,"_disabledAccessible":true,"geojson_lng":4.931306171187221,"geojson_lat":52.49222306754498},"geometry":{"type":"Point","coordinates":[4.931306171187221,52.49222306754498]}},{"type":"Feature","properties":{"highway":"bus_stop","public_transport":"platform","name":"Klemweg (N247)","ref:IFOPT":"NL:Q:38390060","_quaycode":"NL:Q:38390060","_town":"Middelie","_status":"available","_mode":"bus","_direction":334,"_visuallyAccessible":false,"_disabledAccessible":false,"geojson_lng":5.025649264552194,"geojson_lat":52.541897693505604},"geometry":{"type":"Point","coordinates":[5.025649264552194,52.541897693505604]}},{"type":"Feature","properties":{"highway":"bus_stop","public_transport":"platform","name":"Waterlandlaan","ref:IFOPT":"NL:Q:37401520","_quaycode":"NL:Q:37401520","_town":"Purmerend","_status":"available","_mode":"bus","_direction":307,"_visuallyAccessible":true,"_disabledAccessible":false,"geojson_lng":4.961196237053657,"geojson_lat":52.50290338358026},"geometry":{"type":"Point","coordinates":[4.961196237053657,52.50290338358026]}},{"type":"Feature","properties":{"highway":"bus_stop","public_transport":"platform","name":"Beets (N247)","ref:IFOPT":"NL:Q:38290320","_quaycode":"NL:Q:38290320","_town":"Beets","_status":"available","_mode":"bus","_direction":255,"_visuallyAccessible":false,"_disabledAccessible":false,"geojson_lng":5.00113648668505,"geojson_lat":52.592346968312754},"geometry":{"type":"Point","coordinates":[5.00113648668505,52.592346968312754]}},{"type":"Feature","properties":{"highway":"bus_stop","public_transport":"platform","name":"Cornelis Edelmanstraat","ref:IFOPT":"NL:Q:37401090","_quaycode":"NL:Q:37401090","_town":"Purmerend","_status":"available","_mode":"bus","_direction":256,"_visuallyAccessible":true,"_disabledAccessible":true,"geojson_lng":4.962672784328125,"geojson_lat":52.490245380152274},"geometry":{"type":"Point","coordinates":[4.962672784328125,52.490245380152274]}},{"type":"Feature","properties":{"highway":"bus_stop","public_transport":"platform","name":"M.L. Kingweg","ref:IFOPT":"NL:Q:37400250","_quaycode":"NL:Q:37400250","_town":"Purmerend","_status":"available","_mode":"bus","_direction":198,"_visuallyAccessible":true,"_disabledAccessible":true,"geojson_lng":4.963298469441025,"geojson_lat":52.52325838852693},"geometry":{"type":"Point","coordinates":[4.963298469441025,52.52325838852693]}},{"type":"Feature","properties":{"highway":"bus_stop","public_transport":"platform","name":"Nekkerweg","ref:IFOPT":"NL:Q:36470220","_quaycode":"NL:Q:36470220","_town":"Middenbeemster","_status":"available","_mode":"bus","_direction":290,"_visuallyAccessible":false,"_disabledAccessible":false,"geojson_lng":4.9388663913021595,"geojson_lat":52.542356663942854},"geometry":{"type":"Point","coordinates":[4.9388663913021595,52.542356663942854]}},{"type":"Feature","properties":{"highway":"bus_stop","public_transport":"platform","name":"Vurige Staart","ref:IFOPT":"NL:Q:37400210","_quaycode":"NL:Q:37400210","_town":"Purmerend","_status":"available","_mode":"bus","_direction":168,"_visuallyAccessible":true,"_disabledAccessible":true,"geojson_lng":4.949411575292967,"geojson_lat":52.49126669142167},"geometry":{"type":"Point","coordinates":[4.949411575292967,52.49126669142167]}},{"type":"Feature","properties":{"highway":"bus_stop","public_transport":"platform","name":"Sternstraat","ref:IFOPT":"NL:Q:37400220","_quaycode":"NL:Q:37400220","_town":"Purmerend","_status":"available","_mode":"bus","_direction":8,"_visuallyAccessible":true,"_disabledAccessible":true,"geojson_lng":4.957433713068322,"geojson_lat":52.52179033009201},"geometry":{"type":"Point","coordinates":[4.957433713068322,52.52179033009201]}},{"type":"Feature","properties":{"highway":"bus_stop","public_transport":"platform","name":"Dijklander Ziekenhuis","ref:IFOPT":"NL:Q:37405330","_quaycode":"NL:Q:37405330","_town":"Purmerend","_status":"available","_mode":"bus","_direction":124,"_visuallyAccessible":false,"_disabledAccessible":false,"geojson_lng":4.963230325478805,"geojson_lat":52.50119407093737},"geometry":{"type":"Point","coordinates":[4.963230325478805,52.50119407093737]}},{"type":"Feature","properties":{"highway":"bus_stop","public_transport":"platform","name":"Tramplein","ref:IFOPT":"NL:Q:37400100","_quaycode":"NL:Q:37400100","_town":"Purmerend","_status":"available","_mode":"bus","_direction":350,"_visuallyAccessible":false,"_disabledAccessible":false,"geojson_lng":4.944066993788198,"geojson_lat":52.50740626336677},"geometry":{"type":"Point","coordinates":[4.944066993788198,52.50740626336677]}},{"type":"Feature","properties":{"highway":"bus_stop","public_transport":"platform","name":"P.J. Oudlaan","ref:IFOPT":"NL:Q:37405110","_quaycode":"NL:Q:37405110","_town":"Purmerend","_status":"available","_mode":"bus","_direction":270,"_visuallyAccessible":true,"_disabledAccessible":true,"geojson_lng":4.96165595197032,"geojson_lat":52.51939692298027},"geometry":{"type":"Point","coordinates":[4.96165595197032,52.51939692298027]}},{"type":"Feature","properties":{"highway":"bus_stop","public_transport":"platform","name":"Hoefsmidpad","ref:IFOPT":"NL:Q:37400580","_quaycode":"NL:Q:37400580","_town":"Purmerend","_status":"available","_mode":"bus","_direction":32,"_visuallyAccessible":true,"_disabledAccessible":true,"geojson_lng":4.981507727876911,"geojson_lat":52.50267798086072},"geometry":{"type":"Point","coordinates":[4.981507727876911,52.50267798086072]}},{"type":"Feature","properties":{"highway":"bus_stop","public_transport":"platform","name":"Signaal","ref:IFOPT":"NL:Q:37405260","_quaycode":"NL:Q:37405260","_town":"Purmerend","_status":"available","_mode":"bus","_direction":121,"_visuallyAccessible":false,"_disabledAccessible":false,"geojson_lng":5.007194653211982,"geojson_lat":52.512712062109124},"geometry":{"type":"Point","coordinates":[5.007194653211982,52.512712062109124]}},{"type":"Feature","properties":{"highway":"bus_stop","public_transport":"platform","name":"Stationsweg","ref:IFOPT":"NL:Q:37500110","_quaycode":"NL:Q:37500110","_town":"Kwadijk","_status":"available","_mode":"bus","_direction":129,"_visuallyAccessible":false,"_disabledAccessible":false,"geojson_lng":4.994909638744888,"geojson_lat":52.52260314256498},"geometry":{"type":"Point","coordinates":[4.994909638744888,52.52260314256498]}},{"type":"Feature","properties":{"highway":"bus_stop","public_transport":"platform","name":"Kwadijkerkoogweg","ref:IFOPT":"NL:Q:37405080","_quaycode":"NL:Q:37405080","_town":"Purmerend","_status":"available","_mode":"bus","_direction":83,"_visuallyAccessible":true,"_disabledAccessible":false,"geojson_lng":4.9818041762762695,"geojson_lat":52.5185237748488},"geometry":{"type":"Point","coordinates":[4.9818041762762695,52.5185237748488]}},{"type":"Feature","properties":{"highway":"bus_stop","public_transport":"platform","name":"Rozenstraat","ref:IFOPT":"NL:Q:37400020","_quaycode":"NL:Q:37400020","_town":"Purmerend","_status":"available","_mode":"bus","_direction":178,"_visuallyAccessible":false,"_disabledAccessible":true,"geojson_lng":4.945934712231073,"geojson_lat":52.50179608122682},"geometry":{"type":"Point","coordinates":[4.945934712231073,52.50179608122682]}},{"type":"Feature","properties":{"highway":"bus_stop","public_transport":"platform","name":"Busstation","ref:IFOPT":"NL:Q:38491017","_quaycode":"NL:Q:38491017","_town":"Edam","_status":"available","_mode":"bus","_direction":140,"_visuallyAccessible":true,"_disabledAccessible":true,"geojson_lng":5.044483101548075,"geojson_lat":52.51021925646275},"geometry":{"type":"Point","coordinates":[5.044483101548075,52.51021925646275]}},{"type":"Feature","properties":{"highway":"bus_stop","public_transport":"platform","name":"Frescobaldistraat","ref:IFOPT":"NL:Q:37400310","_quaycode":"NL:Q:37400310","_town":"Purmerend","_status":"available","_mode":"bus","_direction":210,"_visuallyAccessible":false,"_disabledAccessible":true,"geojson_lng":4.971057665687144,"geojson_lat":52.48947520583979},"geometry":{"type":"Point","coordinates":[4.971057665687144,52.48947520583979]}},{"type":"Feature","properties":{"highway":"bus_stop","public_transport":"platform","name":"Canberrastraat","ref:IFOPT":"NL:Q:37403830","_quaycode":"NL:Q:37403830","_town":"Purmerend","_status":"available","_mode":"bus","_direction":70,"_visuallyAccessible":true,"_disabledAccessible":true,"geojson_lng":4.938047038414143,"geojson_lat":52.49539438827676},"geometry":{"type":"Point","coordinates":[4.938047038414143,52.49539438827676]}},{"type":"Feature","properties":{"highway":"bus_stop","public_transport":"platform","name":"Frescobaldistraat","ref:IFOPT":"NL:Q:37400320","_quaycode":"NL:Q:37400320","_town":"Purmerend","_status":"available","_mode":"bus","_direction":30,"_visuallyAccessible":false,"_disabledAccessible":true,"geojson_lng":4.972388322139912,"geojson_lat":52.49045050980767},"geometry":{"type":"Point","coordinates":[4.972388322139912,52.49045050980767]}},{"type":"Feature","properties":{"highway":"bus_stop","public_transport":"platform","name":"Jan Platstraat","ref:IFOPT":"NL:Q:38490360","_quaycode":"NL:Q:38490360","_town":"Volendam","_status":"available","_mode":"bus","_direction":54,"_visuallyAccessible":true,"_disabledAccessible":true,"geojson_lng":5.050758468459663,"geojson_lat":52.499379976838206},"geometry":{"type":"Point","coordinates":[5.050758468459663,52.499379976838206]}},{"type":"Feature","properties":{"highway":"bus_stop","public_transport":"platform","name":"Meerland","ref:IFOPT":"NL:Q:37400290","_quaycode":"NL:Q:37400290","_town":"Purmerend","_status":"available","_mode":"bus","_direction":121,"_visuallyAccessible":true,"_disabledAccessible":true,"geojson_lng":4.97012995851264,"geojson_lat":52.49417237926707},"geometry":{"type":"Point","coordinates":[4.97012995851264,52.49417237926707]}},{"type":"Feature","properties":{"highway":"bus_stop","public_transport":"platform","name":"Hoefsmidpad","ref:IFOPT":"NL:Q:37400610","_quaycode":"NL:Q:37400610","_town":"Purmerend","_status":"available","_mode":"bus","_direction":210,"_visuallyAccessible":true,"_disabledAccessible":true,"geojson_lng":4.980937006554443,"geojson_lat":52.5022805820439},"geometry":{"type":"Point","coordinates":[4.980937006554443,52.5022805820439]}},{"type":"Feature","properties":{"highway":"bus_stop","public_transport":"platform","name":"Riethoorneweg","ref:IFOPT":"NL:Q:38390040","_quaycode":"NL:Q:38390040","_town":"Zeevang","_status":"available","_mode":"bus","_direction":334,"_visuallyAccessible":false,"_disabledAccessible":false,"geojson_lng":5.0365906430173615,"geojson_lat":52.52842255842502},"geometry":{"type":"Point","coordinates":[5.0365906430173615,52.52842255842502]}},{"type":"Feature","properties":{"highway":"bus_stop","public_transport":"platform","name":"Morseweg","ref:IFOPT":"NL:Q:38490720","_quaycode":"NL:Q:38490720","_town":"Volendam","_status":"available","_mode":"bus","_direction":123,"_visuallyAccessible":false,"_disabledAccessible":true,"geojson_lng":5.079344711565666,"geojson_lat":52.50449997812069},"geometry":{"type":"Point","coordinates":[5.079344711565666,52.50449997812069]}},{"type":"Feature","properties":{"highway":"bus_stop","public_transport":"platform","name":"Verkavelingweg","ref:IFOPT":"NL:Q:38290020","_quaycode":"NL:Q:38290020","_town":"Warder","_status":"available","_mode":"bus","_direction":335,"_visuallyAccessible":false,"_disabledAccessible":false,"geojson_lng":5.008328246953814,"geojson_lat":52.56259536499161},"geometry":{"type":"Point","coordinates":[5.008328246953814,52.56259536499161]}},{"type":"Feature","properties":{"highway":"bus_stop","public_transport":"platform","name":"Klemweg (N247)","ref:IFOPT":"NL:Q:38390030","_quaycode":"NL:Q:38390030","_town":"Middelie","_status":"available","_mode":"bus","_direction":154,"_visuallyAccessible":false,"_disabledAccessible":false,"geojson_lng":5.026202077322756,"geojson_lat":52.54099165673364},"geometry":{"type":"Point","coordinates":[5.026202077322756,52.54099165673364]}},{"type":"Feature","properties":{"highway":"bus_stop","public_transport":"platform","name":"Nekkerweg","ref:IFOPT":"NL:Q:36570590","_quaycode":"NL:Q:36570590","_town":"Zuidoostbeemster","_status":"available","_mode":"bus","_direction":211,"_visuallyAccessible":false,"_disabledAccessible":false,"geojson_lng":4.926253539058922,"geojson_lat":52.52208675764867},"geometry":{"type":"Point","coordinates":[4.926253539058922,52.52208675764867]}},{"type":"Feature","properties":{"highway":"bus_stop","public_transport":"platform","name":"Brug","ref:IFOPT":"NL:Q:38381020","_quaycode":"NL:Q:38381020","_town":"Hobrede","_status":"available","_mode":"bus","_direction":349,"_visuallyAccessible":false,"_disabledAccessible":false,"geojson_lng":4.976562439515035,"geojson_lat":52.54828984478189},"geometry":{"type":"Point","coordinates":[4.976562439515035,52.54828984478189]}},{"type":"Feature","properties":{"highway":"bus_stop","public_transport":"platform","name":"Busstation","ref:IFOPT":"NL:Q:38491019","_quaycode":"NL:Q:38491019","_town":"Edam","_status":"available","_mode":"bus","_direction":140,"_visuallyAccessible":true,"_disabledAccessible":true,"geojson_lng":5.044497064450697,"geojson_lat":52.51031815784542},"geometry":{"type":"Point","coordinates":[5.044497064450697,52.51031815784542]}},{"type":"Feature","properties":{"highway":"bus_stop","public_transport":"platform","name":"Tramplein","ref:IFOPT":"NL:Q:37400104","_quaycode":"NL:Q:37400104","_town":"Purmerend","_status":"available","_mode":"bus","_direction":170,"_visuallyAccessible":false,"_disabledAccessible":false,"geojson_lng":4.944071771089111,"geojson_lat":52.50692994778221},"geometry":{"type":"Point","coordinates":[4.944071771089111,52.50692994778221]}},{"type":"Feature","properties":{"highway":"bus_stop","public_transport":"platform","name":"Jan Platstraat","ref:IFOPT":"NL:Q:38490410","_quaycode":"NL:Q:38490410","_town":"Volendam","_status":"available","_mode":"bus","_direction":246,"_visuallyAccessible":true,"_disabledAccessible":true,"geojson_lng":5.050596745928759,"geojson_lat":52.499469424924804},"geometry":{"type":"Point","coordinates":[5.050596745928759,52.499469424924804]}},{"type":"Feature","properties":{"highway":"bus_stop","public_transport":"platform","name":"De Vries","ref:IFOPT":"NL:Q:36371050","_quaycode":"NL:Q:36371050","_town":"Noordbeemster","_status":"available","_mode":"bus","_direction":31,"_visuallyAccessible":false,"_disabledAccessible":false,"geojson_lng":4.934416655667105,"geojson_lat":52.58382522034078},"geometry":{"type":"Point","coordinates":[4.934416655667105,52.58382522034078]}},{"type":"Feature","properties":{"highway":"bus_stop","public_transport":"platform","name":"G.A. Brederodestraat","ref:IFOPT":"NL:Q:38490620","_quaycode":"NL:Q:38490620","_town":"Volendam","_status":"available","_mode":"bus","_direction":101,"_visuallyAccessible":false,"_disabledAccessible":false,"geojson_lng":5.070867265750419,"geojson_lat":52.50778503596989},"geometry":{"type":"Point","coordinates":[5.070867265750419,52.50778503596989]}},{"type":"Feature","properties":{"highway":"bus_stop","public_transport":"platform","name":"Veenweidestraat","ref:IFOPT":"NL:Q:37401560","_quaycode":"NL:Q:37401560","_town":"Purmerend","_status":"available","_mode":"bus","_direction":36,"_visuallyAccessible":false,"_disabledAccessible":true,"geojson_lng":4.959645041748518,"geojson_lat":52.50035436286697},"geometry":{"type":"Point","coordinates":[4.959645041748518,52.50035436286697]}},{"type":"Feature","properties":{"highway":"bus_stop","public_transport":"platform","name":"Flevostraat","ref:IFOPT":"NL:Q:37402050","_quaycode":"NL:Q:37402050","_town":"Purmerend","_status":"available","_mode":"bus","_direction":171,"_visuallyAccessible":true,"_disabledAccessible":true,"geojson_lng":4.964328030506624,"geojson_lat":52.51575759211931},"geometry":{"type":"Point","coordinates":[4.964328030506624,52.51575759211931]}},{"type":"Feature","properties":{"highway":"bus_stop","public_transport":"platform","name":"van IJsendijkstraat","ref:IFOPT":"NL:Q:37402020","_quaycode":"NL:Q:37402020","_town":"Purmerend","_status":"available","_mode":"bus","_direction":254,"_visuallyAccessible":null,"_disabledAccessible":null,"geojson_lng":4.963340816238063,"geojson_lat":52.51269835090791},"geometry":{"type":"Point","coordinates":[4.963340816238063,52.51269835090791]}},{"type":"Feature","properties":{"highway":"bus_stop","public_transport":"platform","name":"Albert Schweitzerlaan","ref:IFOPT":"NL:Q:37402130","_quaycode":"NL:Q:37402130","_town":"Purmerend","_status":"available","_mode":"bus","_direction":214,"_visuallyAccessible":true,"_disabledAccessible":true,"geojson_lng":4.973901203887222,"geojson_lat":52.508161014065195},"geometry":{"type":"Point","coordinates":[4.973901203887222,52.508161014065195]}},{"type":"Feature","properties":{"highway":"bus_stop","public_transport":"platform","name":"Junoplantsoen","ref:IFOPT":"NL:Q:38490230","_quaycode":"NL:Q:38490230","_town":"Volendam","_status":"available","_mode":"bus","_direction":252,"_visuallyAccessible":false,"_disabledAccessible":false,"geojson_lng":5.062596119714421,"geojson_lat":52.49685202536399},"geometry":{"type":"Point","coordinates":[5.062596119714421,52.49685202536399]}},{"type":"Feature","properties":{"highway":"bus_stop","public_transport":"platform","name":"Halfweg","ref:IFOPT":"NL:Q:36570570","_quaycode":"NL:Q:36570570","_town":"Zuidoostbeemster","_status":"available","_mode":"bus","_direction":103,"_visuallyAccessible":false,"_disabledAccessible":false,"geojson_lng":4.928563576276021,"geojson_lat":52.526652316477445},"geometry":{"type":"Point","coordinates":[4.928563576276021,52.526652316477445]}},{"type":"Feature","properties":{"highway":"bus_stop","public_transport":"platform","name":"Delfland","ref:IFOPT":"NL:Q:37400280","_quaycode":"NL:Q:37400280","_town":"Purmerend","_status":"available","_mode":"bus","_direction":31,"_visuallyAccessible":true,"_disabledAccessible":true,"geojson_lng":4.969040039269564,"geojson_lat":52.49575931876139},"geometry":{"type":"Point","coordinates":[4.969040039269564,52.49575931876139]}},{"type":"Feature","properties":{"highway":"bus_stop","public_transport":"platform","name":"Station Overwhere","ref:IFOPT":"NL:Q:37402090","_quaycode":"NL:Q:37402090","_town":"Purmerend","_status":"available","_mode":"bus","_direction":158,"_visuallyAccessible":true,"_disabledAccessible":false,"geojson_lng":4.966691685720459,"geojson_lat":52.51042747499076},"geometry":{"type":"Point","coordinates":[4.966691685720459,52.51042747499076]}},{"type":"Feature","properties":{"highway":"bus_stop","public_transport":"platform","name":"Zuivelpad","ref:IFOPT":"NL:Q:37400440","_quaycode":"NL:Q:37400440","_town":"Purmerend","_status":"available","_mode":"bus","_direction":34,"_visuallyAccessible":true,"_disabledAccessible":false,"geojson_lng":4.985422566355883,"geojson_lat":52.4997344415138},"geometry":{"type":"Point","coordinates":[4.985422566355883,52.4997344415138]}},{"type":"Feature","properties":{"highway":"bus_stop","public_transport":"platform","name":"Orinocostraat","ref:IFOPT":"NL:Q:37403950","_quaycode":"NL:Q:37403950","_town":"Purmerend","_status":"available","_mode":"bus","_direction":190,"_visuallyAccessible":true,"_disabledAccessible":true,"geojson_lng":4.92865833740386,"geojson_lat":52.496239243743815},"geometry":{"type":"Point","coordinates":[4.92865833740386,52.496239243743815]}},{"type":"Feature","properties":{"highway":"bus_stop","public_transport":"platform","name":"Anne Franklaan","ref:IFOPT":"NL:Q:37402110","_quaycode":"NL:Q:37402110","_town":"Purmerend","_status":"available","_mode":"bus","_direction":98,"_visuallyAccessible":true,"_disabledAccessible":false,"geojson_lng":4.971203956524768,"geojson_lat":52.50991312106659},"geometry":{"type":"Point","coordinates":[4.971203956524768,52.50991312106659]}},{"type":"Feature","properties":{"highway":"bus_stop","public_transport":"platform","name":"Fonteinkruid","ref:IFOPT":"NL:Q:37400960","_quaycode":"NL:Q:37400960","_town":"Purmerend","_status":"available","_mode":"bus","_direction":31,"_visuallyAccessible":false,"_disabledAccessible":false,"geojson_lng":4.9535605349462735,"geojson_lat":52.49008659829077},"geometry":{"type":"Point","coordinates":[4.9535605349462735,52.49008659829077]}},{"type":"Feature","properties":{"highway":"bus_stop","public_transport":"platform","name":"Tjaskermolen","ref:IFOPT":"NL:Q:38490480","_quaycode":"NL:Q:38490480","_town":"Edam","_status":"available","_mode":"bus","_direction":195,"_visuallyAccessible":true,"_disabledAccessible":true,"geojson_lng":5.0658811811595195,"geojson_lat":52.50883215075054},"geometry":{"type":"Point","coordinates":[5.0658811811595195,52.50883215075054]}},{"type":"Feature","properties":{"highway":"bus_stop","public_transport":"platform","name":"Beethovenstraat","ref:IFOPT":"NL:Q:37401140","_quaycode":"NL:Q:37401140","_town":"Purmerend","_status":"available","_mode":"bus","_direction":31,"_visuallyAccessible":false,"_disabledAccessible":true,"geojson_lng":4.969967799741258,"geojson_lat":52.487952499400166},"geometry":{"type":"Point","coordinates":[4.969967799741258,52.487952499400166]}},{"type":"Feature","properties":{"highway":"bus_stop","public_transport":"platform","name":"Technische School","ref:IFOPT":"NL:Q:38390020","_quaycode":"NL:Q:38390020","_town":"Edam","_status":"available","_mode":"bus","_direction":1,"_visuallyAccessible":true,"_disabledAccessible":false,"geojson_lng":5.045751191267935,"geojson_lat":52.51576811469368},"geometry":{"type":"Point","coordinates":[5.045751191267935,52.51576811469368]}},{"type":"Feature","properties":{"highway":"bus_stop","public_transport":"platform","name":"Waterlandlaan","ref:IFOPT":"NL:Q:37400540","_quaycode":"NL:Q:37400540","_town":"Purmerend","_status":"available","_mode":"bus","_direction":125,"_visuallyAccessible":true,"_disabledAccessible":true,"geojson_lng":4.962648304567765,"geojson_lat":52.50199187068376},"geometry":{"type":"Point","coordinates":[4.962648304567765,52.50199187068376]}},{"type":"Feature","properties":{"highway":"bus_stop","public_transport":"platform","name":"Melkweg Nr 26","ref:IFOPT":"NL:Q:37312420","_quaycode":"NL:Q:37312420","_town":"Purmerland","_status":"available","_mode":"bus","_direction":23,"_visuallyAccessible":false,"_disabledAccessible":false,"geojson_lng":4.927974316009589,"geojson_lat":52.48554151566705},"geometry":{"type":"Point","coordinates":[4.927974316009589,52.48554151566705]}},{"type":"Feature","properties":{"highway":"bus_stop","public_transport":"platform","name":"No 12","ref:IFOPT":"NL:Q:38290130","_quaycode":"NL:Q:38290130","_town":"Etersheim","_status":"available","_mode":"bus","_direction":153,"_visuallyAccessible":false,"_disabledAccessible":false,"geojson_lng":5.0224383236794425,"geojson_lat":52.58439766356711},"geometry":{"type":"Point","coordinates":[5.0224383236794425,52.58439766356711]}},{"type":"Feature","properties":{"highway":"bus_stop","public_transport":"platform","name":"Meerland","ref:IFOPT":"NL:Q:37400300","_quaycode":"NL:Q:37400300","_town":"Purmerend","_status":"available","_mode":"bus","_direction":302,"_visuallyAccessible":true,"_disabledAccessible":true,"geojson_lng":4.96885822954446,"geojson_lat":52.4947430978034},"geometry":{"type":"Point","coordinates":[4.96885822954446,52.4947430978034]}},{"type":"Feature","properties":{"highway":"bus_stop","public_transport":"platform","name":"Koogsingel","ref:IFOPT":"NL:Q:37402010","_quaycode":"NL:Q:37402010","_town":"Purmerend","_status":"available","_mode":"bus","_direction":200,"_visuallyAccessible":true,"_disabledAccessible":true,"geojson_lng":4.969699338195655,"geojson_lat":52.52105220477462},"geometry":{"type":"Point","coordinates":[4.969699338195655,52.52105220477462]}},{"type":"Feature","properties":{"highway":"bus_stop","public_transport":"platform","name":"Moeder Teresastraat","ref:IFOPT":"NL:Q:37401180","_quaycode":"NL:Q:37401180","_town":"Purmerend","_status":"available","_mode":"bus","_direction":215,"_visuallyAccessible":false,"_disabledAccessible":false,"geojson_lng":4.958938108289029,"geojson_lat":52.48668191335577},"geometry":{"type":"Point","coordinates":[4.958938108289029,52.48668191335577]}},{"type":"Feature","properties":{"highway":"bus_stop","public_transport":"platform","name":"Nieuwe Gouw","ref:IFOPT":"NL:Q:37405100","_quaycode":"NL:Q:37405100","_town":"Purmerend","_status":"available","_mode":"bus","_direction":27,"_visuallyAccessible":true,"_disabledAccessible":true,"geojson_lng":4.986011556162194,"geojson_lat":52.520829851743024},"geometry":{"type":"Point","coordinates":[4.986011556162194,52.520829851743024]}},{"type":"Feature","properties":{"highway":"bus_stop","public_transport":"platform","name":"Hobrederweg","ref:IFOPT":"NL:Q:36470570","_quaycode":"NL:Q:36470570","_town":"Middenbeemster","_status":"available","_mode":"bus","_direction":211,"_visuallyAccessible":false,"_disabledAccessible":false,"geojson_lng":4.922000226202719,"geojson_lat":52.56358279227926},"geometry":{"type":"Point","coordinates":[4.922000226202719,52.56358279227926]}},{"type":"Feature","properties":{"highway":"bus_stop","public_transport":"platform","name":"De Vries","ref:IFOPT":"NL:Q:36371040","_quaycode":"NL:Q:36371040","_town":"Noordbeemster","_status":"available","_mode":"bus","_direction":211,"_visuallyAccessible":false,"_disabledAccessible":false,"geojson_lng":4.934226052429425,"geojson_lat":52.58370765928729},"geometry":{"type":"Point","coordinates":[4.934226052429425,52.58370765928729]}},{"type":"Feature","properties":{"highway":"bus_stop","public_transport":"platform","name":"School","ref:IFOPT":"NL:Q:37501120","_quaycode":"NL:Q:37501120","_town":"Middelie","_status":"available","_mode":"bus","_direction":340,"_visuallyAccessible":false,"_disabledAccessible":false,"geojson_lng":5.01697373067614,"geojson_lat":52.5340699627014},"geometry":{"type":"Point","coordinates":[5.01697373067614,52.5340699627014]}},{"type":"Feature","properties":{"highway":"bus_stop","public_transport":"platform","name":"De Boomgaard","ref:IFOPT":"NL:Q:36573060","_quaycode":"NL:Q:36573060","_town":"Zuidoostbeemster","_status":"available","_mode":"bus","_direction":200,"_visuallyAccessible":false,"_disabledAccessible":false,"geojson_lng":4.939840332373821,"geojson_lat":52.51752820834902},"geometry":{"type":"Point","coordinates":[4.939840332373821,52.51752820834902]}},{"type":"Feature","properties":{"highway":"bus_stop","public_transport":"platform","name":"Het Hoog","ref:IFOPT":"NL:Q:38270130","_quaycode":"NL:Q:38270130","_town":"Avenhorn","_status":"available","_mode":"bus","_direction":120,"_visuallyAccessible":false,"_disabledAccessible":false,"geojson_lng":4.953098579523485,"geojson_lat":52.61503569052201},"geometry":{"type":"Point","coordinates":[4.953098579523485,52.61503569052201]}},{"type":"Feature","properties":{"highway":"bus_stop","public_transport":"platform","name":"Nieuwe Gouw","ref:IFOPT":"NL:Q:37500130","_quaycode":"NL:Q:37500130","_town":"Kwadijk","_status":"available","_mode":"bus","_direction":210,"_visuallyAccessible":false,"_disabledAccessible":false,"geojson_lng":4.989443902611098,"geojson_lat":52.52416672988001},"geometry":{"type":"Point","coordinates":[4.989443902611098,52.52416672988001]}},{"type":"Feature","properties":{"highway":"bus_stop","public_transport":"platform","name":"Kolkpad","ref:IFOPT":"NL:Q:36570040","_quaycode":"NL:Q:36570040","_town":"Zuidoostbeemster","_status":"available","_mode":"bus","_direction":283,"_visuallyAccessible":false,"_disabledAccessible":false,"geojson_lng":4.931088914516869,"geojson_lat":52.51612881242008},"geometry":{"type":"Point","coordinates":[4.931088914516869,52.51612881242008]}},{"type":"Feature","properties":{"highway":"bus_stop","public_transport":"platform","name":"Melkweg Nr 21","ref:IFOPT":"NL:Q:37312440","_quaycode":"NL:Q:37312440","_town":"Purmerland","_status":"available","_mode":"bus","_direction":25,"_visuallyAccessible":false,"_disabledAccessible":false,"geojson_lng":4.93120850170084,"geojson_lat":52.490272412979124},"geometry":{"type":"Point","coordinates":[4.93120850170084,52.490272412979124]}},{"type":"Feature","properties":{"highway":"bus_stop","public_transport":"platform","name":"Wilgenhoek","ref:IFOPT":"NL:Q:37400022","_quaycode":"NL:Q:37400022","_town":"Purmerend","_status":"available","_mode":"bus","_direction":172,"_visuallyAccessible":true,"_disabledAccessible":true,"geojson_lng":4.956024238174384,"geojson_lat":52.5167522785631},"geometry":{"type":"Point","coordinates":[4.956024238174384,52.5167522785631]}},{"type":"Feature","properties":{"highway":"bus_stop","public_transport":"platform","name":"Churchilllaan","ref:IFOPT":"NL:Q:37402170","_quaycode":"NL:Q:37402170","_town":"Purmerend","_status":"available","_mode":"bus","_direction":214,"_visuallyAccessible":false,"_disabledAccessible":false,"geojson_lng":4.967572980670668,"geojson_lat":52.50759057379654},"geometry":{"type":"Point","coordinates":[4.967572980670668,52.50759057379654]}},{"type":"Feature","properties":{"highway":"bus_stop","public_transport":"platform","name":"Doopsgezinde Kerk","ref:IFOPT":"NL:Q:37501100","_quaycode":"NL:Q:37501100","_town":"Middelie","_status":"available","_mode":"bus","_direction":338,"_visuallyAccessible":false,"_disabledAccessible":false,"geojson_lng":5.015450666825032,"geojson_lat":52.5364198843403},"geometry":{"type":"Point","coordinates":[5.015450666825032,52.5364198843403]}},{"type":"Feature","properties":{"highway":"bus_stop","public_transport":"platform","name":"Woestijnstraat","ref:IFOPT":"NL:Q:37403890","_quaycode":"NL:Q:37403890","_town":"Purmerend","_status":"available","_mode":"bus","_direction":24,"_visuallyAccessible":false,"_disabledAccessible":false,"geojson_lng":4.935123152987175,"geojson_lat":52.49188716314344},"geometry":{"type":"Point","coordinates":[4.935123152987175,52.49188716314344]}},{"type":"Feature","properties":{"highway":"bus_stop","public_transport":"platform","name":"Kruis","ref:IFOPT":"NL:Q:36371030","_quaycode":"NL:Q:36371030","_town":"Noordbeemster","_status":"available","_mode":"bus","_direction":211,"_visuallyAccessible":false,"_disabledAccessible":false,"geojson_lng":4.936461334459982,"geojson_lat":52.58732005409843},"geometry":{"type":"Point","coordinates":[4.936461334459982,52.58732005409843]}},{"type":"Feature","properties":{"highway":"bus_stop","public_transport":"platform","name":"Volgerweg","ref:IFOPT":"NL:Q:36570160","_quaycode":"NL:Q:36570160","_town":"Zuidoostbeemster","_status":"available","_mode":"bus","_direction":21,"_visuallyAccessible":false,"_disabledAccessible":false,"geojson_lng":4.946967787105135,"geojson_lat":52.52227324261603},"geometry":{"type":"Point","coordinates":[4.946967787105135,52.52227324261603]}},{"type":"Feature","properties":{"highway":"bus_stop","public_transport":"platform","name":"Brink","ref:IFOPT":"NL:Q:37501140","_quaycode":"NL:Q:37501140","_town":"Middelie","_status":"available","_mode":"bus","_direction":90,"_visuallyAccessible":false,"_disabledAccessible":false,"geojson_lng":5.013651862956114,"geojson_lat":52.53127348295908},"geometry":{"type":"Point","coordinates":[5.013651862956114,52.53127348295908]}},{"type":"Feature","properties":{"highway":"bus_stop","public_transport":"platform","name":"Sluisbrug","ref:IFOPT":"NL:Q:37404020","_quaycode":"NL:Q:37404020","_town":"Purmerend","_status":"available","_mode":"bus","_direction":81,"_visuallyAccessible":true,"_disabledAccessible":false,"geojson_lng":4.94060061509432,"geojson_lat":52.510817475711576},"geometry":{"type":"Point","coordinates":[4.94060061509432,52.510817475711576]}},{"type":"Feature","properties":{"highway":"bus_stop","public_transport":"platform","name":"Vissersstraat","ref:IFOPT":"NL:Q:38490290","_quaycode":"NL:Q:38490290","_town":"Volendam","_status":"available","_mode":"bus","_direction":227,"_visuallyAccessible":true,"_disabledAccessible":true,"geojson_lng":5.074996134789844,"geojson_lat":52.49878163531104},"geometry":{"type":"Point","coordinates":[5.074996134789844,52.49878163531104]}},{"type":"Feature","properties":{"highway":"bus_stop","public_transport":"platform","name":"Hotel Volendam","ref:IFOPT":"NL:Q:37490010","_quaycode":"NL:Q:37490010","_town":"Katwoude","_status":"available","_mode":"bus","_direction":271,"_visuallyAccessible":true,"_disabledAccessible":true,"geojson_lng":5.03344455365493,"geojson_lat":52.488859778100924},"geometry":{"type":"Point","coordinates":[5.03344455365493,52.488859778100924]}},{"type":"Feature","properties":{"highway":"bus_stop","public_transport":"platform","name":"Warderweg","ref:IFOPT":"NL:Q:38290250","_quaycode":"NL:Q:38290250","_town":"Oosthuizen","_status":"available","_mode":"bus","_direction":324,"_visuallyAccessible":false,"_disabledAccessible":false,"geojson_lng":5.001417340523415,"geojson_lat":52.5754339006847},"geometry":{"type":"Point","coordinates":[5.001417340523415,52.5754339006847]}},{"type":"Feature","properties":{"highway":"bus_stop","public_transport":"platform","name":"Industrieterrein HN 80","ref:IFOPT":"NL:Q:38003580","_quaycode":"NL:Q:38003580","_town":"Hoorn","_status":"available","_mode":"bus","_direction":77,"_visuallyAccessible":false,"_disabledAccessible":false,"geojson_lng":5.097371491696449,"geojson_lat":52.64597716901652},"geometry":{"type":"Point","coordinates":[5.097371491696449,52.64597716901652]}},{"type":"Feature","properties":{"highway":"bus_stop","public_transport":"platform","name":"Bunderstraat","ref:IFOPT":"NL:Q:37400460","_quaycode":"NL:Q:37400460","_town":"Purmerend","_status":"available","_mode":"bus","_direction":32,"_visuallyAccessible":false,"_disabledAccessible":false,"geojson_lng":4.987757788970355,"geojson_lat":52.502061078414286},"geometry":{"type":"Point","coordinates":[4.987757788970355,52.502061078414286]}},{"type":"Feature","properties":{"highway":"bus_stop","public_transport":"platform","name":"Fonteinkruid","ref:IFOPT":"NL:Q:37400970","_quaycode":"NL:Q:37400970","_town":"Purmerend","_status":"available","_mode":"bus","_direction":211,"_visuallyAccessible":false,"_disabledAccessible":false,"geojson_lng":4.953428734726622,"geojson_lat":52.49001421683462},"geometry":{"type":"Point","coordinates":[4.953428734726622,52.49001421683462]}},{"type":"Feature","properties":{"highway":"bus_stop","public_transport":"platform","name":"Zandwerven","ref:IFOPT":"NL:Q:36360080","_quaycode":"NL:Q:36360080","_town":"Spanbroek","_status":"available","_mode":"bus","_direction":241,"_visuallyAccessible":false,"_disabledAccessible":false,"geojson_lng":4.937045068904265,"geojson_lat":52.69338858250812},"geometry":{"type":"Point","coordinates":[4.937045068904265,52.69338858250812]}},{"type":"Feature","properties":{"highway":"bus_stop","public_transport":"platform","name":"Magneet","ref:IFOPT":"NL:Q:37405280","_quaycode":"NL:Q:37405280","_town":"Purmerend","_status":"available","_mode":"bus","_direction":0,"_visuallyAccessible":false,"_disabledAccessible":false,"geojson_lng":5.010030887249151,"geojson_lat":52.510060844231354},"geometry":{"type":"Point","coordinates":[5.010030887249151,52.510060844231354]}},{"type":"Feature","properties":{"highway":"bus_stop","public_transport":"platform","name":"Zandwerven","ref:IFOPT":"NL:Q:38360150","_quaycode":"NL:Q:38360150","_town":"Spanbroek","_status":"available","_mode":"bus","_direction":61,"_visuallyAccessible":false,"_disabledAccessible":false,"geojson_lng":4.937238087249398,"geojson_lat":52.693317416118546},"geometry":{"type":"Point","coordinates":[4.937238087249398,52.693317416118546]}},{"type":"Feature","properties":{"highway":"bus_stop","public_transport":"platform","name":"Flevostraat","ref:IFOPT":"NL:Q:37402200","_quaycode":"NL:Q:37402200","_town":"Purmerend","_status":"available","_mode":"bus","_direction":350,"_visuallyAccessible":true,"_disabledAccessible":false,"geojson_lng":4.964166772742713,"geojson_lat":52.51721297526335},"geometry":{"type":"Point","coordinates":[4.964166772742713,52.51721297526335]}},{"type":"Feature","properties":{"highway":"bus_stop","public_transport":"platform","name":"Risdam","ref:IFOPT":"NL:Q:38000011","_quaycode":"NL:Q:38000011","_town":"Zwaag","_status":"available","_mode":"bus","_direction":120,"_visuallyAccessible":false,"_disabledAccessible":false,"geojson_lng":5.049463889919023,"geojson_lat":52.66595484714092},"geometry":{"type":"Point","coordinates":[5.049463889919023,52.66595484714092]}},{"type":"Feature","properties":{"highway":"bus_stop","public_transport":"platform","name":"Station","ref:IFOPT":"NL:Q:38000103","_quaycode":"NL:Q:38000103","_town":"Hoorn","_status":"available","_mode":"bus","_direction":280,"_visuallyAccessible":false,"_disabledAccessible":false,"geojson_lng":5.052654810399836,"geojson_lat":52.64484426973528},"geometry":{"type":"Point","coordinates":[5.052654810399836,52.64484426973528]}},{"type":"Feature","properties":{"highway":"bus_stop","public_transport":"platform","name":"Mgr. C. Veermanlaan","ref:IFOPT":"NL:Q:38490130","_quaycode":"NL:Q:38490130","_town":"Volendam","_status":"available","_mode":"bus","_direction":92,"_visuallyAccessible":true,"_disabledAccessible":false,"geojson_lng":5.07286143822258,"geojson_lat":52.50283829443903},"geometry":{"type":"Point","coordinates":[5.07286143822258,52.50283829443903]}},{"type":"Feature","properties":{"highway":"bus_stop","public_transport":"platform","name":"Lange Akker","ref:IFOPT":"NL:Q:38000051","_quaycode":"NL:Q:38000051","_town":"Zwaag","_status":"available","_mode":"bus","_direction":152,"_visuallyAccessible":true,"_disabledAccessible":true,"geojson_lng":5.055778998133033,"geojson_lat":52.66554122703251},"geometry":{"type":"Point","coordinates":[5.055778998133033,52.66554122703251]}},{"type":"Feature","properties":{"highway":"bus_stop","public_transport":"platform","name":"Station","ref:IFOPT":"NL:Q:38000102","_quaycode":"NL:Q:38000102","_town":"Hoorn","_status":"available","_mode":"bus","_direction":97,"_visuallyAccessible":false,"_disabledAccessible":false,"geojson_lng":5.052950510581138,"geojson_lat":52.64481813980667},"geometry":{"type":"Point","coordinates":[5.052950510581138,52.64481813980667]}},{"type":"Feature","properties":{"highway":"bus_stop","public_transport":"platform","name":"Seevancksweg","ref:IFOPT":"NL:Q:38290070","_quaycode":"NL:Q:38290070","_town":"Oosthuizen","_status":"available","_mode":"bus","_direction":143,"_visuallyAccessible":false,"_disabledAccessible":false,"geojson_lng":4.9930175586078605,"geojson_lat":52.569501694524455},"geometry":{"type":"Point","coordinates":[4.9930175586078605,52.569501694524455]}},{"type":"Feature","properties":{"highway":"bus_stop","public_transport":"platform","name":"Gemaal Westerkogge","ref:IFOPT":"NL:Q:38000020","_quaycode":"NL:Q:38000020","_town":"Scharwoude","_status":"available","_mode":"bus","_direction":10,"_visuallyAccessible":false,"_disabledAccessible":false,"geojson_lng":5.017012343893542,"geojson_lat":52.62962235003884},"geometry":{"type":"Point","coordinates":[5.017012343893542,52.62962235003884]}},{"type":"Feature","properties":{"highway":"bus_stop","public_transport":"platform","name":"Station","ref:IFOPT":"NL:Q:38000101","_quaycode":"NL:Q:38000101","_town":"Hoorn","_status":"available","_mode":"bus","_direction":277,"_visuallyAccessible":false,"_disabledAccessible":false,"geojson_lng":5.053201681531901,"geojson_lat":52.64481884536326},"geometry":{"type":"Point","coordinates":[5.053201681531901,52.64481884536326]}},{"type":"Feature","properties":{"highway":"bus_stop","public_transport":"platform","name":"Cantekoogweg","ref:IFOPT":"NL:Q:37402263","_quaycode":"NL:Q:37402263","_town":"Purmerend","_status":"available","_mode":"bus","_direction":75,"_visuallyAccessible":true,"_disabledAccessible":true,"geojson_lng":4.972694452766932,"geojson_lat":52.51746774844322},"geometry":{"type":"Point","coordinates":[4.972694452766932,52.51746774844322]}},{"type":"Feature","properties":{"highway":"bus_stop","public_transport":"platform","name":"Azielaan","ref:IFOPT":"NL:Q:37403100","_quaycode":"NL:Q:37403100","_town":"Purmerend","_status":"available","_mode":"bus","_direction":260,"_visuallyAccessible":false,"_disabledAccessible":true,"geojson_lng":4.943031094539645,"geojson_lat":52.49616809749598},"geometry":{"type":"Point","coordinates":[4.943031094539645,52.49616809749598]}},{"type":"Feature","properties":{"highway":"bus_stop","public_transport":"platform","name":"Groenveld","ref:IFOPT":"NL:Q:36470250","_quaycode":"NL:Q:36470250","_town":"Middenbeemster","_status":"available","_mode":"bus","_direction":111,"_visuallyAccessible":false,"_disabledAccessible":false,"geojson_lng":4.921076609817706,"geojson_lat":52.54631449394685},"geometry":{"type":"Point","coordinates":[4.921076609817706,52.54631449394685]}},{"type":"Feature","properties":{"highway":"bus_stop","public_transport":"platform","name":"Wever","ref:IFOPT":"NL:Q:38000060","_quaycode":"NL:Q:38000060","_town":"Hoorn NH","_status":"available","_mode":"bus","_direction":82,"_visuallyAccessible":true,"_disabledAccessible":true,"geojson_lng":5.051366109767632,"geojson_lat":52.65882451720079},"geometry":{"type":"Point","coordinates":[5.051366109767632,52.65882451720079]}},{"type":"Feature","properties":{"highway":"bus_stop","public_transport":"platform","name":"Station","ref:IFOPT":"NL:Q:38001001","_quaycode":"NL:Q:38001001","_town":"Hoorn","_status":"available","_mode":"bus","_direction":10,"_visuallyAccessible":true,"_disabledAccessible":true,"geojson_lng":5.053898273460875,"geojson_lat":52.64453321268941},"geometry":{"type":"Point","coordinates":[5.053898273460875,52.64453321268941]}},{"type":"Feature","properties":{"highway":"bus_stop","public_transport":"platform","name":"Station Uitstaphalte","ref:IFOPT":"NL:Q:38001000","_quaycode":"NL:Q:38001000","_town":"Hoorn","_status":"available","_mode":"bus","_direction":280,"_visuallyAccessible":false,"_disabledAccessible":false,"geojson_lng":5.054621213431472,"geojson_lat":52.64467004254001},"geometry":{"type":"Point","coordinates":[5.054621213431472,52.64467004254001]}},{"type":"Feature","properties":{"highway":"bus_stop","public_transport":"platform","name":"De Kromme Elleboog","ref:IFOPT":"NL:Q:38001011","_quaycode":"NL:Q:38001011","_town":"Zwaag","_status":"available","_mode":"bus","_direction":248,"_visuallyAccessible":false,"_disabledAccessible":false,"geojson_lng":5.040569633591758,"geojson_lat":52.66911966707926},"geometry":{"type":"Point","coordinates":[5.040569633591758,52.66911966707926]}},{"type":"Feature","properties":{"highway":"bus_stop","public_transport":"platform","name":"Hoefijzer","ref:IFOPT":"NL:Q:38001121","_quaycode":"NL:Q:38001121","_town":"Zwaag","_status":"available","_mode":"bus","_direction":343,"_visuallyAccessible":false,"_disabledAccessible":true,"geojson_lng":5.04063716787459,"geojson_lat":52.66412403749724},"geometry":{"type":"Point","coordinates":[5.04063716787459,52.66412403749724]}},{"type":"Feature","properties":{"highway":"bus_stop","public_transport":"platform","name":"Zuiderkruisstraat","ref:IFOPT":"NL:Q:38000580","_quaycode":"NL:Q:38000580","_town":"Hoorn","_status":"available","_mode":"bus","_direction":71,"_visuallyAccessible":true,"_disabledAccessible":true,"geojson_lng":5.045493256610747,"geojson_lat":52.642379423077436},"geometry":{"type":"Point","coordinates":[5.045493256610747,52.642379423077436]}},{"type":"Feature","properties":{"highway":"bus_stop","public_transport":"platform","name":"Sterrenweg","ref:IFOPT":"NL:Q:38000570","_quaycode":"NL:Q:38000570","_town":"Hoorn NH","_status":"available","_mode":"bus","_direction":335,"_visuallyAccessible":true,"_disabledAccessible":true,"geojson_lng":5.0328115785332175,"geojson_lat":52.64120993820931},"geometry":{"type":"Point","coordinates":[5.0328115785332175,52.64120993820931]}},{"type":"Feature","properties":{"highway":"bus_stop","public_transport":"platform","name":"Station","ref:IFOPT":"NL:Q:38000104","_quaycode":"NL:Q:38000104","_town":"Hoorn","_status":"available","_mode":"bus","_direction":270,"_visuallyAccessible":false,"_disabledAccessible":false,"geojson_lng":5.052433052125494,"geojson_lat":52.644861619975984},"geometry":{"type":"Point","coordinates":[5.052433052125494,52.644861619975984]}},{"type":"Feature","properties":{"highway":"bus_stop","public_transport":"platform","name":"Klemweg","ref:IFOPT":"NL:Q:37501060","_quaycode":"NL:Q:37501060","_town":"Middelie","_status":"available","_mode":"bus","_direction":340,"_visuallyAccessible":false,"_disabledAccessible":false,"geojson_lng":5.010402504872248,"geojson_lat":52.54420496759245},"geometry":{"type":"Point","coordinates":[5.010402504872248,52.54420496759245]}},{"type":"Feature","properties":{"highway":"bus_stop","public_transport":"platform","name":"De Meermin","ref:IFOPT":"NL:Q:38490300","_quaycode":"NL:Q:38490300","_town":"Edam","_status":"available","_mode":"bus","_direction":311,"_visuallyAccessible":true,"_disabledAccessible":false,"geojson_lng":5.049663732557473,"geojson_lat":52.50885903561549},"geometry":{"type":"Point","coordinates":[5.049663732557473,52.50885903561549]}},{"type":"Feature","properties":{"highway":"bus_stop","public_transport":"platform","name":"Hoefijzer","ref:IFOPT":"NL:Q:38001051","_quaycode":"NL:Q:38001051","_town":"Zwaag","_status":"available","_mode":"bus","_direction":153,"_visuallyAccessible":true,"_disabledAccessible":true,"geojson_lng":5.040943160823752,"geojson_lat":52.663124384920906},"geometry":{"type":"Point","coordinates":[5.040943160823752,52.663124384920906]}},{"type":"Feature","properties":{"highway":"bus_stop","public_transport":"platform","name":"Retiropark","ref:IFOPT":"NL:Q:37403630","_quaycode":"NL:Q:37403630","_town":"Purmerend","_status":"available","_mode":"bus","_direction":69,"_visuallyAccessible":true,"_disabledAccessible":true,"geojson_lng":4.942099360228638,"geojson_lat":52.50095491194372},"geometry":{"type":"Point","coordinates":[4.942099360228638,52.50095491194372]}},{"type":"Feature","properties":{"highway":"bus_stop","public_transport":"platform","name":"Boekweitstraat","ref:IFOPT":"NL:Q:37400680","_quaycode":"NL:Q:37400680","_town":"Purmerend","_status":"available","_mode":"bus","_direction":120,"_visuallyAccessible":true,"_disabledAccessible":true,"geojson_lng":4.990716569860718,"geojson_lat":52.50878459156561},"geometry":{"type":"Point","coordinates":[4.990716569860718,52.50878459156561]}},{"type":"Feature","properties":{"highway":"bus_stop","public_transport":"platform","name":"J.D.Pollstraat","ref:IFOPT":"NL:Q:38001130","_quaycode":"NL:Q:38001130","_town":"Hoorn NH","_status":"available","_mode":"bus","_direction":250,"_visuallyAccessible":true,"_disabledAccessible":false,"geojson_lng":5.067829754951659,"geojson_lat":52.64471522798158},"geometry":{"type":"Point","coordinates":[5.067829754951659,52.64471522798158]}},{"type":"Feature","properties":{"highway":"bus_stop","public_transport":"platform","name":"Westerweg","ref:IFOPT":"NL:Q:37405310","_quaycode":"NL:Q:37405310","_town":"Purmerend","_status":"available","_mode":"bus","_direction":303,"_visuallyAccessible":false,"_disabledAccessible":false,"geojson_lng":5.001562590947529,"geojson_lat":52.51326908802611},"geometry":{"type":"Point","coordinates":[5.001562590947529,52.51326908802611]}},{"type":"Feature","properties":{"highway":"bus_stop","public_transport":"platform","name":"Westfriese Parkweg","ref:IFOPT":"NL:Q:38004210","_quaycode":"NL:Q:38004210","_town":"Hoorn","_status":"available","_mode":"bus","_direction":190,"_visuallyAccessible":false,"_disabledAccessible":false,"geojson_lng":5.038434782661947,"geojson_lat":52.65310748623493},"geometry":{"type":"Point","coordinates":[5.038434782661947,52.65310748623493]}},{"type":"Feature","properties":{"highway":"bus_stop","public_transport":"platform","name":"Stationsweg","ref:IFOPT":"NL:Q:37500120","_quaycode":"NL:Q:37500120","_town":"Kwadijk","_status":"available","_mode":"bus","_direction":309,"_visuallyAccessible":false,"_disabledAccessible":false,"geojson_lng":4.994938547512698,"geojson_lat":52.52266614966566},"geometry":{"type":"Point","coordinates":[4.994938547512698,52.52266614966566]}},{"type":"Feature","properties":{"highway":"bus_stop","public_transport":"platform","name":"Bovenlandsestraat","ref:IFOPT":"NL:Q:37400880","_quaycode":"NL:Q:37400880","_town":"Purmerend","_status":"available","_mode":"bus","_direction":301,"_visuallyAccessible":false,"_disabledAccessible":false,"geojson_lng":4.962372006267155,"geojson_lat":52.497029821057595},"geometry":{"type":"Point","coordinates":[4.962372006267155,52.497029821057595]}},{"type":"Feature","properties":{"highway":"bus_stop","public_transport":"platform","name":"De Graeffweg","ref:IFOPT":"NL:Q:37400660","_quaycode":"NL:Q:37400660","_town":"Purmerend","_status":"available","_mode":"bus","_direction":120,"_visuallyAccessible":true,"_disabledAccessible":true,"geojson_lng":4.986740989569573,"geojson_lat":52.510254163236624},"geometry":{"type":"Point","coordinates":[4.986740989569573,52.510254163236624]}},{"type":"Feature","properties":{"highway":"bus_stop","public_transport":"platform","name":"Korenmolen","ref:IFOPT":"NL:Q:38001530","_quaycode":"NL:Q:38001530","_town":"Hoorn NH","_status":"available","_mode":"bus","_direction":260,"_visuallyAccessible":false,"_disabledAccessible":true,"geojson_lng":5.024963331654506,"geojson_lat":52.63802283216749},"geometry":{"type":"Point","coordinates":[5.024963331654506,52.63802283216749]}},{"type":"Feature","properties":{"highway":"bus_stop","public_transport":"platform","name":"Industrieterrein HN 80","ref:IFOPT":"NL:Q:38003530","_quaycode":"NL:Q:38003530","_town":"Hoorn","_status":"available","_mode":"bus","_direction":258,"_visuallyAccessible":false,"_disabledAccessible":false,"geojson_lng":5.095466324953764,"geojson_lat":52.645846693021575},"geometry":{"type":"Point","coordinates":[5.095466324953764,52.645846693021575]}},{"type":"Feature","properties":{"highway":"bus_stop","public_transport":"platform","name":"Stadhuis","ref:IFOPT":"NL:Q:37400140","_quaycode":"NL:Q:37400140","_town":"Purmerend","_status":"available","_mode":"bus","_direction":119,"_visuallyAccessible":true,"_disabledAccessible":true,"geojson_lng":4.954040479957523,"geojson_lat":52.50721840244134},"geometry":{"type":"Point","coordinates":[4.954040479957523,52.50721840244134]}},{"type":"Feature","properties":{"highway":"bus_stop","public_transport":"platform","name":"Westerweg","ref:IFOPT":"NL:Q:37405320","_quaycode":"NL:Q:37405320","_town":"Purmerend","_status":"available","_mode":"bus","_direction":121,"_visuallyAccessible":false,"_disabledAccessible":false,"geojson_lng":5.002908240938636,"geojson_lat":52.51268028555439},"geometry":{"type":"Point","coordinates":[5.002908240938636,52.51268028555439]}},{"type":"Feature","properties":{"highway":"bus_stop","public_transport":"platform","name":"Karavaanstraat","ref:IFOPT":"NL:Q:37403910","_quaycode":"NL:Q:37403910","_town":"Purmerend","_status":"available","_mode":"bus","_direction":78,"_visuallyAccessible":true,"_disabledAccessible":true,"geojson_lng":4.939313715087142,"geojson_lat":52.49100431209769},"geometry":{"type":"Point","coordinates":[4.939313715087142,52.49100431209769]}},{"type":"Feature","properties":{"highway":"bus_stop","public_transport":"platform","name":"Tjaskermolen","ref:IFOPT":"NL:Q:38490550","_quaycode":"NL:Q:38490550","_town":"Edam","_status":"available","_mode":"bus","_direction":15,"_visuallyAccessible":true,"_disabledAccessible":false,"geojson_lng":5.0662041803265545,"geojson_lat":52.50897682258324},"geometry":{"type":"Point","coordinates":[5.0662041803265545,52.50897682258324]}},{"type":"Feature","properties":{"highway":"bus_stop","public_transport":"platform","name":"Korenmolen","ref:IFOPT":"NL:Q:38001540","_quaycode":"NL:Q:38001540","_town":"Hoorn NH","_status":"available","_mode":"bus","_direction":170,"_visuallyAccessible":false,"_disabledAccessible":true,"geojson_lng":5.026296904641914,"geojson_lat":52.63753259552499},"geometry":{"type":"Point","coordinates":[5.026296904641914,52.63753259552499]}},{"type":"Feature","properties":{"highway":"bus_stop","public_transport":"platform","name":"Vurige Staart","ref:IFOPT":"NL:Q:37400040","_quaycode":"NL:Q:37400040","_town":"Purmerend","_status":"available","_mode":"bus","_direction":349,"_visuallyAccessible":true,"_disabledAccessible":true,"geojson_lng":4.949996537577433,"geojson_lat":52.49018136681906},"geometry":{"type":"Point","coordinates":[4.949996537577433,52.49018136681906]}},{"type":"Feature","properties":{"highway":"bus_stop","public_transport":"platform","name":"Sportpark","ref:IFOPT":"NL:Q:38004011","_quaycode":"NL:Q:38004011","_town":"Zwaag","_status":"available","_mode":"bus","_direction":170,"_visuallyAccessible":false,"_disabledAccessible":false,"geojson_lng":5.044005933462626,"geojson_lat":52.668275859500696},"geometry":{"type":"Point","coordinates":[5.044005933462626,52.668275859500696]}},{"type":"Feature","properties":{"highway":"bus_stop","public_transport":"platform","name":"Purmerlanderkerk","ref:IFOPT":"NL:Q:37312400","_quaycode":"NL:Q:37312400","_town":"Purmerland","_status":"available","_mode":"bus","_direction":22,"_visuallyAccessible":false,"_disabledAccessible":false,"geojson_lng":4.925884646633999,"geojson_lat":52.48122840446596},"geometry":{"type":"Point","coordinates":[4.925884646633999,52.48122840446596]}},{"type":"Feature","properties":{"highway":"bus_stop","public_transport":"platform","name":"Slotermeer","ref:IFOPT":"NL:Q:37400760","_quaycode":"NL:Q:37400760","_town":"Purmerend","_status":"available","_mode":"bus","_direction":336,"_visuallyAccessible":true,"_disabledAccessible":true,"geojson_lng":4.973585965781533,"geojson_lat":52.49777944994217},"geometry":{"type":"Point","coordinates":[4.973585965781533,52.49777944994217]}},{"type":"Feature","properties":{"highway":"bus_stop","public_transport":"platform","name":"Westfriese Parkweg","ref:IFOPT":"NL:Q:38004220","_quaycode":"NL:Q:38004220","_town":"Hoorn","_status":"available","_mode":"bus","_direction":0,"_visuallyAccessible":false,"_disabledAccessible":false,"geojson_lng":5.038783607362935,"geojson_lat":52.65384544819031},"geometry":{"type":"Point","coordinates":[5.038783607362935,52.65384544819031]}},{"type":"Feature","properties":{"highway":"bus_stop","public_transport":"platform","name":"Willemsweg","ref:IFOPT":"NL:Q:38003570","_quaycode":"NL:Q:38003570","_town":"Hoorn NH","_status":"available","_mode":"bus","_direction":261,"_visuallyAccessible":false,"_disabledAccessible":true,"geojson_lng":5.078774663057082,"geojson_lat":52.64309048906748},"geometry":{"type":"Point","coordinates":[5.078774663057082,52.64309048906748]}},{"type":"Feature","properties":{"highway":"bus_stop","public_transport":"platform","name":"Wouter Sluislaan","ref:IFOPT":"NL:Q:37403530","_quaycode":"NL:Q:37403530","_town":"Zuidoostbeemster","_status":"available","_mode":"bus","_direction":103,"_visuallyAccessible":false,"_disabledAccessible":false,"geojson_lng":4.94197222549462,"geojson_lat":52.51357277828366},"geometry":{"type":"Point","coordinates":[4.94197222549462,52.51357277828366]}},{"type":"Feature","properties":{"highway":"bus_stop","public_transport":"platform","name":"Keern","ref:IFOPT":"NL:Q:38004190","_quaycode":"NL:Q:38004190","_town":"Zwaag","_status":"available","_mode":"bus","_direction":345,"_visuallyAccessible":false,"_disabledAccessible":false,"geojson_lng":5.042460782605922,"geojson_lat":52.6598235647571},"geometry":{"type":"Point","coordinates":[5.042460782605922,52.6598235647571]}},{"type":"Feature","properties":{"highway":"bus_stop","public_transport":"platform","name":"Wogmergouw","ref:IFOPT":"NL:Q:38004121","_quaycode":"NL:Q:38004121","_town":"Zwaag","_status":"available","_mode":"bus","_direction":350,"_visuallyAccessible":false,"_disabledAccessible":false,"geojson_lng":5.045944552756724,"geojson_lat":52.666106572215156},"geometry":{"type":"Point","coordinates":[5.045944552756724,52.666106572215156]}},{"type":"Feature","properties":{"highway":"bus_stop","public_transport":"platform","name":"Karavaanstraat","ref:IFOPT":"NL:Q:37403900","_quaycode":"NL:Q:37403900","_town":"Purmerend","_status":"available","_mode":"bus","_direction":259,"_visuallyAccessible":true,"_disabledAccessible":true,"geojson_lng":4.9388996441968915,"geojson_lat":52.491182497270245},"geometry":{"type":"Point","coordinates":[4.9388996441968915,52.491182497270245]}},{"type":"Feature","properties":{"highway":"bus_stop","public_transport":"platform","name":"Klaverblad","ref:IFOPT":"NL:Q:37402250","_quaycode":"NL:Q:37402250","_town":"Purmerend","_status":"available","_mode":"bus","_direction":291,"_visuallyAccessible":true,"_disabledAccessible":true,"geojson_lng":4.952424830816493,"geojson_lat":52.48729633035623},"geometry":{"type":"Point","coordinates":[4.952424830816493,52.48729633035623]}},{"type":"Feature","properties":{"highway":"bus_stop","public_transport":"platform","name":"N.H.Kerk","ref:IFOPT":"NL:Q:38291120","_quaycode":"NL:Q:38291120","_town":"Beets","_status":"available","_mode":"bus","_direction":52,"_visuallyAccessible":false,"_disabledAccessible":false,"geojson_lng":4.9790476894429805,"geojson_lat":52.58881306933086},"geometry":{"type":"Point","coordinates":[4.9790476894429805,52.58881306933086]}},{"type":"Feature","properties":{"highway":"bus_stop","public_transport":"platform","name":"Sluiswachter","ref:IFOPT":"NL:Q:38004110","_quaycode":"NL:Q:38004110","_town":"Hoorn NH","_status":"available","_mode":"bus","_direction":150,"_visuallyAccessible":false,"_disabledAccessible":true,"geojson_lng":5.049995472174658,"geojson_lat":52.65446191674079},"geometry":{"type":"Point","coordinates":[5.049995472174658,52.65446191674079]}},{"type":"Feature","properties":{"highway":"bus_stop","public_transport":"platform","name":"Stadhuis","ref:IFOPT":"NL:Q:37400130","_quaycode":"NL:Q:37400130","_town":"Purmerend","_status":"available","_mode":"bus","_direction":298,"_visuallyAccessible":false,"_disabledAccessible":true,"geojson_lng":4.954570796523286,"geojson_lat":52.507211349606955},"geometry":{"type":"Point","coordinates":[4.954570796523286,52.507211349606955]}},{"type":"Feature","properties":{"highway":"bus_stop","public_transport":"platform","name":"De Marowijne","ref:IFOPT":"NL:Q:38110170","_quaycode":"NL:Q:38110170","_town":"Zwaag","_status":"available","_mode":"bus","_direction":253,"_visuallyAccessible":false,"_disabledAccessible":true,"geojson_lng":5.075618493729723,"geojson_lat":52.671508288273266},"geometry":{"type":"Point","coordinates":[5.075618493729723,52.671508288273266]}},{"type":"Feature","properties":{"highway":"bus_stop","public_transport":"platform","name":"Spoorwegovergang","ref:IFOPT":"NL:Q:38391020","_quaycode":"NL:Q:38391020","_town":"Middelie","_status":"available","_mode":"bus","_direction":317,"_visuallyAccessible":false,"_disabledAccessible":false,"geojson_lng":4.999805655246968,"geojson_lat":52.55234932262011},"geometry":{"type":"Point","coordinates":[4.999805655246968,52.55234932262011]}},{"type":"Feature","properties":{"highway":"bus_stop","public_transport":"platform","name":"D. Dekkerstraat","ref:IFOPT":"NL:Q:37403510","_quaycode":"NL:Q:37403510","_town":"Zuidoostbeemster","_status":"available","_mode":"bus","_direction":103,"_visuallyAccessible":false,"_disabledAccessible":false,"geojson_lng":4.938753458907128,"geojson_lat":52.51429762700724},"geometry":{"type":"Point","coordinates":[4.938753458907128,52.51429762700724]}},{"type":"Feature","properties":{"highway":"bus_stop","public_transport":"platform","name":"IJsselweg","ref:IFOPT":"NL:Q:38110240","_quaycode":"NL:Q:38110240","_town":"Hoorn","_status":"available","_mode":"bus","_direction":75,"_visuallyAccessible":false,"_disabledAccessible":false,"geojson_lng":5.07745738525978,"geojson_lat":52.656019450692895},"geometry":{"type":"Point","coordinates":[5.07745738525978,52.656019450692895]}},{"type":"Feature","properties":{"highway":"bus_stop","public_transport":"platform","name":"Gevangenis","ref:IFOPT":"NL:Q:38110020","_quaycode":"NL:Q:38110020","_town":"Zwaag","_status":"available","_mode":"bus","_direction":78,"_visuallyAccessible":true,"_disabledAccessible":false,"geojson_lng":5.063876136007207,"geojson_lat":52.668016964530516},"geometry":{"type":"Point","coordinates":[5.063876136007207,52.668016964530516]}},{"type":"Feature","properties":{"highway":"bus_stop","public_transport":"platform","name":"Gevangenis","ref:IFOPT":"NL:Q:38110040","_quaycode":"NL:Q:38110040","_town":"Zwaag","_status":"available","_mode":"bus","_direction":155,"_visuallyAccessible":false,"_disabledAccessible":true,"geojson_lng":5.062226863385094,"geojson_lat":52.6671497168378},"geometry":{"type":"Point","coordinates":[5.062226863385094,52.6671497168378]}},{"type":"Feature","properties":{"highway":"bus_stop","public_transport":"platform","name":"Hoekstrahof","ref:IFOPT":"NL:Q:38110060","_quaycode":"NL:Q:38110060","_town":"Hoorn NH","_status":"available","_mode":"bus","_direction":130,"_visuallyAccessible":false,"_disabledAccessible":true,"geojson_lng":5.105070574634563,"geojson_lat":52.65502766500062},"geometry":{"type":"Point","coordinates":[5.105070574634563,52.65502766500062]}},{"type":"Feature","properties":{"highway":"bus_stop","public_transport":"platform","name":"De Marowijne","ref:IFOPT":"NL:Q:38110160","_quaycode":"NL:Q:38110160","_town":"Zwaag","_status":"available","_mode":"bus","_direction":73,"_visuallyAccessible":false,"_disabledAccessible":true,"geojson_lng":5.075028931450905,"geojson_lat":52.671264099208884},"geometry":{"type":"Point","coordinates":[5.075028931450905,52.671264099208884]}},{"type":"Feature","properties":{"highway":"bus_stop","public_transport":"platform","name":"Waarschap","ref:IFOPT":"NL:Q:38110090","_quaycode":"NL:Q:38110090","_town":"Zwaag","_status":"available","_mode":"bus","_direction":344,"_visuallyAccessible":true,"_disabledAccessible":true,"geojson_lng":5.078472160604528,"geojson_lat":52.67357375720126},"geometry":{"type":"Point","coordinates":[5.078472160604528,52.67357375720126]}},{"type":"Feature","properties":{"highway":"bus_stop","public_transport":"platform","name":"Oosthuizen Dorp","ref:IFOPT":"NL:Q:38290050","_quaycode":"NL:Q:38290050","_town":"Oosthuizen","_status":"available","_mode":"bus","_direction":147,"_visuallyAccessible":true,"_disabledAccessible":true,"geojson_lng":4.9987288345858705,"geojson_lat":52.574175911276754},"geometry":{"type":"Point","coordinates":[4.9987288345858705,52.574175911276754]}},{"type":"Feature","properties":{"highway":"bus_stop","public_transport":"platform","name":"Middenpad","ref:IFOPT":"NL:Q:36573070","_quaycode":"NL:Q:36573070","_town":"Zuidoostbeemster","_status":"available","_mode":"bus","_direction":110,"_visuallyAccessible":false,"_disabledAccessible":false,"geojson_lng":4.944540468770767,"geojson_lat":52.517482919649716},"geometry":{"type":"Point","coordinates":[4.944540468770767,52.517482919649716]}},{"type":"Feature","properties":{"highway":"bus_stop","public_transport":"platform","name":"Dirk Visstraat","ref:IFOPT":"NL:Q:38490060","_quaycode":"NL:Q:38490060","_town":"Volendam","_status":"available","_mode":"bus","_direction":78,"_visuallyAccessible":true,"_disabledAccessible":true,"geojson_lng":5.0577875236604815,"geojson_lat":52.495958009468595},"geometry":{"type":"Point","coordinates":[5.0577875236604815,52.495958009468595]}},{"type":"Feature","properties":{"highway":"bus_stop","public_transport":"platform","name":"Waarschap","ref:IFOPT":"NL:Q:38110150","_quaycode":"NL:Q:38110150","_town":"Zwaag","_status":"available","_mode":"bus","_direction":160,"_visuallyAccessible":true,"_disabledAccessible":true,"geojson_lng":5.078428816936797,"geojson_lat":52.6734298525845},"geometry":{"type":"Point","coordinates":[5.078428816936797,52.6734298525845]}},{"type":"Feature","properties":{"highway":"bus_stop","public_transport":"platform","name":"Tramplein","ref:IFOPT":"NL:Q:37400101","_quaycode":"NL:Q:37400101","_town":"Purmerend","_status":"available","_mode":"bus","_direction":350,"_visuallyAccessible":false,"_disabledAccessible":false,"geojson_lng":4.94434111277644,"geojson_lat":52.507413870506255},"geometry":{"type":"Point","coordinates":[4.94434111277644,52.507413870506255]}},{"type":"Feature","properties":{"highway":"bus_stop","public_transport":"platform","name":"Brahmsstraat","ref:IFOPT":"NL:Q:37400032","_quaycode":"NL:Q:37400032","_town":"Purmerend","_status":"available","_mode":"bus","_direction":167,"_visuallyAccessible":false,"_disabledAccessible":true,"geojson_lng":4.96622195025963,"geojson_lat":52.48861332465545},"geometry":{"type":"Point","coordinates":[4.96622195025963,52.48861332465545]}},{"type":"Feature","properties":{"highway":"bus_stop","public_transport":"platform","name":"Amperestraat","ref:IFOPT":"NL:Q:37402560","_quaycode":"NL:Q:37402560","_town":"Purmerend","_status":"available","_mode":"bus","_direction":29,"_visuallyAccessible":true,"_disabledAccessible":true,"geojson_lng":5.000743706507003,"geojson_lat":52.51594466363118},"geometry":{"type":"Point","coordinates":[5.000743706507003,52.51594466363118]}},{"type":"Feature","properties":{"highway":"bus_stop","public_transport":"platform","name":"Wijkcentrum","ref:IFOPT":"NL:Q:37400600","_quaycode":"NL:Q:37400600","_town":"Purmerend","_status":"available","_mode":"bus","_direction":32,"_visuallyAccessible":true,"_disabledAccessible":true,"geojson_lng":4.982864273124046,"geojson_lat":52.50411160933474},"geometry":{"type":"Point","coordinates":[4.982864273124046,52.50411160933474]}},{"type":"Feature","properties":{"highway":"bus_stop","public_transport":"platform","name":"Bramleylaan","ref:IFOPT":"NL:Q:38110110","_quaycode":"NL:Q:38110110","_town":"Blokker","_status":"available","_mode":"bus","_direction":251,"_visuallyAccessible":false,"_disabledAccessible":false,"geojson_lng":5.085425586863651,"geojson_lat":52.65997625348015},"geometry":{"type":"Point","coordinates":[5.085425586863651,52.65997625348015]}},{"type":"Feature","properties":{"highway":"bus_stop","public_transport":"platform","name":"Sjeesstraat","ref:IFOPT":"NL:Q:37401040","_quaycode":"NL:Q:37401040","_town":"Purmerend","_status":"available","_mode":"bus","_direction":212,"_visuallyAccessible":true,"_disabledAccessible":false,"geojson_lng":4.980892191720235,"geojson_lat":52.497544058895926},"geometry":{"type":"Point","coordinates":[4.980892191720235,52.497544058895926]}},{"type":"Feature","properties":{"highway":"bus_stop","public_transport":"platform","name":"Sluisje","ref:IFOPT":"NL:Q:38110520","_quaycode":"NL:Q:38110520","_town":"Hoorn NH","_status":"available","_mode":"bus","_direction":70,"_visuallyAccessible":false,"_disabledAccessible":false,"geojson_lng":5.05687696364334,"geojson_lat":52.66302790928423},"geometry":{"type":"Point","coordinates":[5.05687696364334,52.66302790928423]}},{"type":"Feature","properties":{"highway":"bus_stop","public_transport":"platform","name":"Stadskantoor","ref:IFOPT":"NL:Q:38490380","_quaycode":"NL:Q:38490380","_town":"Volendam","_status":"available","_mode":"bus","_direction":61,"_visuallyAccessible":true,"_disabledAccessible":true,"geojson_lng":5.054206513506642,"geojson_lat":52.50023499910416},"geometry":{"type":"Point","coordinates":[5.054206513506642,52.50023499910416]}},{"type":"Feature","properties":{"highway":"bus_stop","public_transport":"platform","name":"Bejaardenhuis","ref:IFOPT":"NL:Q:38290100","_quaycode":"NL:Q:38290100","_town":"Oosthuizen","_status":"available","_mode":"bus","_direction":43,"_visuallyAccessible":false,"_disabledAccessible":false,"geojson_lng":4.996358304179368,"geojson_lat":52.57367383680049},"geometry":{"type":"Point","coordinates":[4.996358304179368,52.57367383680049]}},{"type":"Feature","properties":{"highway":"bus_stop","public_transport":"platform","name":"Unjerpad","ref:IFOPT":"NL:Q:38110600","_quaycode":"NL:Q:38110600","_town":"Zwaag","_status":"available","_mode":"bus","_direction":253,"_visuallyAccessible":false,"_disabledAccessible":false,"geojson_lng":5.085271003173676,"geojson_lat":52.67173088972352},"geometry":{"type":"Point","coordinates":[5.085271003173676,52.67173088972352]}},{"type":"Feature","properties":{"highway":"bus_stop","public_transport":"platform","name":"Kimsterweg","ref:IFOPT":"NL:Q:38490700","_quaycode":"NL:Q:38490700","_town":"Volendam","_status":"available","_mode":"bus","_direction":290,"_visuallyAccessible":false,"_disabledAccessible":true,"geojson_lng":5.077151093903891,"geojson_lat":52.50857453093548},"geometry":{"type":"Point","coordinates":[5.077151093903891,52.50857453093548]}},{"type":"Feature","properties":{"highway":"bus_stop","public_transport":"platform","name":"N.H.Kerk","ref:IFOPT":"NL:Q:38290170","_quaycode":"NL:Q:38290170","_town":"Warder","_status":"available","_mode":"bus","_direction":300,"_visuallyAccessible":false,"_disabledAccessible":false,"geojson_lng":5.029993416221294,"geojson_lat":52.564289189019},"geometry":{"type":"Point","coordinates":[5.029993416221294,52.564289189019]}},{"type":"Feature","properties":{"highway":"bus_stop","public_transport":"platform","name":"Krijterslaan","ref:IFOPT":"NL:Q:38110570","_quaycode":"NL:Q:38110570","_town":"Zwaag","_status":"available","_mode":"bus","_direction":252,"_visuallyAccessible":false,"_disabledAccessible":false,"geojson_lng":5.069089028982891,"geojson_lat":52.666727895788135},"geometry":{"type":"Point","coordinates":[5.069089028982891,52.666727895788135]}},{"type":"Feature","properties":{"highway":"bus_stop","public_transport":"platform","name":"Jan Blankenbrug","ref:IFOPT":"NL:Q:37400190","_quaycode":"NL:Q:37400190","_town":"Purmerend","_status":"available","_mode":"bus","_direction":169,"_visuallyAccessible":false,"_disabledAccessible":true,"geojson_lng":4.947775721279753,"geojson_lat":52.49586221704458},"geometry":{"type":"Point","coordinates":[4.947775721279753,52.49586221704458]}},