{"type":"FeatureCollection","features":[{"type":"Feature","properties":{"SeqNo":"319267","Type":"S","DHID":"de:01057:52598","Parent":"de:01057:52598","Name":"Laboe Hafen/Wendeschleife","MunicipalityCode":"01057043","Municipality":"Laboe","DistrictCode":"","District":"","Description":"","Authority":"VBN","DelfiName":"-","THID":"D9042100CD76","LastOperationDate":"2025-06-14T00:00:00","SEV":"nein","longitude":"10,220157","latitude":"54,403645","geojson_lng":10.220157,"geojson_lat":54.403645},"geometry":{"type":"Point","coordinates":[10.220157,54.403645]}},{"type":"Feature","properties":{"SeqNo":"319268","Type":"Q","DHID":"de:01057:52598::1","Parent":"de:01057:52598","Name":"Laboe Hafen/Wendeschleife","MunicipalityCode":"00000000","Municipality":"-","DistrictCode":"-","District":"-","Description":"","Authority":"VBN","DelfiName":"-","THID":"-","LastOperationDate":"","SEV":"nein","longitude":"10,219972","latitude":"54,403644","geojson_lng":10.219972,"geojson_lat":54.403644},"geometry":{"type":"Point","coordinates":[10.219972,54.403644]}},{"type":"Feature","properties":{"SeqNo":"319269","Type":"Q","DHID":"de:01057:52598::2","Parent":"de:01057:52598","Name":"Laboe Hafen/Wendeschleife","MunicipalityCode":"00000000","Municipality":"-","DistrictCode":"-","District":"-","Description":"","Authority":"VBN","DelfiName":"-","THID":"-","LastOperationDate":"","SEV":"nein","longitude":"10,220341","latitude":"54,403646","geojson_lng":10.220341,"geojson_lat":54.403646},"geometry":{"type":"Point","coordinates":[10.220341,54.403646]}},{"type":"Feature","properties":{"SeqNo":"319270","Type":"S","DHID":"de:01057:52599","Parent":"de:01057:52599","Name":"Laboe Kirche","MunicipalityCode":"01057043","Municipality":"Laboe","DistrictCode":"","District":"","Description":"","Authority":"VBN","DelfiName":"-","THID":"D9042100CD77","LastOperationDate":"2025-06-14T00:00:00","SEV":"nein","longitude":"10,225155","latitude":"54,402878","geojson_lng":10.225155,"geojson_lat":54.402878},"geometry":{"type":"Point","coordinates":[10.225155,54.402878]}},{"type":"Feature","properties":{"SeqNo":"319271","Type":"Q","DHID":"de:01057:52599::1","Parent":"de:01057:52599","Name":"Laboe Kirche","MunicipalityCode":"00000000","Municipality":"-","DistrictCode":"-","District":"-","Description":"","Authority":"VBN","DelfiName":"-","THID":"-","LastOperationDate":"","SEV":"nein","longitude":"10,225155","latitude":"54,402878","geojson_lng":10.225155,"geojson_lat":54.402878},"geometry":{"type":"Point","coordinates":[10.225155,54.402878]}},{"type":"Feature","properties":{"SeqNo":"319275","Type":"S","DHID":"de:01057:52601","Parent":"de:01057:52601","Name":"Laboe Oberdorf","MunicipalityCode":"01057043","Municipality":"Laboe","DistrictCode":"","District":"","Description":"","Authority":"VBN","DelfiName":"-","THID":"D9042100CD79","LastOperationDate":"2025-06-14T00:00:00","SEV":"nein","longitude":"10,225791","latitude":"54,404988","geojson_lng":10.225791,"geojson_lat":54.404988},"geometry":{"type":"Point","coordinates":[10.225791,54.404988]}},{"type":"Feature","properties":{"SeqNo":"319276","Type":"Q","DHID":"de:01057:52601::1","Parent":"de:01057:52601","Name":"Laboe Oberdorf","MunicipalityCode":"00000000","Municipality":"-","DistrictCode":"-","District":"-","Description":"","Authority":"VBN","DelfiName":"-","THID":"-","LastOperationDate":"","SEV":"nein","longitude":"10,225172","latitude":"54,404745","geojson_lng":10.225172,"geojson_lat":54.404745},"geometry":{"type":"Point","coordinates":[10.225172,54.404745]}},{"type":"Feature","properties":{"SeqNo":"319277","Type":"Q","DHID":"de:01057:52601::2","Parent":"de:01057:52601","Name":"Laboe Oberdorf","MunicipalityCode":"00000000","Municipality":"-","DistrictCode":"-","District":"-","Description":"","Authority":"VBN","DelfiName":"-","THID":"-","LastOperationDate":"","SEV":"nein","longitude":"10,22641","latitude":"54,40523","geojson_lng":10.22641,"geojson_lat":54.40523},"geometry":{"type":"Point","coordinates":[10.22641,54.40523]}},{"type":"Feature","properties":{"SeqNo":"319281","Type":"S","DHID":"de:01057:52603","Parent":"de:01057:52603","Name":"Laboe Steinkampberg","MunicipalityCode":"01057043","Municipality":"Laboe","DistrictCode":"","District":"","Description":"","Authority":"VBN","DelfiName":"-","THID":"D9042100CD7B","LastOperationDate":"2025-06-14T00:00:00","SEV":"nein","longitude":"10,224414","latitude":"54,401661","geojson_lng":10.224414,"geojson_lat":54.401661},"geometry":{"type":"Point","coordinates":[10.224414,54.401661]}},{"type":"Feature","properties":{"SeqNo":"319282","Type":"Q","DHID":"de:01057:52603::1","Parent":"de:01057:52603","Name":"Laboe Steinkampberg","MunicipalityCode":"00000000","Municipality":"-","DistrictCode":"-","District":"-","Description":"","Authority":"VBN","DelfiName":"-","THID":"-","LastOperationDate":"","SEV":"nein","longitude":"10,224414","latitude":"54,401661","geojson_lng":10.224414,"geojson_lat":54.401661},"geometry":{"type":"Point","coordinates":[10.224414,54.401661]}}]}