{"type":"FeatureCollection","features":[{"type":"Feature","properties":{"highway":"bus_stop","public_transport":"platform","name":"Huis ter Leede","ref:IFOPT":"NL:Q:51760240","_quaycode":"NL:Q:51760240","_town":"Leerdam","_status":"available","_mode":"bus","_direction":106,"_visuallyAccessible":false,"_disabledAccessible":false,"geojson_lng":5.104522891510534,"geojson_lat":51.891750514458835},"geometry":{"type":"Point","coordinates":[5.104522891510534,51.891750514458835]}},{"type":"Feature","properties":{"highway":"bus_stop","public_transport":"platform","name":"Overheicop","ref:IFOPT":"NL:Q:51660090","_quaycode":"NL:Q:51660090","_town":"Schoonrewoerd","_status":"available","_mode":"bus","_direction":298,"_visuallyAccessible":false,"_disabledAccessible":false,"geojson_lng":5.109103734388704,"geojson_lat":51.921521741485755},"geometry":{"type":"Point","coordinates":[5.109103734388704,51.921521741485755]}},{"type":"Feature","properties":{"highway":"bus_stop","public_transport":"platform","name":"Kortgerecht Blauwbijl","ref:IFOPT":"NL:Q:51660030","_quaycode":"NL:Q:51660030","_town":"Schoonrewoerd","_status":"available","_mode":"bus","_direction":45,"_visuallyAccessible":false,"_disabledAccessible":false,"geojson_lng":5.126654270726031,"geojson_lat":51.93072998395044},"geometry":{"type":"Point","coordinates":[5.126654270726031,51.93072998395044]}},{"type":"Feature","properties":{"highway":"bus_stop","public_transport":"platform","name":"Diefdijk","ref:IFOPT":"NL:Q:51660110","_quaycode":"NL:Q:51660110","_town":"Leerdam","_status":"available","_mode":"bus","_direction":235,"_visuallyAccessible":false,"_disabledAccessible":false,"geojson_lng":5.1270513120529895,"geojson_lat":51.91738325912302},"geometry":{"type":"Point","coordinates":[5.1270513120529895,51.91738325912302]}},{"type":"Feature","properties":{"highway":"bus_stop","public_transport":"platform","name":"Station","ref:IFOPT":"NL:Q:91000108","_quaycode":"NL:Q:91000108","_town":"Geldermalsen","_status":"available","_mode":"bus","_direction":73,"_visuallyAccessible":false,"_disabledAccessible":false,"geojson_lng":5.270630999999997,"geojson_lat":51.88188100000002},"geometry":{"type":"Point","coordinates":[5.270630999999997,51.88188100000002]}},{"type":"Feature","properties":{"highway":"bus_stop","public_transport":"platform","name":"Molenlaan","ref:IFOPT":"NL:Q:51761290","_quaycode":"NL:Q:51761290","_town":"Leerdam","_status":"available","_mode":"bus","_direction":267,"_visuallyAccessible":false,"_disabledAccessible":false,"geojson_lng":5.096332430697905,"geojson_lat":51.89807629248473},"geometry":{"type":"Point","coordinates":[5.096332430697905,51.89807629248473]}},{"type":"Feature","properties":{"highway":"bus_stop","public_transport":"platform","name":"Lingepolikliniek","ref:IFOPT":"NL:Q:51760360","_quaycode":"NL:Q:51760360","_town":"Leerdam","_status":"available","_mode":"bus","_direction":101,"_visuallyAccessible":true,"_disabledAccessible":false,"geojson_lng":5.107776345640337,"geojson_lat":51.89185716554257},"geometry":{"type":"Point","coordinates":[5.107776345640337,51.89185716554257]}},{"type":"Feature","properties":{"highway":"bus_stop","public_transport":"platform","name":"Schaikseweg/Hoogeind","ref:IFOPT":"NL:Q:51660150","_quaycode":"NL:Q:51660150","_town":"Leerdam","_status":"available","_mode":"bus","_direction":224,"_visuallyAccessible":false,"_disabledAccessible":false,"geojson_lng":5.104652725432526,"geojson_lat":51.90810058298432},"geometry":{"type":"Point","coordinates":[5.104652725432526,51.90810058298432]}},{"type":"Feature","properties":{"highway":"bus_stop","public_transport":"platform","name":"Kortgerecht Blauwbijl","ref:IFOPT":"NL:Q:51660060","_quaycode":"NL:Q:51660060","_town":"Schoonrewoerd","_status":"available","_mode":"bus","_direction":223,"_visuallyAccessible":false,"_disabledAccessible":false,"geojson_lng":5.125105735896275,"geojson_lat":51.92949514932861},"geometry":{"type":"Point","coordinates":[5.125105735896275,51.92949514932861]}},{"type":"Feature","properties":{"highway":"bus_stop","public_transport":"platform","name":"Zijderveld","ref:IFOPT":"NL:Q:51460060","_quaycode":"NL:Q:51460060","_town":"Zijderveld","_status":"available","_mode":"bus","_direction":72,"_visuallyAccessible":false,"_disabledAccessible":true,"geojson_lng":5.141939444999392,"geojson_lat":51.94064095439875},"geometry":{"type":"Point","coordinates":[5.141939444999392,51.94064095439875]}},{"type":"Feature","properties":{"highway":"bus_stop","public_transport":"platform","name":"Brandweerkazerne","ref:IFOPT":"NL:Q:51760250","_quaycode":"NL:Q:51760250","_town":"Leerdam","_status":"available","_mode":"bus","_direction":104,"_visuallyAccessible":true,"_disabledAccessible":true,"geojson_lng":5.102293125814309,"geojson_lat":51.89287766055224},"geometry":{"type":"Point","coordinates":[5.102293125814309,51.89287766055224]}},{"type":"Feature","properties":{"highway":"bus_stop","public_transport":"platform","name":"Schaikseweg/Hoogeind","ref:IFOPT":"NL:Q:51660130","_quaycode":"NL:Q:51660130","_town":"Leerdam","_status":"available","_mode":"bus","_direction":46,"_visuallyAccessible":false,"_disabledAccessible":false,"geojson_lng":5.105722584716604,"geojson_lat":51.908984003654176},"geometry":{"type":"Point","coordinates":[5.105722584716604,51.908984003654176]}},{"type":"Feature","properties":{"highway":"bus_stop","public_transport":"platform","name":"Zijderveld","ref:IFOPT":"NL:Q:51460070","_quaycode":"NL:Q:51460070","_town":"Zijderveld","_status":"available","_mode":"bus","_direction":245,"_visuallyAccessible":false,"_disabledAccessible":true,"geojson_lng":5.143011837843936,"geojson_lat":51.94133528124597},"geometry":{"type":"Point","coordinates":[5.143011837843936,51.94133528124597]}},{"type":"Feature","properties":{"highway":"bus_stop","public_transport":"platform","name":"Brandweerkazerne","ref:IFOPT":"NL:Q:51760260","_quaycode":"NL:Q:51760260","_town":"Leerdam","_status":"available","_mode":"bus","_direction":281,"_visuallyAccessible":true,"_disabledAccessible":true,"geojson_lng":5.100955143393336,"geojson_lat":51.893108106430006},"geometry":{"type":"Point","coordinates":[5.100955143393336,51.893108106430006]}},{"type":"Feature","properties":{"highway":"bus_stop","public_transport":"platform","name":"Schaikseweg/Molenlaan","ref:IFOPT":"NL:Q:51760300","_quaycode":"NL:Q:51760300","_town":"Leerdam","_status":"available","_mode":"bus","_direction":19,"_visuallyAccessible":true,"_disabledAccessible":false,"geojson_lng":5.0977933641363276,"geojson_lat":51.89908659076434},"geometry":{"type":"Point","coordinates":[5.0977933641363276,51.89908659076434]}},{"type":"Feature","properties":{"highway":"bus_stop","public_transport":"platform","name":"Molenlaan","ref:IFOPT":"NL:Q:51760720","_quaycode":"NL:Q:51760720","_town":"Leerdam","_status":"available","_mode":"bus","_direction":87,"_visuallyAccessible":false,"_disabledAccessible":false,"geojson_lng":5.096245839167291,"geojson_lat":51.897986194926865},"geometry":{"type":"Point","coordinates":[5.096245839167291,51.897986194926865]}},{"type":"Feature","properties":{"highway":"bus_stop","public_transport":"platform","name":"Schildkamp","ref:IFOPT":"NL:Q:51760590","_quaycode":"NL:Q:51760590","_town":"Asperen","_status":"available","_mode":"bus","_direction":273,"_visuallyAccessible":false,"_disabledAccessible":false,"geojson_lng":5.102175463068291,"geojson_lat":51.88394296992905},"geometry":{"type":"Point","coordinates":[5.102175463068291,51.88394296992905]}},{"type":"Feature","properties":{"highway":"bus_stop","public_transport":"platform","name":"Baronie","ref:IFOPT":"NL:Q:51760450","_quaycode":"NL:Q:51760450","_town":"Asperen","_status":"available","_mode":"bus","_direction":66,"_visuallyAccessible":true,"_disabledAccessible":true,"geojson_lng":5.106607408643368,"geojson_lat":51.8789651048295},"geometry":{"type":"Point","coordinates":[5.106607408643368,51.8789651048295]}},{"type":"Feature","properties":{"highway":"bus_stop","public_transport":"platform","name":"Stardam","ref:IFOPT":"NL:Q:51760570","_quaycode":"NL:Q:51760570","_town":"Asperen","_status":"available","_mode":"bus","_direction":315,"_visuallyAccessible":false,"_disabledAccessible":false,"geojson_lng":5.108222230474371,"geojson_lat":51.88320245849014},"geometry":{"type":"Point","coordinates":[5.108222230474371,51.88320245849014]}},{"type":"Feature","properties":{"highway":"bus_stop","public_transport":"platform","name":"Brandweer","ref:IFOPT":"NL:Q:51760550","_quaycode":"NL:Q:51760550","_town":"Asperen","_status":"available","_mode":"bus","_direction":308,"_visuallyAccessible":false,"_disabledAccessible":false,"geojson_lng":5.116534538946086,"geojson_lat":51.87763114822628},"geometry":{"type":"Point","coordinates":[5.116534538946086,51.87763114822628]}},{"type":"Feature","properties":{"highway":"bus_stop","public_transport":"platform","name":"Guido Gezelleweg","ref:IFOPT":"NL:Q:51670040","_quaycode":"NL:Q:51670040","_town":"Culemborg","_status":"available","_mode":"bus","_direction":117,"_visuallyAccessible":false,"_disabledAccessible":false,"geojson_lng":5.23139150336953,"geojson_lat":51.9449729449487},"geometry":{"type":"Point","coordinates":[5.23139150336953,51.9449729449487]}},{"type":"Feature","properties":{"highway":"bus_stop","public_transport":"platform","name":"Monument","ref:IFOPT":"NL:Q:61739130","_quaycode":"NL:Q:61739130","_town":"Enspijk","_status":"available","_mode":"bus","_direction":259,"_visuallyAccessible":false,"_disabledAccessible":false,"geojson_lng":5.213129050601926,"geojson_lat":51.8835843990947},"geometry":{"type":"Point","coordinates":[5.213129050601926,51.8835843990947]}},{"type":"Feature","properties":{"highway":"bus_stop","public_transport":"platform","name":"Gemeentehuis","ref:IFOPT":"NL:Q:51760380","_quaycode":"NL:Q:51760380","_town":"Asperen","_status":"available","_mode":"bus","_direction":70,"_visuallyAccessible":false,"_disabledAccessible":false,"geojson_lng":5.110647796108895,"geojson_lat":51.880835269348545},"geometry":{"type":"Point","coordinates":[5.110647796108895,51.880835269348545]}},{"type":"Feature","properties":{"highway":"bus_stop","public_transport":"platform","name":"Schildkamp","ref:IFOPT":"NL:Q:51760600","_quaycode":"NL:Q:51760600","_town":"Asperen","_status":"available","_mode":"bus","_direction":90,"_visuallyAccessible":false,"_disabledAccessible":false,"geojson_lng":5.102117650750816,"geojson_lat":51.88389788800373},"geometry":{"type":"Point","coordinates":[5.102117650750816,51.88389788800373]}},{"type":"Feature","properties":{"highway":"bus_stop","public_transport":"platform","name":"Haarstraat","ref:IFOPT":"NL:Q:61739170","_quaycode":"NL:Q:61739170","_town":"Enspijk","_status":"available","_mode":"bus","_direction":124,"_visuallyAccessible":false,"_disabledAccessible":false,"geojson_lng":5.209710618531735,"geojson_lat":51.88122434996146},"geometry":{"type":"Point","coordinates":[5.209710618531735,51.88122434996146]}},{"type":"Feature","properties":{"highway":"bus_stop","public_transport":"platform","name":"Baronie","ref:IFOPT":"NL:Q:51760460","_quaycode":"NL:Q:51760460","_town":"Asperen","_status":"available","_mode":"bus","_direction":245,"_visuallyAccessible":true,"_disabledAccessible":true,"geojson_lng":5.106548925813518,"geojson_lat":51.87902788359264},"geometry":{"type":"Point","coordinates":[5.106548925813518,51.87902788359264]}},{"type":"Feature","properties":{"highway":"bus_stop","public_transport":"platform","name":"Veerweg/N327","ref:IFOPT":"NL:Q:61749320","_quaycode":"NL:Q:61749320","_town":"Beesd","_status":"available","_mode":"bus","_direction":226,"_visuallyAccessible":false,"_disabledAccessible":false,"geojson_lng":5.181212212531905,"geojson_lat":51.87875101979941},"geometry":{"type":"Point","coordinates":[5.181212212531905,51.87875101979941]}},{"type":"Feature","properties":{"highway":"bus_stop","public_transport":"platform","name":"Mr. Mierasstraat","ref:IFOPT":"NL:Q:61669240","_quaycode":"NL:Q:61669240","_town":"Beesd","_status":"available","_mode":"bus","_direction":157,"_visuallyAccessible":false,"_disabledAccessible":false,"geojson_lng":5.193307940428833,"geojson_lat":51.88925196900392},"geometry":{"type":"Point","coordinates":[5.193307940428833,51.88925196900392]}},{"type":"Feature","properties":{"highway":"bus_stop","public_transport":"platform","name":"PGEM Station","ref:IFOPT":"NL:Q:61350170","_quaycode":"NL:Q:61350170","_town":"Neerijnen","_status":"available","_mode":"bus","_direction":289,"_visuallyAccessible":false,"_disabledAccessible":false,"geojson_lng":5.276125976784521,"geojson_lat":51.83439574990545},"geometry":{"type":"Point","coordinates":[5.276125976784521,51.83439574990545]}},{"type":"Feature","properties":{"highway":"bus_stop","public_transport":"platform","name":"Rijweg","ref:IFOPT":"NL:Q:61451290","_quaycode":"NL:Q:61451290","_town":"Waardenburg","_status":"available","_mode":"bus","_direction":218,"_visuallyAccessible":false,"_disabledAccessible":false,"geojson_lng":5.268245579814192,"geojson_lat":51.84627962633219},"geometry":{"type":"Point","coordinates":[5.268245579814192,51.84627962633219]}},{"type":"Feature","properties":{"highway":"bus_stop","public_transport":"platform","name":"Achterweg","ref:IFOPT":"NL:Q:51769120","_quaycode":"NL:Q:51769120","_town":"Acquoy","_status":"available","_mode":"bus","_direction":262,"_visuallyAccessible":false,"_disabledAccessible":false,"geojson_lng":5.135021747971267,"geojson_lat":51.87760036603365},"geometry":{"type":"Point","coordinates":[5.135021747971267,51.87760036603365]}},{"type":"Feature","properties":{"highway":"bus_stop","public_transport":"platform","name":"Betuwestrand","ref:IFOPT":"NL:Q:61660060","_quaycode":"NL:Q:61660060","_town":"Beesd","_status":"available","_mode":"bus","_direction":267,"_visuallyAccessible":false,"_disabledAccessible":false,"geojson_lng":5.188503438824409,"geojson_lat":51.898313146918454},"geometry":{"type":"Point","coordinates":[5.188503438824409,51.898313146918454]}},{"type":"Feature","properties":{"highway":"bus_stop","public_transport":"platform","name":"Schoresteynstraat","ref:IFOPT":"NL:Q:61369580","_quaycode":"NL:Q:61369580","_town":"Deil","_status":"available","_mode":"bus","_direction":90,"_visuallyAccessible":false,"_disabledAccessible":false,"geojson_lng":5.2408331671014,"geojson_lat":51.88612089922893},"geometry":{"type":"Point","coordinates":[5.2408331671014,51.88612089922893]}},{"type":"Feature","properties":{"highway":"bus_stop","public_transport":"platform","name":"Mr. W.M. Kolffstraat","ref:IFOPT":"NL:Q:61739120","_quaycode":"NL:Q:61739120","_town":"Deil","_status":"available","_mode":"bus","_direction":77,"_visuallyAccessible":false,"_disabledAccessible":false,"geojson_lng":5.229693900873657,"geojson_lat":51.885693044100584},"geometry":{"type":"Point","coordinates":[5.229693900873657,51.885693044100584]}},{"type":"Feature","properties":{"highway":"bus_stop","public_transport":"platform","name":"Station","ref:IFOPT":"NL:Q:61360350","_quaycode":"NL:Q:61360350","_town":"Geldermalsen","_status":"available","_mode":"bus","_direction":326,"_visuallyAccessible":false,"_disabledAccessible":true,"geojson_lng":5.270795609150969,"geojson_lat":51.881606291452826},"geometry":{"type":"Point","coordinates":[5.270795609150969,51.881606291452826]}},{"type":"Feature","properties":{"highway":"bus_stop","public_transport":"platform","name":"Belle van Zuylenlaan","ref:IFOPT":"NL:Q:51671320","_quaycode":"NL:Q:51671320","_town":"Culemborg","_status":"available","_mode":"bus","_direction":256,"_visuallyAccessible":true,"_disabledAccessible":false,"geojson_lng":5.209186160169754,"geojson_lat":51.94406959225139},"geometry":{"type":"Point","coordinates":[5.209186160169754,51.94406959225139]}},{"type":"Feature","properties":{"highway":"bus_stop","public_transport":"platform","name":"Dorpshuis","ref:IFOPT":"NL:Q:61363010","_quaycode":"NL:Q:61363010","_town":"Tricht","_status":"available","_mode":"bus","_direction":311,"_visuallyAccessible":false,"_disabledAccessible":false,"geojson_lng":5.270380092427182,"geojson_lat":51.8906211427329},"geometry":{"type":"Point","coordinates":[5.270380092427182,51.8906211427329]}},{"type":"Feature","properties":{"highway":"bus_stop","public_transport":"platform","name":"Drostlaan","ref:IFOPT":"NL:Q:51760480","_quaycode":"NL:Q:51760480","_town":"Asperen","_status":"available","_mode":"bus","_direction":291,"_visuallyAccessible":true,"_disabledAccessible":true,"geojson_lng":5.102931478443715,"geojson_lat":51.87922592079624},"geometry":{"type":"Point","coordinates":[5.102931478443715,51.87922592079624]}},{"type":"Feature","properties":{"highway":"bus_stop","public_transport":"platform","name":"Raadhuisplein","ref:IFOPT":"NL:Q:51760430","_quaycode":"NL:Q:51760430","_town":"Asperen","_status":"available","_mode":"bus","_direction":68,"_visuallyAccessible":true,"_disabledAccessible":true,"geojson_lng":5.110082717458232,"geojson_lat":51.88061821804398},"geometry":{"type":"Point","coordinates":[5.110082717458232,51.88061821804398]}},{"type":"Feature","properties":{"highway":"bus_stop","public_transport":"platform","name":"Station","ref:IFOPT":"NL:Q:61660010","_quaycode":"NL:Q:61660010","_town":"Beesd","_status":"available","_mode":"bus","_direction":270,"_visuallyAccessible":false,"_disabledAccessible":false,"geojson_lng":5.195997913618552,"geojson_lat":51.899154202281636},"geometry":{"type":"Point","coordinates":[5.195997913618552,51.899154202281636]}},{"type":"Feature","properties":{"highway":"bus_stop","public_transport":"platform","name":"Veerweg","ref:IFOPT":"NL:Q:61669030","_quaycode":"NL:Q:61669030","_town":"Beesd","_status":"available","_mode":"bus","_direction":224,"_visuallyAccessible":false,"_disabledAccessible":false,"geojson_lng":5.187740979857303,"geojson_lat":51.88349013584021},"geometry":{"type":"Point","coordinates":[5.187740979857303,51.88349013584021]}},{"type":"Feature","properties":{"highway":"bus_stop","public_transport":"platform","name":"Huis te Beestlaan","ref:IFOPT":"NL:Q:61660040","_quaycode":"NL:Q:61660040","_town":"Beesd","_status":"available","_mode":"bus","_direction":250,"_visuallyAccessible":false,"_disabledAccessible":false,"geojson_lng":5.190915151132621,"geojson_lat":51.88501450398739},"geometry":{"type":"Point","coordinates":[5.190915151132621,51.88501450398739]}},{"type":"Feature","properties":{"highway":"bus_stop","public_transport":"platform","name":"Oude Waag","ref:IFOPT":"NL:Q:61669260","_quaycode":"NL:Q:61669260","_town":"Beesd","_status":"available","_mode":"bus","_direction":135,"_visuallyAccessible":false,"_disabledAccessible":false,"geojson_lng":5.19194952760395,"geojson_lat":51.890993453048786},"geometry":{"type":"Point","coordinates":[5.19194952760395,51.890993453048786]}},{"type":"Feature","properties":{"highway":"bus_stop","public_transport":"platform","name":"Huis te Beestlaan","ref:IFOPT":"NL:Q:61669550","_quaycode":"NL:Q:61669550","_town":"Beesd","_status":"available","_mode":"bus","_direction":63,"_visuallyAccessible":false,"_disabledAccessible":false,"geojson_lng":5.190886572144562,"geojson_lat":51.884906596493494},"geometry":{"type":"Point","coordinates":[5.190886572144562,51.884906596493494]}},{"type":"Feature","properties":{"highway":"bus_stop","public_transport":"platform","name":"Guido Gezelleweg","ref:IFOPT":"NL:Q:51670050","_quaycode":"NL:Q:51670050","_town":"Culemborg","_status":"available","_mode":"bus","_direction":297,"_visuallyAccessible":false,"_disabledAccessible":false,"geojson_lng":5.2313186894457315,"geojson_lat":51.94499981323211},"geometry":{"type":"Point","coordinates":[5.2313186894457315,51.94499981323211]}},{"type":"Feature","properties":{"highway":"bus_stop","public_transport":"platform","name":"Busstation","ref:IFOPT":"NL:Q:61669060","_quaycode":"NL:Q:61669060","_town":"Rhenoy","_status":"available","_mode":"bus","_direction":197,"_visuallyAccessible":false,"_disabledAccessible":false,"geojson_lng":5.154131442048788,"geojson_lat":51.88074977888936},"geometry":{"type":"Point","coordinates":[5.154131442048788,51.88074977888936]}},{"type":"Feature","properties":{"highway":"bus_stop","public_transport":"platform","name":"Wijsenbeekweg","ref:IFOPT":"NL:Q:51671310","_quaycode":"NL:Q:51671310","_town":"Culemborg","_status":"available","_mode":"bus","_direction":44,"_visuallyAccessible":false,"_disabledAccessible":true,"geojson_lng":5.2192874067729855,"geojson_lat":51.945873097846714},"geometry":{"type":"Point","coordinates":[5.2192874067729855,51.945873097846714]}},{"type":"Feature","properties":{"highway":"bus_stop","public_transport":"platform","name":"Veerweg","ref:IFOPT":"NL:Q:61669031","_quaycode":"NL:Q:61669031","_town":"Beesd","_status":"available","_mode":"bus","_direction":43,"_visuallyAccessible":false,"_disabledAccessible":false,"geojson_lng":5.187828284107697,"geojson_lat":51.88345433067383},"geometry":{"type":"Point","coordinates":[5.187828284107697,51.88345433067383]}},{"type":"Feature","properties":{"highway":"bus_stop","public_transport":"platform","name":"Dorp","ref:IFOPT":"NL:Q:51660170","_quaycode":"NL:Q:51660170","_town":"Schoonrewoerd","_status":"available","_mode":"bus","_direction":217,"_visuallyAccessible":true,"_disabledAccessible":true,"geojson_lng":5.118142974672913,"geojson_lat":51.92195623201166},"geometry":{"type":"Point","coordinates":[5.118142974672913,51.92195623201166]}},{"type":"Feature","properties":{"highway":"bus_stop","public_transport":"platform","name":"Dorp","ref:IFOPT":"NL:Q:51660180","_quaycode":"NL:Q:51660180","_town":"Schoonrewoerd","_status":"available","_mode":"bus","_direction":34,"_visuallyAccessible":false,"_disabledAccessible":true,"geojson_lng":5.118273696057598,"geojson_lat":51.921974507599046},"geometry":{"type":"Point","coordinates":[5.118273696057598,51.921974507599046]}},{"type":"Feature","properties":{"highway":"bus_stop","public_transport":"platform","name":"R.M. van Gellicumstraat","ref:IFOPT":"NL:Q:61749150","_quaycode":"NL:Q:61749150","_town":"Rumpt","_status":"available","_mode":"bus","_direction":331,"_visuallyAccessible":false,"_disabledAccessible":false,"geojson_lng":5.180368855910229,"geojson_lat":51.8821381362607},"geometry":{"type":"Point","coordinates":[5.180368855910229,51.8821381362607]}},{"type":"Feature","properties":{"highway":"bus_stop","public_transport":"platform","name":"Dorpsplein","ref:IFOPT":"NL:Q:61669280","_quaycode":"NL:Q:61669280","_town":"Beesd","_status":"available","_mode":"bus","_direction":327,"_visuallyAccessible":false,"_disabledAccessible":true,"geojson_lng":5.194135310303081,"geojson_lat":51.886026527550904},"geometry":{"type":"Point","coordinates":[5.194135310303081,51.886026527550904]}},{"type":"Feature","properties":{"highway":"bus_stop","public_transport":"platform","name":"Oudenhof","ref:IFOPT":"NL:Q:61369540","_quaycode":"NL:Q:61369540","_town":"Deil","_status":"available","_mode":"bus","_direction":118,"_visuallyAccessible":false,"_disabledAccessible":false,"geojson_lng":5.249373818372843,"geojson_lat":51.88141235945913},"geometry":{"type":"Point","coordinates":[5.249373818372843,51.88141235945913]}},{"type":"Feature","properties":{"highway":"bus_stop","public_transport":"platform","name":"Raadhuisplein","ref:IFOPT":"NL:Q:51760440","_quaycode":"NL:Q:51760440","_town":"Asperen","_status":"available","_mode":"bus","_direction":245,"_visuallyAccessible":true,"_disabledAccessible":true,"geojson_lng":5.11000971412302,"geojson_lat":51.88068096427213},"geometry":{"type":"Point","coordinates":[5.11000971412302,51.88068096427213]}},{"type":"Feature","properties":{"highway":"bus_stop","public_transport":"platform","name":"Oude Waag","ref:IFOPT":"NL:Q:61669250","_quaycode":"NL:Q:61669250","_town":"Beesd","_status":"available","_mode":"bus","_direction":304,"_visuallyAccessible":false,"_disabledAccessible":false,"geojson_lng":5.1920219267421475,"geojson_lat":51.891047503103636},"geometry":{"type":"Point","coordinates":[5.1920219267421475,51.891047503103636]}},{"type":"Feature","properties":{"highway":"bus_stop","public_transport":"platform","name":"Schaikseweg/Molenlaan","ref:IFOPT":"NL:Q:51760290","_quaycode":"NL:Q:51760290","_town":"Leerdam","_status":"available","_mode":"bus","_direction":200,"_visuallyAccessible":false,"_disabledAccessible":false,"geojson_lng":5.097560377240923,"geojson_lat":51.899166911854174},"geometry":{"type":"Point","coordinates":[5.097560377240923,51.899166911854174]}},{"type":"Feature","properties":{"highway":"bus_stop","public_transport":"platform","name":"Lingepolikliniek","ref:IFOPT":"NL:Q:51760230","_quaycode":"NL:Q:51760230","_town":"Leerdam","_status":"available","_mode":"bus","_direction":281,"_visuallyAccessible":true,"_disabledAccessible":false,"geojson_lng":5.107411834241633,"geojson_lat":51.89207201835906},"geometry":{"type":"Point","coordinates":[5.107411834241633,51.89207201835906]}},{"type":"Feature","properties":{"highway":"bus_stop","public_transport":"platform","name":"Veerweg/N327","ref:IFOPT":"NL:Q:61749270","_quaycode":"NL:Q:61749270","_town":"Rumpt","_status":"available","_mode":"bus","_direction":56,"_visuallyAccessible":false,"_disabledAccessible":false,"geojson_lng":5.181603502883492,"geojson_lat":51.87893147134226},"geometry":{"type":"Point","coordinates":[5.181603502883492,51.87893147134226]}},{"type":"Feature","properties":{"highway":"bus_stop","public_transport":"platform","name":"Oudenhof","ref:IFOPT":"NL:Q:61369530","_quaycode":"NL:Q:61369530","_town":"Deil","_status":"available","_mode":"bus","_direction":297,"_visuallyAccessible":false,"_disabledAccessible":false,"geojson_lng":5.249431775056358,"geojson_lat":51.8814573689085},"geometry":{"type":"Point","coordinates":[5.249431775056358,51.8814573689085]}},{"type":"Feature","properties":{"highway":"bus_stop","public_transport":"platform","name":"Lokhorstschool","ref:IFOPT":"NL:Q:61369560","_quaycode":"NL:Q:61369560","_town":"Deil","_status":"available","_mode":"bus","_direction":109,"_visuallyAccessible":false,"_disabledAccessible":false,"geojson_lng":5.246082571248012,"geojson_lat":51.88425774875155},"geometry":{"type":"Point","coordinates":[5.246082571248012,51.88425774875155]}},{"type":"Feature","properties":{"highway":"bus_stop","public_transport":"platform","name":"Dorpsplein","ref:IFOPT":"NL:Q:61669270","_quaycode":"NL:Q:61669270","_town":"Beesd","_status":"available","_mode":"bus","_direction":55,"_visuallyAccessible":false,"_disabledAccessible":true,"geojson_lng":5.19417900090508,"geojson_lat":51.88599963435627},"geometry":{"type":"Point","coordinates":[5.19417900090508,51.88599963435627]}},{"type":"Feature","properties":{"highway":"bus_stop","public_transport":"platform","name":"Station","ref:IFOPT":"NL:Q:61360370","_quaycode":"NL:Q:61360370","_town":"Geldermalsen","_status":"available","_mode":"bus","_direction":335,"_visuallyAccessible":false,"_disabledAccessible":true,"geojson_lng":5.270665105920138,"geojson_lat":51.8815252674917},"geometry":{"type":"Point","coordinates":[5.270665105920138,51.8815252674917]}},{"type":"Feature","properties":{"highway":"bus_stop","public_transport":"platform","name":"Zoetenhoek","ref:IFOPT":"NL:Q:61739090","_quaycode":"NL:Q:61739090","_town":"Deil","_status":"available","_mode":"bus","_direction":257,"_visuallyAccessible":false,"_disabledAccessible":false,"geojson_lng":5.234760630585621,"geojson_lat":51.88642777448307},"geometry":{"type":"Point","coordinates":[5.234760630585621,51.88642777448307]}},{"type":"Feature","properties":{"highway":"bus_stop","public_transport":"platform","name":"Lingebrug","ref:IFOPT":"NL:Q:61749510","_quaycode":"NL:Q:61749510","_town":"Gellicum","_status":"available","_mode":"bus","_direction":275,"_visuallyAccessible":false,"_disabledAccessible":false,"geojson_lng":5.158074199984019,"geojson_lat":51.87939130520153},"geometry":{"type":"Point","coordinates":[5.158074199984019,51.87939130520153]}},{"type":"Feature","properties":{"highway":"bus_stop","public_transport":"platform","name":"Brandweer","ref:IFOPT":"NL:Q:51760560","_quaycode":"NL:Q:51760560","_town":"Asperen","_status":"available","_mode":"bus","_direction":128,"_visuallyAccessible":false,"_disabledAccessible":false,"geojson_lng":5.116447892147611,"geojson_lat":51.877550053539416},"geometry":{"type":"Point","coordinates":[5.116447892147611,51.877550053539416]}},{"type":"Feature","properties":{"highway":"bus_stop","public_transport":"platform","name":"De Schakel","ref:IFOPT":"NL:Q:51769080","_quaycode":"NL:Q:51769080","_town":"Acquoy","_status":"available","_mode":"bus","_direction":28,"_visuallyAccessible":false,"_disabledAccessible":false,"geojson_lng":5.134250482002449,"geojson_lat":51.880465987800754},"geometry":{"type":"Point","coordinates":[5.134250482002449,51.880465987800754]}},{"type":"Feature","properties":{"highway":"bus_stop","public_transport":"platform","name":"Lokhorstschool","ref:IFOPT":"NL:Q:61369550","_quaycode":"NL:Q:61369550","_town":"Deil","_status":"available","_mode":"bus","_direction":291,"_visuallyAccessible":false,"_disabledAccessible":false,"geojson_lng":5.246126060143779,"geojson_lat":51.88428476584415},"geometry":{"type":"Point","coordinates":[5.246126060143779,51.88428476584415]}},{"type":"Feature","properties":{"highway":"bus_stop","public_transport":"platform","name":"Mr. W.M. Kolffstraat","ref:IFOPT":"NL:Q:61739110","_quaycode":"NL:Q:61739110","_town":"Deil","_status":"available","_mode":"bus","_direction":258,"_visuallyAccessible":false,"_disabledAccessible":false,"geojson_lng":5.229664630922207,"geojson_lat":51.88575592302674},"geometry":{"type":"Point","coordinates":[5.229664630922207,51.88575592302674]}},{"type":"Feature","properties":{"highway":"bus_stop","public_transport":"platform","name":"Achtermonde","ref:IFOPT":"NL:Q:61749170","_quaycode":"NL:Q:61749170","_town":"Rumpt","_status":"available","_mode":"bus","_direction":303,"_visuallyAccessible":false,"_disabledAccessible":false,"geojson_lng":5.174444998606385,"geojson_lat":51.884815071258025},"geometry":{"type":"Point","coordinates":[5.174444998606385,51.884815071258025]}},{"type":"Feature","properties":{"highway":"bus_stop","public_transport":"platform","name":"Monument","ref:IFOPT":"NL:Q:61739140","_quaycode":"NL:Q:61739140","_town":"Enspijk","_status":"available","_mode":"bus","_direction":78,"_visuallyAccessible":false,"_disabledAccessible":false,"geojson_lng":5.21315834224557,"geojson_lat":51.88352152428221},"geometry":{"type":"Point","coordinates":[5.21315834224557,51.88352152428221]}},{"type":"Feature","properties":{"highway":"bus_stop","public_transport":"platform","name":"Gruttersdam","ref:IFOPT":"NL:Q:51760410","_quaycode":"NL:Q:51760410","_town":"Asperen","_status":"available","_mode":"bus","_direction":129,"_visuallyAccessible":true,"_disabledAccessible":true,"geojson_lng":5.114133956759519,"geojson_lat":51.87835365053579},"geometry":{"type":"Point","coordinates":[5.114133956759519,51.87835365053579]}},{"type":"Feature","properties":{"highway":"bus_stop","public_transport":"platform","name":"Mr. Mierasstraat","ref:IFOPT":"NL:Q:61669230","_quaycode":"NL:Q:61669230","_town":"Beesd","_status":"available","_mode":"bus","_direction":334,"_visuallyAccessible":false,"_disabledAccessible":false,"geojson_lng":5.193511918558136,"geojson_lat":51.889126469333746},"geometry":{"type":"Point","coordinates":[5.193511918558136,51.889126469333746]}},{"type":"Feature","properties":{"highway":"bus_stop","public_transport":"platform","name":"Achterweg","ref:IFOPT":"NL:Q:51769110","_quaycode":"NL:Q:51769110","_town":"Acquoy","_status":"available","_mode":"bus","_direction":86,"_visuallyAccessible":false,"_disabledAccessible":false,"geojson_lng":5.1351096362868915,"geojson_lat":51.877465729523834},"geometry":{"type":"Point","coordinates":[5.1351096362868915,51.877465729523834]}},{"type":"Feature","properties":{"highway":"bus_stop","public_transport":"platform","name":"Drostlaan","ref:IFOPT":"NL:Q:51760470","_quaycode":"NL:Q:51760470","_town":"Asperen","_status":"available","_mode":"bus","_direction":94,"_visuallyAccessible":true,"_disabledAccessible":true,"geojson_lng":5.102204773333276,"geojson_lat":51.87931404414347},"geometry":{"type":"Point","coordinates":[5.102204773333276,51.87931404414347]}},{"type":"Feature","properties":{"highway":"bus_stop","public_transport":"platform","name":"De Schakel","ref:IFOPT":"NL:Q:51769070","_quaycode":"NL:Q:51769070","_town":"Acquoy","_status":"available","_mode":"bus","_direction":207,"_visuallyAccessible":false,"_disabledAccessible":false,"geojson_lng":5.134148617833818,"geojson_lat":51.880501721857655},"geometry":{"type":"Point","coordinates":[5.134148617833818,51.880501721857655]}},{"type":"Feature","properties":{"highway":"bus_stop","public_transport":"platform","name":"O.B.S. De Springplank","ref:IFOPT":"NL:Q:61749160","_quaycode":"NL:Q:61749160","_town":"Rumpt","_status":"available","_mode":"bus","_direction":128,"_visuallyAccessible":false,"_disabledAccessible":false,"geojson_lng":5.178452640602463,"geojson_lat":51.88193700589791},"geometry":{"type":"Point","coordinates":[5.178452640602463,51.88193700589791]}},{"type":"Feature","properties":{"highway":"bus_stop","public_transport":"platform","name":"Station","ref:IFOPT":"NL:Q:61360360","_quaycode":"NL:Q:61360360","_town":"Geldermalsen","_status":"available","_mode":"bus","_direction":340,"_visuallyAccessible":false,"_disabledAccessible":false,"geojson_lng":5.270723037577882,"geojson_lat":51.88158824300079},"geometry":{"type":"Point","coordinates":[5.270723037577882,51.88158824300079]}},{"type":"Feature","properties":{"highway":"bus_stop","public_transport":"platform","name":"Stardam","ref:IFOPT":"NL:Q:51760580","_quaycode":"NL:Q:51760580","_town":"Asperen","_status":"available","_mode":"bus","_direction":144,"_visuallyAccessible":false,"_disabledAccessible":false,"geojson_lng":5.108076823149752,"geojson_lat":51.88322907825698},"geometry":{"type":"Point","coordinates":[5.108076823149752,51.88322907825698]}},{"type":"Feature","properties":{"highway":"bus_stop","public_transport":"platform","name":"Korte Veersteeg","ref:IFOPT":"NL:Q:61739160","_quaycode":"NL:Q:61739160","_town":"Enspijk","_status":"available","_mode":"bus","_direction":37,"_visuallyAccessible":false,"_disabledAccessible":false,"geojson_lng":5.21036424463007,"geojson_lat":51.881207358331714},"geometry":{"type":"Point","coordinates":[5.21036424463007,51.881207358331714]}},{"type":"Feature","properties":{"highway":"bus_stop","public_transport":"platform","name":"Betuwestrand","ref:IFOPT":"NL:Q:61660050","_quaycode":"NL:Q:61660050","_town":"Beesd","_status":"available","_mode":"bus","_direction":267,"_visuallyAccessible":false,"_disabledAccessible":false,"geojson_lng":5.188735267941063,"geojson_lat":51.898457351236075},"geometry":{"type":"Point","coordinates":[5.188735267941063,51.898457351236075]}},{"type":"Feature","properties":{"highway":"bus_stop","public_transport":"platform","name":"SG Lek en Linge","ref:IFOPT":"NL:Q:51670530","_quaycode":"NL:Q:51670530","_town":"Culemborg","_status":"available","_mode":"bus","_direction":224,"_visuallyAccessible":true,"_disabledAccessible":true,"geojson_lng":5.235303000304964,"geojson_lat":51.94521175121159},"geometry":{"type":"Point","coordinates":[5.235303000304964,51.94521175121159]}},{"type":"Feature","properties":{"highway":"bus_stop","public_transport":"platform","name":"Achtermonde","ref:IFOPT":"NL:Q:61749180","_quaycode":"NL:Q:61749180","_town":"Rumpt","_status":"available","_mode":"bus","_direction":123,"_visuallyAccessible":false,"_disabledAccessible":false,"geojson_lng":5.1743000077659405,"geojson_lat":51.884760878836815},"geometry":{"type":"Point","coordinates":[5.1743000077659405,51.884760878836815]}},{"type":"Feature","properties":{"highway":"bus_stop","public_transport":"platform","name":"Gemeentehuis","ref:IFOPT":"NL:Q:51760370","_quaycode":"NL:Q:51760370","_town":"Asperen","_status":"available","_mode":"bus","_direction":249,"_visuallyAccessible":false,"_disabledAccessible":false,"geojson_lng":5.110618473471711,"geojson_lat":51.880880142050685},"geometry":{"type":"Point","coordinates":[5.110618473471711,51.880880142050685]}},{"type":"Feature","properties":{"highway":"bus_stop","public_transport":"platform","name":"Gruttersdam","ref:IFOPT":"NL:Q:51760420","_quaycode":"NL:Q:51760420","_town":"Asperen","_status":"available","_mode":"bus","_direction":307,"_visuallyAccessible":true,"_disabledAccessible":true,"geojson_lng":5.114045949425572,"geojson_lat":51.87849725950049},"geometry":{"type":"Point","coordinates":[5.114045949425572,51.87849725950049]}},{"type":"Feature","properties":{"highway":"bus_stop","public_transport":"platform","name":"Schoresteynstraat","ref:IFOPT":"NL:Q:61369570","_quaycode":"NL:Q:61369570","_town":"Deil","_status":"available","_mode":"bus","_direction":297,"_visuallyAccessible":false,"_disabledAccessible":false,"geojson_lng":5.2408765378132,"geojson_lat":51.8861838713241},"geometry":{"type":"Point","coordinates":[5.2408765378132,51.8861838713241]}},{"type":"Feature","properties":{"highway":"bus_stop","public_transport":"platform","name":"Zoetenhoek","ref:IFOPT":"NL:Q:61739100","_quaycode":"NL:Q:61739100","_town":"Deil","_status":"available","_mode":"bus","_direction":77,"_visuallyAccessible":false,"_disabledAccessible":false,"geojson_lng":5.235065749846866,"geojson_lat":51.8864012047262},"geometry":{"type":"Point","coordinates":[5.235065749846866,51.8864012047262]}},{"type":"Feature","properties":{"highway":"bus_stop","public_transport":"platform","name":"Rijweg","ref:IFOPT":"NL:Q:61451300","_quaycode":"NL:Q:61451300","_town":"Neerijnen","_status":"available","_mode":"bus","_direction":38,"_visuallyAccessible":false,"_disabledAccessible":false,"geojson_lng":5.268738145075605,"geojson_lat":51.846603704123446},"geometry":{"type":"Point","coordinates":[5.268738145075605,51.846603704123446]}},{"type":"Feature","properties":{"highway":"bus_stop","public_transport":"platform","name":"Belle van Zuylenlaan","ref:IFOPT":"NL:Q:51671330","_quaycode":"NL:Q:51671330","_town":"Culemborg","_status":"available","_mode":"bus","_direction":87,"_visuallyAccessible":true,"_disabledAccessible":false,"geojson_lng":5.209244975860046,"geojson_lat":51.943907892903475},"geometry":{"type":"Point","coordinates":[5.209244975860046,51.943907892903475]}},{"type":"Feature","properties":{"highway":"bus_stop","public_transport":"platform","name":"Marienwaerdt het Klooster","ref:IFOPT":"NL:Q:91000064","_quaycode":"NL:Q:91000064","_town":"Beesd","_status":"available","_mode":"bus","_direction":57,"_visuallyAccessible":false,"_disabledAccessible":false,"geojson_lng":5.2177345000000015,"geojson_lat":51.89008740000002},"geometry":{"type":"Point","coordinates":[5.2177345000000015,51.89008740000002]}},{"type":"Feature","properties":{"highway":"bus_stop","public_transport":"platform","name":"PGEM Station","ref:IFOPT":"NL:Q:61350020","_quaycode":"NL:Q:61350020","_town":"Neerijnen","_status":"available","_mode":"bus","_direction":109,"_visuallyAccessible":false,"_disabledAccessible":false,"geojson_lng":5.276082584449266,"geojson_lat":51.834341778755395},"geometry":{"type":"Point","coordinates":[5.276082584449266,51.834341778755395]}},{"type":"Feature","properties":{"highway":"bus_stop","public_transport":"platform","name":"Lingebrug","ref:IFOPT":"NL:Q:61749520","_quaycode":"NL:Q:61749520","_town":"Gellicum","_status":"available","_mode":"bus","_direction":95,"_visuallyAccessible":false,"_disabledAccessible":false,"geojson_lng":5.15804597783473,"geojson_lat":51.87922946025547},"geometry":{"type":"Point","coordinates":[5.15804597783473,51.87922946025547]}},{"type":"Feature","properties":{"highway":"bus_stop","public_transport":"platform","name":"SG Lek en Linge","ref:IFOPT":"NL:Q:51670550","_quaycode":"NL:Q:51670550","_town":"Culemborg","_status":"available","_mode":"bus","_direction":45,"_visuallyAccessible":false,"_disabledAccessible":false,"geojson_lng":5.235462864722823,"geojson_lat":51.94524791035007},"geometry":{"type":"Point","coordinates":[5.235462864722823,51.94524791035007]}}]}