{"type":"FeatureCollection","features":[{"type":"Feature","properties":{"highway":"bus_stop","public_transport":"platform","name":"Kortestraat","ref:IFOPT":"NL:Q:63390090","_quaycode":"NL:Q:63390090","_town":"Wijk en Aalburg","_status":"available","_mode":"bus","_direction":168,"_visuallyAccessible":true,"_disabledAccessible":true,"geojson_lng":5.127465882681926,"geojson_lat":51.75242031909554},"geometry":{"type":"Point","coordinates":[5.127465882681926,51.75242031909554]}},{"type":"Feature","properties":{"highway":"bus_stop","public_transport":"platform","name":"Anjelierstraat","ref:IFOPT":"NL:Q:63291320","_quaycode":"NL:Q:63291320","_town":"Wijk en Aalburg","_status":"available","_mode":"bus","_direction":348,"_visuallyAccessible":true,"_disabledAccessible":true,"geojson_lng":5.127625924799079,"geojson_lat":51.75985413814855},"geometry":{"type":"Point","coordinates":[5.127625924799079,51.75985413814855]}},{"type":"Feature","properties":{"highway":"bus_stop","public_transport":"platform","name":"Anjelierstraat","ref:IFOPT":"NL:Q:63291310","_quaycode":"NL:Q:63291310","_town":"Wijk en Aalburg","_status":"available","_mode":"bus","_direction":169,"_visuallyAccessible":true,"_disabledAccessible":true,"geojson_lng":5.127700256888672,"geojson_lat":51.759521729344},"geometry":{"type":"Point","coordinates":[5.127700256888672,51.759521729344]}},{"type":"Feature","properties":{"highway":"bus_stop","public_transport":"platform","name":"Kerkverreweide","ref:IFOPT":"NL:Q:63390070","_quaycode":"NL:Q:63390070","_town":"Wijk en Aalburg","_status":"available","_mode":"bus","_direction":78,"_visuallyAccessible":true,"_disabledAccessible":true,"geojson_lng":5.125741214944139,"geojson_lat":51.76265435379589},"geometry":{"type":"Point","coordinates":[5.125741214944139,51.76265435379589]}},{"type":"Feature","properties":{"highway":"bus_stop","public_transport":"platform","name":"Schmitzstraat","ref:IFOPT":"NL:Q:63490020","_quaycode":"NL:Q:63490020","_town":"Veen","_status":"available","_mode":"bus","_direction":87,"_visuallyAccessible":true,"_disabledAccessible":true,"geojson_lng":5.102475129946682,"geojson_lat":51.77683791827947},"geometry":{"type":"Point","coordinates":[5.102475129946682,51.77683791827947]}},{"type":"Feature","properties":{"highway":"bus_stop","public_transport":"platform","name":"Perzikstraat","ref:IFOPT":"NL:Q:63390050","_quaycode":"NL:Q:63390050","_town":"Wijk en Aalburg","_status":"available","_mode":"bus","_direction":168,"_visuallyAccessible":true,"_disabledAccessible":true,"geojson_lng":5.122015874076589,"geojson_lat":51.76309541493553},"geometry":{"type":"Point","coordinates":[5.122015874076589,51.76309541493553]}},{"type":"Feature","properties":{"highway":"bus_stop","public_transport":"platform","name":"Bergstraat","ref:IFOPT":"NL:Q:63391010","_quaycode":"NL:Q:63391010","_town":"Wijk en Aalburg","_status":"available","_mode":"bus","_direction":259,"_visuallyAccessible":true,"_disabledAccessible":true,"geojson_lng":5.123934045397608,"geojson_lat":51.759567268164595},"geometry":{"type":"Point","coordinates":[5.123934045397608,51.759567268164595]}},{"type":"Feature","properties":{"highway":"bus_stop","public_transport":"platform","name":"Robberdestraat","ref:IFOPT":"NL:Q:63291060","_quaycode":"NL:Q:63291060","_town":"Wijk en Aalburg","_status":"available","_mode":"bus","_direction":110,"_visuallyAccessible":false,"_disabledAccessible":true,"geojson_lng":5.109618357233795,"geojson_lat":51.76510711667006},"geometry":{"type":"Point","coordinates":[5.109618357233795,51.76510711667006]}},{"type":"Feature","properties":{"highway":"bus_stop","public_transport":"platform","name":"Kromme Nol","ref:IFOPT":"NL:Q:63290400","_quaycode":"NL:Q:63290400","_town":"Wijk en Aalburg","_status":"available","_mode":"bus","_direction":213,"_visuallyAccessible":false,"_disabledAccessible":false,"geojson_lng":5.113839583478887,"geojson_lat":51.74500980937682},"geometry":{"type":"Point","coordinates":[5.113839583478887,51.74500980937682]}},{"type":"Feature","properties":{"highway":"bus_stop","public_transport":"platform","name":"Oud Heusdensestraat","ref:IFOPT":"NL:Q:63290170","_quaycode":"NL:Q:63290170","_town":"Heusden-Vesting","_status":"available","_mode":"bus","_direction":334,"_visuallyAccessible":false,"_disabledAccessible":false,"geojson_lng":5.138166618041425,"geojson_lat":51.73168013602594},"geometry":{"type":"Point","coordinates":[5.138166618041425,51.73168013602594]}},{"type":"Feature","properties":{"highway":"bus_stop","public_transport":"platform","name":"Burchtplein","ref:IFOPT":"NL:Q:63290200","_quaycode":"NL:Q:63290200","_town":"Heusden","_status":"available","_mode":"bus","_direction":124,"_visuallyAccessible":false,"_disabledAccessible":false,"geojson_lng":5.135043248433818,"geojson_lat":51.73367789441336},"geometry":{"type":"Point","coordinates":[5.135043248433818,51.73367789441336]}},{"type":"Feature","properties":{"highway":"bus_stop","public_transport":"platform","name":"Polstraat","ref:IFOPT":"NL:Q:63390030","_quaycode":"NL:Q:63390030","_town":"Wijk en Aalburg","_status":"available","_mode":"bus","_direction":72,"_visuallyAccessible":false,"_disabledAccessible":true,"geojson_lng":5.1224838840631675,"geojson_lat":51.74997330389271},"geometry":{"type":"Point","coordinates":[5.1224838840631675,51.74997330389271]}},{"type":"Feature","properties":{"highway":"bus_stop","public_transport":"platform","name":"Robberdestraat","ref:IFOPT":"NL:Q:63291070","_quaycode":"NL:Q:63291070","_town":"Wijk en Aalburg","_status":"available","_mode":"bus","_direction":290,"_visuallyAccessible":false,"_disabledAccessible":false,"geojson_lng":5.109589053750704,"geojson_lat":51.76516097812941},"geometry":{"type":"Point","coordinates":[5.109589053750704,51.76516097812941]}},{"type":"Feature","properties":{"highway":"bus_stop","public_transport":"platform","name":"Vestingstraat","ref:IFOPT":"NL:Q:63290230","_quaycode":"NL:Q:63290230","_town":"Oudheusden","_status":"available","_mode":"bus","_direction":97,"_visuallyAccessible":false,"_disabledAccessible":false,"geojson_lng":5.134700056694144,"geojson_lat":51.727735762247136},"geometry":{"type":"Point","coordinates":[5.134700056694144,51.727735762247136]}},{"type":"Feature","properties":{"highway":"bus_stop","public_transport":"platform","name":"Herptseweg","ref:IFOPT":"NL:Q:63290270","_quaycode":"NL:Q:63290270","_town":"Oudheusden","_status":"available","_mode":"bus","_direction":158,"_visuallyAccessible":false,"_disabledAccessible":false,"geojson_lng":5.138676862311465,"geojson_lat":51.72575780141174},"geometry":{"type":"Point","coordinates":[5.138676862311465,51.72575780141174]}},{"type":"Feature","properties":{"highway":"bus_stop","public_transport":"platform","name":"Herptseweg","ref:IFOPT":"NL:Q:63290260","_quaycode":"NL:Q:63290260","_town":"Oudheusden","_status":"available","_mode":"bus","_direction":351,"_visuallyAccessible":false,"_disabledAccessible":false,"geojson_lng":5.138807024254685,"geojson_lat":51.725776054228234},"geometry":{"type":"Point","coordinates":[5.138807024254685,51.725776054228234]}},{"type":"Feature","properties":{"highway":"bus_stop","public_transport":"platform","name":"Oud Heusdensestraat","ref:IFOPT":"NL:Q:63290160","_quaycode":"NL:Q:63290160","_town":"Heusden-Vesting","_status":"available","_mode":"bus","_direction":154,"_visuallyAccessible":false,"_disabledAccessible":false,"geojson_lng":5.138152885416409,"geojson_lat":51.73154527949766},"geometry":{"type":"Point","coordinates":[5.138152885416409,51.73154527949766]}},{"type":"Feature","properties":{"highway":"bus_stop","public_transport":"platform","name":"Station","ref:IFOPT":"NL:Q:91000143","_quaycode":"NL:Q:91000143","_town":"Zaltbommel","_status":"available","_mode":"bus","_direction":352,"_visuallyAccessible":false,"_disabledAccessible":false,"geojson_lng":5.262919000000005,"geojson_lat":51.80825400000001},"geometry":{"type":"Point","coordinates":[5.262919000000005,51.80825400000001]}},{"type":"Feature","properties":{"highway":"bus_stop","public_transport":"platform","name":"Kortestraat","ref:IFOPT":"NL:Q:63390080","_quaycode":"NL:Q:63390080","_town":"Wijk en Aalburg","_status":"available","_mode":"bus","_direction":343,"_visuallyAccessible":true,"_disabledAccessible":false,"geojson_lng":5.1271451588443515,"geojson_lat":51.7527881358658},"geometry":{"type":"Point","coordinates":[5.1271451588443515,51.7527881358658]}},{"type":"Feature","properties":{"highway":"bus_stop","public_transport":"platform","name":"Achterweg","ref:IFOPT":"NL:Q:63290250","_quaycode":"NL:Q:63290250","_town":"Herpt","_status":"available","_mode":"bus","_direction":107,"_visuallyAccessible":false,"_disabledAccessible":false,"geojson_lng":5.152687553061034,"geojson_lat":51.72570576492963},"geometry":{"type":"Point","coordinates":[5.152687553061034,51.72570576492963]}},{"type":"Feature","properties":{"highway":"bus_stop","public_transport":"platform","name":"Beeckendael","ref:IFOPT":"NL:Q:63109620","_quaycode":"NL:Q:63109620","_town":"'s-Hertogenbosch","_status":"available","_mode":"bus","_direction":81,"_visuallyAccessible":false,"_disabledAccessible":false,"geojson_lng":5.2440300634645975,"geojson_lat":51.73027517920284},"geometry":{"type":"Point","coordinates":[5.2440300634645975,51.73027517920284]}},{"type":"Feature","properties":{"highway":"bus_stop","public_transport":"platform","name":"Demer","ref:IFOPT":"NL:Q:63290190","_quaycode":"NL:Q:63290190","_town":"Heusden-Vesting","_status":"available","_mode":"bus","_direction":225,"_visuallyAccessible":false,"_disabledAccessible":false,"geojson_lng":5.141081969867797,"geojson_lat":51.73327725396117},"geometry":{"type":"Point","coordinates":[5.141081969867797,51.73327725396117]}},{"type":"Feature","properties":{"highway":"bus_stop","public_transport":"platform","name":"Kerk","ref:IFOPT":"NL:Q:63101010","_quaycode":"NL:Q:63101010","_town":"Bokhoven","_status":"available","_mode":"bus","_direction":68,"_visuallyAccessible":false,"_disabledAccessible":false,"geojson_lng":5.234077716492148,"geojson_lat":51.73692306406675},"geometry":{"type":"Point","coordinates":[5.234077716492148,51.73692306406675]}},{"type":"Feature","properties":{"highway":"bus_stop","public_transport":"platform","name":"Grotestraat","ref:IFOPT":"NL:Q:63290310","_quaycode":"NL:Q:63290310","_town":"Heesbeen","_status":"available","_mode":"bus","_direction":82,"_visuallyAccessible":false,"_disabledAccessible":false,"geojson_lng":5.119546602611879,"geojson_lat":51.730003204964326},"geometry":{"type":"Point","coordinates":[5.119546602611879,51.730003204964326]}},{"type":"Feature","properties":{"highway":"bus_stop","public_transport":"platform","name":"Grotestraat","ref:IFOPT":"NL:Q:63290300","_quaycode":"NL:Q:63290300","_town":"Vlijmen","_status":"available","_mode":"bus","_direction":262,"_visuallyAccessible":false,"_disabledAccessible":false,"geojson_lng":5.119589494843948,"geojson_lat":51.730093187848524},"geometry":{"type":"Point","coordinates":[5.119589494843948,51.730093187848524]}},{"type":"Feature","properties":{"highway":"bus_stop","public_transport":"platform","name":"Achterweg","ref:IFOPT":"NL:Q:63290240","_quaycode":"NL:Q:63290240","_town":"Herpt","_status":"available","_mode":"bus","_direction":283,"_visuallyAccessible":false,"_disabledAccessible":false,"geojson_lng":5.15271608040914,"geojson_lat":51.7257867184131},"geometry":{"type":"Point","coordinates":[5.15271608040914,51.7257867184131]}},{"type":"Feature","properties":{"highway":"bus_stop","public_transport":"platform","name":"Groenstraat","ref:IFOPT":"NL:Q:63291380","_quaycode":"NL:Q:63291380","_town":"Herpt","_status":"available","_mode":"bus","_direction":110,"_visuallyAccessible":false,"_disabledAccessible":false,"geojson_lng":5.156331814237348,"geojson_lat":51.731977973382804},"geometry":{"type":"Point","coordinates":[5.156331814237348,51.731977973382804]}},{"type":"Feature","properties":{"highway":"bus_stop","public_transport":"platform","name":"Haverleij","ref:IFOPT":"NL:Q:63106480","_quaycode":"NL:Q:63106480","_town":"'s-Hertogenbosch","_status":"available","_mode":"bus","_direction":138,"_visuallyAccessible":true,"_disabledAccessible":true,"geojson_lng":5.253142867831272,"geojson_lat":51.727562440605496},"geometry":{"type":"Point","coordinates":[5.253142867831272,51.727562440605496]}},{"type":"Feature","properties":{"highway":"bus_stop","public_transport":"platform","name":"Polstraat","ref:IFOPT":"NL:Q:63390020","_quaycode":"NL:Q:63390020","_town":"Wijk en Aalburg","_status":"available","_mode":"bus","_direction":252,"_visuallyAccessible":false,"_disabledAccessible":true,"geojson_lng":5.121948714488617,"geojson_lat":51.74986423305951},"geometry":{"type":"Point","coordinates":[5.121948714488617,51.74986423305951]}},{"type":"Feature","properties":{"highway":"bus_stop","public_transport":"platform","name":"Lelienhuyze","ref:IFOPT":"NL:Q:63109630","_quaycode":"NL:Q:63109630","_town":"'s-Hertogenbosch","_status":"available","_mode":"bus","_direction":119,"_visuallyAccessible":false,"_disabledAccessible":false,"geojson_lng":5.248780949250602,"geojson_lat":51.72926518412828},"geometry":{"type":"Point","coordinates":[5.248780949250602,51.72926518412828]}},{"type":"Feature","properties":{"highway":"bus_stop","public_transport":"platform","name":"Groenstraat","ref:IFOPT":"NL:Q:63291480","_quaycode":"NL:Q:63291480","_town":"Herpt","_status":"available","_mode":"bus","_direction":295,"_visuallyAccessible":false,"_disabledAccessible":false,"geojson_lng":5.156404053680043,"geojson_lat":51.73200508103955},"geometry":{"type":"Point","coordinates":[5.156404053680043,51.73200508103955]}},{"type":"Feature","properties":{"highway":"bus_stop","public_transport":"platform","name":"Bakkersdam","ref:IFOPT":"NL:Q:63291580","_quaycode":"NL:Q:63291580","_town":"Heusden-Vesting","_status":"available","_mode":"bus","_direction":63,"_visuallyAccessible":false,"_disabledAccessible":false,"geojson_lng":5.150732505051937,"geojson_lat":51.73422292576938},"geometry":{"type":"Point","coordinates":[5.150732505051937,51.73422292576938]}},{"type":"Feature","properties":{"highway":"bus_stop","public_transport":"platform","name":"Bakkersdam","ref:IFOPT":"NL:Q:63290130","_quaycode":"NL:Q:63290130","_town":"Heusden-Vesting","_status":"available","_mode":"bus","_direction":243,"_visuallyAccessible":false,"_disabledAccessible":false,"geojson_lng":5.150645366077047,"geojson_lat":51.73427668093072},"geometry":{"type":"Point","coordinates":[5.150645366077047,51.73427668093072]}},{"type":"Feature","properties":{"highway":"bus_stop","public_transport":"platform","name":"Demer","ref:IFOPT":"NL:Q:63290180","_quaycode":"NL:Q:63290180","_town":"Heusden-Vesting","_status":"available","_mode":"bus","_direction":45,"_visuallyAccessible":false,"_disabledAccessible":false,"geojson_lng":5.141183349525588,"geojson_lat":51.73326847821171},"geometry":{"type":"Point","coordinates":[5.141183349525588,51.73326847821171]}},{"type":"Feature","properties":{"highway":"bus_stop","public_transport":"platform","name":"Treurenburg","ref:IFOPT":"NL:Q:63010080","_quaycode":"NL:Q:63010080","_town":"'s-Hertogenbosch","_status":"available","_mode":"bus","_direction":122,"_visuallyAccessible":false,"_disabledAccessible":false,"geojson_lng":5.274260390191014,"geojson_lat":51.73344514638597},"geometry":{"type":"Point","coordinates":[5.274260390191014,51.73344514638597]}},{"type":"Feature","properties":{"highway":"bus_stop","public_transport":"platform","name":"Lambertusstraat","ref:IFOPT":"NL:Q:63190200","_quaycode":"NL:Q:63190200","_town":"Hedikhuizen","_status":"available","_mode":"bus","_direction":300,"_visuallyAccessible":false,"_disabledAccessible":false,"geojson_lng":5.170961840121704,"geojson_lat":51.72994750083511},"geometry":{"type":"Point","coordinates":[5.170961840121704,51.72994750083511]}},{"type":"Feature","properties":{"highway":"bus_stop","public_transport":"platform","name":"Treurenburg","ref:IFOPT":"NL:Q:63010070","_quaycode":"NL:Q:63010070","_town":"'s-Hertogenbosch","_status":"available","_mode":"bus","_direction":291,"_visuallyAccessible":false,"_disabledAccessible":false,"geojson_lng":5.273563625213486,"geojson_lat":51.7342084928454},"geometry":{"type":"Point","coordinates":[5.273563625213486,51.7342084928454]}},{"type":"Feature","properties":{"highway":"bus_stop","public_transport":"platform","name":"Vestingstraat","ref:IFOPT":"NL:Q:63290120","_quaycode":"NL:Q:63290120","_town":"Oudheusden","_status":"available","_mode":"bus","_direction":276,"_visuallyAccessible":false,"_disabledAccessible":false,"geojson_lng":5.134250758076431,"geojson_lat":51.727842655761854},"geometry":{"type":"Point","coordinates":[5.134250758076431,51.727842655761854]}},{"type":"Feature","properties":{"highway":"bus_stop","public_transport":"platform","name":"Lambertusstraat","ref:IFOPT":"NL:Q:63190050","_quaycode":"NL:Q:63190050","_town":"Hedikhuizen","_status":"available","_mode":"bus","_direction":136,"_visuallyAccessible":false,"_disabledAccessible":false,"geojson_lng":5.172601883890535,"geojson_lat":51.72902469977431},"geometry":{"type":"Point","coordinates":[5.172601883890535,51.72902469977431]}},{"type":"Feature","properties":{"highway":"bus_stop","public_transport":"platform","name":"Oude Bosscheweg","ref:IFOPT":"NL:Q:62570300","_quaycode":"NL:Q:62570300","_town":"Zaltbommel","_status":"available","_mode":"bus","_direction":140,"_visuallyAccessible":false,"_disabledAccessible":false,"geojson_lng":5.256175092748891,"geojson_lat":51.80504613378208},"geometry":{"type":"Point","coordinates":[5.256175092748891,51.80504613378208]}},{"type":"Feature","properties":{"highway":"bus_stop","public_transport":"platform","name":"Prinses Beatrixstraat","ref:IFOPT":"NL:Q:63010210","_quaycode":"NL:Q:63010210","_town":"Hedel","_status":"available","_mode":"bus","_direction":323,"_visuallyAccessible":false,"_disabledAccessible":false,"geojson_lng":5.268762902824346,"geojson_lat":51.750549338549924},"geometry":{"type":"Point","coordinates":[5.268762902824346,51.750549338549924]}},{"type":"Feature","properties":{"highway":"bus_stop","public_transport":"platform","name":"Vleugeldijk","ref:IFOPT":"NL:Q:62430100","_quaycode":"NL:Q:62430100","_town":"Poederoijen","_status":"available","_mode":"bus","_direction":40,"_visuallyAccessible":false,"_disabledAccessible":false,"geojson_lng":5.103668247059189,"geojson_lat":51.79220206705167},"geometry":{"type":"Point","coordinates":[5.103668247059189,51.79220206705167]}},{"type":"Feature","properties":{"highway":"bus_stop","public_transport":"platform","name":"McDonalds","ref:IFOPT":"NL:Q:61451010","_quaycode":"NL:Q:61451010","_town":"Waardenburg","_status":"available","_mode":"bus","_direction":314,"_visuallyAccessible":false,"_disabledAccessible":false,"geojson_lng":5.250429347742827,"geojson_lat":51.830314902403046},"geometry":{"type":"Point","coordinates":[5.250429347742827,51.830314902403046]}},{"type":"Feature","properties":{"highway":"bus_stop","public_transport":"platform","name":"Station","ref:IFOPT":"NL:Q:62570250","_quaycode":"NL:Q:62570250","_town":"Zaltbommel","_status":"available","_mode":"bus","_direction":355,"_visuallyAccessible":false,"_disabledAccessible":true,"geojson_lng":5.2629675506460005,"geojson_lat":51.80779497235023},"geometry":{"type":"Point","coordinates":[5.2629675506460005,51.80779497235023]}},{"type":"Feature","properties":{"highway":"bus_stop","public_transport":"platform","name":"Hogeweg","ref:IFOPT":"NL:Q:62470010","_quaycode":"NL:Q:62470010","_town":"Bruchem","_status":"available","_mode":"bus","_direction":131,"_visuallyAccessible":false,"_disabledAccessible":false,"geojson_lng":5.249277860399294,"geojson_lat":51.794153288114025},"geometry":{"type":"Point","coordinates":[5.249277860399294,51.794153288114025]}},{"type":"Feature","properties":{"highway":"bus_stop","public_transport":"platform","name":"Uithovensestraat","ref:IFOPT":"NL:Q:63010330","_quaycode":"NL:Q:63010330","_town":"Hedel","_status":"available","_mode":"bus","_direction":300,"_visuallyAccessible":false,"_disabledAccessible":false,"geojson_lng":5.258331658857389,"geojson_lat":51.74541034690383},"geometry":{"type":"Point","coordinates":[5.258331658857389,51.74541034690383]}},{"type":"Feature","properties":{"highway":"bus_stop","public_transport":"platform","name":"Leutsestraat","ref:IFOPT":"NL:Q:62570170","_quaycode":"NL:Q:62570170","_town":"Zaltbommel","_status":"available","_mode":"bus","_direction":264,"_visuallyAccessible":false,"_disabledAccessible":false,"geojson_lng":5.227074841319474,"geojson_lat":51.801181006471786},"geometry":{"type":"Point","coordinates":[5.227074841319474,51.801181006471786]}},{"type":"Feature","properties":{"highway":"bus_stop","public_transport":"platform","name":"De Rietschoof","ref:IFOPT":"NL:Q:62430230","_quaycode":"NL:Q:62430230","_town":"Aalst","_status":"available","_mode":"bus","_direction":298,"_visuallyAccessible":false,"_disabledAccessible":false,"geojson_lng":5.135040904434559,"geojson_lat":51.77561808682142},"geometry":{"type":"Point","coordinates":[5.135040904434559,51.77561808682142]}},{"type":"Feature","properties":{"highway":"bus_stop","public_transport":"platform","name":"Centrum","ref:IFOPT":"NL:Q:62770080","_quaycode":"NL:Q:62770080","_town":"Zuilichem","_status":"available","_mode":"bus","_direction":85,"_visuallyAccessible":true,"_disabledAccessible":true,"geojson_lng":5.1356332535808855,"geojson_lat":51.80713280059302},"geometry":{"type":"Point","coordinates":[5.1356332535808855,51.80713280059302]}},{"type":"Feature","properties":{"highway":"bus_stop","public_transport":"platform","name":"Cambium College","ref:IFOPT":"NL:Q:62570430","_quaycode":"NL:Q:62570430","_town":"Zaltbommel","_status":"available","_mode":"bus","_direction":330,"_visuallyAccessible":true,"_disabledAccessible":true,"geojson_lng":5.232460120944118,"geojson_lat":51.80348026762994},"geometry":{"type":"Point","coordinates":[5.232460120944118,51.80348026762994]}},{"type":"Feature","properties":{"highway":"bus_stop","public_transport":"platform","name":"Wichard van Pontlaan","ref:IFOPT":"NL:Q:62570380","_quaycode":"NL:Q:62570380","_town":"Zaltbommel","_status":"available","_mode":"bus","_direction":60,"_visuallyAccessible":null,"_disabledAccessible":null,"geojson_lng":5.247590107746573,"geojson_lat":51.80084765166903},"geometry":{"type":"Point","coordinates":[5.247590107746573,51.80084765166903]}},{"type":"Feature","properties":{"highway":"bus_stop","public_transport":"platform","name":"Gemeentekantoor","ref:IFOPT":"NL:Q:62570930","_quaycode":"NL:Q:62570930","_town":"Zaltbommel","_status":"available","_mode":"bus","_direction":183,"_visuallyAccessible":false,"_disabledAccessible":false,"geojson_lng":5.2560610522601,"geojson_lat":51.799383318593996},"geometry":{"type":"Point","coordinates":[5.2560610522601,51.799383318593996]}},{"type":"Feature","properties":{"highway":"bus_stop","public_transport":"platform","name":"Goudenregenlaan","ref:IFOPT":"NL:Q:62430270","_quaycode":"NL:Q:62430270","_town":"Aalst","_status":"available","_mode":"bus","_direction":297,"_visuallyAccessible":false,"_disabledAccessible":false,"geojson_lng":5.13093479633694,"geojson_lat":51.77915063925777},"geometry":{"type":"Point","coordinates":[5.13093479633694,51.77915063925777]}},{"type":"Feature","properties":{"highway":"bus_stop","public_transport":"platform","name":"Nieuwstraat","ref:IFOPT":"NL:Q:62770030","_quaycode":"NL:Q:62770030","_town":"Zuilichem","_status":"available","_mode":"bus","_direction":0,"_visuallyAccessible":false,"_disabledAccessible":false,"geojson_lng":5.1395361844016705,"geojson_lat":51.809316295314325},"geometry":{"type":"Point","coordinates":[5.1395361844016705,51.809316295314325]}},{"type":"Feature","properties":{"highway":"bus_stop","public_transport":"platform","name":"Marten van Rossemsingel","ref:IFOPT":"NL:Q:62570241","_quaycode":"NL:Q:62570241","_town":"Zaltbommel","_status":"available","_mode":"bus","_direction":222,"_visuallyAccessible":false,"_disabledAccessible":false,"geojson_lng":5.251810827691586,"geojson_lat":51.809903902607466},"geometry":{"type":"Point","coordinates":[5.251810827691586,51.809903902607466]}},{"type":"Feature","properties":{"highway":"bus_stop","public_transport":"platform","name":"Delwijnsestraat","ref:IFOPT":"NL:Q:62330050","_quaycode":"NL:Q:62330050","_town":"Delwijnen","_status":"available","_mode":"bus","_direction":223,"_visuallyAccessible":false,"_disabledAccessible":false,"geojson_lng":5.187906919579982,"geojson_lat":51.77049749774211},"geometry":{"type":"Point","coordinates":[5.187906919579982,51.77049749774211]}},{"type":"Feature","properties":{"highway":"bus_stop","public_transport":"platform","name":"Maasdijk 15","ref:IFOPT":"NL:Q:62330150","_quaycode":"NL:Q:62330150","_town":"Wellseind","_status":"available","_mode":"bus","_direction":329,"_visuallyAccessible":false,"_disabledAccessible":false,"geojson_lng":5.1530638869641665,"geojson_lat":51.76203793164548},"geometry":{"type":"Point","coordinates":[5.1530638869641665,51.76203793164548]}},{"type":"Feature","properties":{"highway":"bus_stop","public_transport":"platform","name":"Zonnepad","ref:IFOPT":"NL:Q:62430241","_quaycode":"NL:Q:62430241","_town":"Aalst","_status":"available","_mode":"bus","_direction":90,"_visuallyAccessible":false,"_disabledAccessible":false,"geojson_lng":5.1294136169265485,"geojson_lat":51.78162811813017},"geometry":{"type":"Point","coordinates":[5.1294136169265485,51.78162811813017]}},{"type":"Feature","properties":{"highway":"bus_stop","public_transport":"platform","name":"Oude Bosscheweg","ref:IFOPT":"NL:Q:62570310","_quaycode":"NL:Q:62570310","_town":"Zaltbommel","_status":"available","_mode":"bus","_direction":321,"_visuallyAccessible":false,"_disabledAccessible":false,"geojson_lng":5.2563055049802765,"geojson_lat":51.805073244353274},"geometry":{"type":"Point","coordinates":[5.2563055049802765,51.805073244353274]}},{"type":"Feature","properties":{"highway":"bus_stop","public_transport":"platform","name":"Maasdijk","ref:IFOPT":"NL:Q:62430010","_quaycode":"NL:Q:62430010","_town":"Aalst","_status":"available","_mode":"bus","_direction":342,"_visuallyAccessible":false,"_disabledAccessible":false,"geojson_lng":5.121675260659426,"geojson_lat":51.78407369712404},"geometry":{"type":"Point","coordinates":[5.121675260659426,51.78407369712404]}},{"type":"Feature","properties":{"highway":"bus_stop","public_transport":"platform","name":"Ammerzodenseweg","ref:IFOPT":"NL:Q:62230100","_quaycode":"NL:Q:62230100","_town":"Ammerzoden","_status":"available","_mode":"bus","_direction":90,"_visuallyAccessible":false,"_disabledAccessible":false,"geojson_lng":5.233710422629809,"geojson_lat":51.74703459959047},"geometry":{"type":"Point","coordinates":[5.233710422629809,51.74703459959047]}},{"type":"Feature","properties":{"highway":"bus_stop","public_transport":"platform","name":"Hoogaarsstraat","ref:IFOPT":"NL:Q:62570460","_quaycode":"NL:Q:62570460","_town":"Zaltbommel","_status":"available","_mode":"bus","_direction":284,"_visuallyAccessible":false,"_disabledAccessible":false,"geojson_lng":5.245843071388319,"geojson_lat":51.80783853154412},"geometry":{"type":"Point","coordinates":[5.245843071388319,51.80783853154412]}},{"type":"Feature","properties":{"highway":"bus_stop","public_transport":"platform","name":"Hotel Zaltbommel","ref:IFOPT":"NL:Q:62570940","_quaycode":"NL:Q:62570940","_town":"Zaltbommel","_status":"available","_mode":"bus","_direction":50,"_visuallyAccessible":false,"_disabledAccessible":false,"geojson_lng":5.254909447446967,"geojson_lat":51.79659562369183},"geometry":{"type":"Point","coordinates":[5.254909447446967,51.79659562369183]}},{"type":"Feature","properties":{"highway":"bus_stop","public_transport":"platform","name":"Bommelsekade","ref:IFOPT":"NL:Q:62571090","_quaycode":"NL:Q:62571090","_town":"Zaltbommel","_status":"available","_mode":"bus","_direction":331,"_visuallyAccessible":true,"_disabledAccessible":true,"geojson_lng":5.2754322775294336,"geojson_lat":51.798162949676666},"geometry":{"type":"Point","coordinates":[5.2754322775294336,51.798162949676666]}},{"type":"Feature","properties":{"highway":"bus_stop","public_transport":"platform","name":"De Rietschoof","ref:IFOPT":"NL:Q:62430220","_quaycode":"NL:Q:62430220","_town":"Aalst","_status":"available","_mode":"bus","_direction":126,"_visuallyAccessible":false,"_disabledAccessible":false,"geojson_lng":5.135157622351954,"geojson_lat":51.77547452241806},"geometry":{"type":"Point","coordinates":[5.135157622351954,51.77547452241806]}},{"type":"Feature","properties":{"highway":"bus_stop","public_transport":"platform","name":"Kweldijk","ref:IFOPT":"NL:Q:62770150","_quaycode":"NL:Q:62770150","_town":"Zaltbommel","_status":"available","_mode":"bus","_direction":104,"_visuallyAccessible":false,"_disabledAccessible":false,"geojson_lng":5.135122169411567,"geojson_lat":51.8051812178564},"geometry":{"type":"Point","coordinates":[5.135122169411567,51.8051812178564]}},{"type":"Feature","properties":{"highway":"bus_stop","public_transport":"platform","name":"Maas Waalweg","ref:IFOPT":"NL:Q:62430160","_quaycode":"NL:Q:62430160","_town":"Nederhemert-Noord","_status":"available","_mode":"bus","_direction":110,"_visuallyAccessible":false,"_disabledAccessible":false,"geojson_lng":5.143290548342177,"geojson_lat":51.771995203899095},"geometry":{"type":"Point","coordinates":[5.143290548342177,51.771995203899095]}},{"type":"Feature","properties":{"highway":"bus_stop","public_transport":"platform","name":"Ridderhof","ref:IFOPT":"NL:Q:62670140","_quaycode":"NL:Q:62670140","_town":"Gameren","_status":"available","_mode":"bus","_direction":135,"_visuallyAccessible":false,"_disabledAccessible":true,"geojson_lng":5.201878417888094,"geojson_lat":51.80101810465946},"geometry":{"type":"Point","coordinates":[5.201878417888094,51.80101810465946]}},{"type":"Feature","properties":{"highway":"bus_stop","public_transport":"platform","name":"Nieuwstraat","ref:IFOPT":"NL:Q:62770130","_quaycode":"NL:Q:62770130","_town":"Zuilichem","_status":"available","_mode":"bus","_direction":180,"_visuallyAccessible":false,"_disabledAccessible":false,"geojson_lng":5.139434633425794,"geojson_lat":51.809325069452676},"geometry":{"type":"Point","coordinates":[5.139434633425794,51.809325069452676]}},{"type":"Feature","properties":{"highway":"bus_stop","public_transport":"platform","name":"Molenveldweg","ref:IFOPT":"NL:Q:62470150","_quaycode":"NL:Q:62470150","_town":"Kerkwijk","_status":"available","_mode":"bus","_direction":266,"_visuallyAccessible":false,"_disabledAccessible":false,"geojson_lng":5.214922801408313,"geojson_lat":51.77535806578015},"geometry":{"type":"Point","coordinates":[5.214922801408313,51.77535806578015]}},{"type":"Feature","properties":{"highway":"bus_stop","public_transport":"platform","name":"Vleugeldijk","ref:IFOPT":"NL:Q:62430110","_quaycode":"NL:Q:62430110","_town":"Poederoijen","_status":"available","_mode":"bus","_direction":228,"_visuallyAccessible":false,"_disabledAccessible":false,"geojson_lng":5.1033938088298605,"geojson_lat":51.79204860020082},"geometry":{"type":"Point","coordinates":[5.1033938088298605,51.79204860020082]}},{"type":"Feature","properties":{"highway":"bus_stop","public_transport":"platform","name":"Kapelstraat","ref:IFOPT":"NL:Q:62330070","_quaycode":"NL:Q:62330070","_town":"Nederhemert","_status":"available","_mode":"bus","_direction":264,"_visuallyAccessible":false,"_disabledAccessible":false,"geojson_lng":5.1725145250609295,"geojson_lat":51.76265039787036},"geometry":{"type":"Point","coordinates":[5.1725145250609295,51.76265039787036]}},{"type":"Feature","properties":{"highway":"bus_stop","public_transport":"platform","name":"Aalderwijksestraat","ref:IFOPT":"NL:Q:62470180","_quaycode":"NL:Q:62470180","_town":"Kerkwijk","_status":"available","_mode":"bus","_direction":73,"_visuallyAccessible":false,"_disabledAccessible":false,"geojson_lng":5.220862651342569,"geojson_lat":51.77558235605207},"geometry":{"type":"Point","coordinates":[5.220862651342569,51.77558235605207]}},{"type":"Feature","properties":{"highway":"bus_stop","public_transport":"platform","name":" De Kraaij","ref:IFOPT":"NL:Q:62431180","_quaycode":"NL:Q:62431180","_town":"Zaltbommel","_status":"available","_mode":"bus","_direction":120,"_visuallyAccessible":false,"_disabledAccessible":false,"geojson_lng":5.1148788750995875,"geojson_lat":51.7984036698597},"geometry":{"type":"Point","coordinates":[5.1148788750995875,51.7984036698597]}},{"type":"Feature","properties":{"highway":"bus_stop","public_transport":"platform","name":"PGEM Station","ref:IFOPT":"NL:Q:61350170","_quaycode":"NL:Q:61350170","_town":"Neerijnen","_status":"available","_mode":"bus","_direction":289,"_visuallyAccessible":false,"_disabledAccessible":false,"geojson_lng":5.276125976784521,"geojson_lat":51.83439574990545},"geometry":{"type":"Point","coordinates":[5.276125976784521,51.83439574990545]}},{"type":"Feature","properties":{"highway":"bus_stop","public_transport":"platform","name":"Station","ref:IFOPT":"NL:Q:62570252","_quaycode":"NL:Q:62570252","_town":"Zaltbommel","_status":"available","_mode":"bus","_direction":355,"_visuallyAccessible":false,"_disabledAccessible":false,"geojson_lng":5.262931043119987,"geojson_lat":51.808036116152664},"geometry":{"type":"Point","coordinates":[5.262931043119987,51.808036116152664]}},{"type":"Feature","properties":{"highway":"bus_stop","public_transport":"platform","name":"Irenestraat","ref:IFOPT":"NL:Q:61650170","_quaycode":"NL:Q:61650170","_town":"Hellouw","_status":"available","_mode":"bus","_direction":260,"_visuallyAccessible":false,"_disabledAccessible":true,"geojson_lng":5.174343342261226,"geojson_lat":51.82950956945942},"geometry":{"type":"Point","coordinates":[5.174343342261226,51.82950956945942]}},{"type":"Feature","properties":{"highway":"bus_stop","public_transport":"platform","name":"Pr. Willem Alexanderstraat","ref:IFOPT":"NL:Q:62570530","_quaycode":"NL:Q:62570530","_town":"Gameren","_status":"available","_mode":"bus","_direction":283,"_visuallyAccessible":false,"_disabledAccessible":false,"geojson_lng":5.207769487309465,"geojson_lat":51.799759890235144},"geometry":{"type":"Point","coordinates":[5.207769487309465,51.799759890235144]}},{"type":"Feature","properties":{"highway":"bus_stop","public_transport":"platform","name":"Wielkamp","ref:IFOPT":"NL:Q:62571270","_quaycode":"NL:Q:62571270","_town":"Zaltbommel","_status":"available","_mode":"bus","_direction":340,"_visuallyAccessible":false,"_disabledAccessible":false,"geojson_lng":5.242817385664384,"geojson_lat":51.801785662724654},"geometry":{"type":"Point","coordinates":[5.242817385664384,51.801785662724654]}},{"type":"Feature","properties":{"highway":"bus_stop","public_transport":"platform","name":"Ammerstraat","ref:IFOPT":"NL:Q:62230130","_quaycode":"NL:Q:62230130","_town":"Ammerzoden","_status":"available","_mode":"bus","_direction":243,"_visuallyAccessible":false,"_disabledAccessible":true,"geojson_lng":5.222598050376246,"geojson_lat":51.74866442343735},"geometry":{"type":"Point","coordinates":[5.222598050376246,51.74866442343735]}},{"type":"Feature","properties":{"highway":"bus_stop","public_transport":"platform","name":"Pr. Willem Alexanderstraat","ref:IFOPT":"NL:Q:62570520","_quaycode":"NL:Q:62570520","_town":"Gameren","_status":"available","_mode":"bus","_direction":99,"_visuallyAccessible":false,"_disabledAccessible":false,"geojson_lng":5.2080163323879605,"geojson_lat":51.799661394754004},"geometry":{"type":"Point","coordinates":[5.2080163323879605,51.799661394754004]}},{"type":"Feature","properties":{"highway":"bus_stop","public_transport":"platform","name":"Klemit (Wellseind)","ref:IFOPT":"NL:Q:62330040","_quaycode":"NL:Q:62330040","_town":"Nederhemert","_status":"available","_mode":"bus","_direction":301,"_visuallyAccessible":false,"_disabledAccessible":false,"geojson_lng":5.180116933801728,"geojson_lat":51.763194380248606},"geometry":{"type":"Point","coordinates":[5.180116933801728,51.763194380248606]}},{"type":"Feature","properties":{"highway":"bus_stop","public_transport":"platform","name":"Kerk","ref:IFOPT":"NL:Q:62670160","_quaycode":"NL:Q:62670160","_town":"Nieuwaal","_status":"available","_mode":"bus","_direction":166,"_visuallyAccessible":false,"_disabledAccessible":true,"geojson_lng":5.178926481112188,"geojson_lat":51.80774790204829},"geometry":{"type":"Point","coordinates":[5.178926481112188,51.80774790204829]}},{"type":"Feature","properties":{"highway":"bus_stop","public_transport":"platform","name":"Capreton","ref:IFOPT":"NL:Q:62430050","_quaycode":"NL:Q:62430050","_town":"Aalst","_status":"available","_mode":"bus","_direction":162,"_visuallyAccessible":false,"_disabledAccessible":false,"geojson_lng":5.11944077098306,"geojson_lat":51.794297463647915},"geometry":{"type":"Point","coordinates":[5.11944077098306,51.794297463647915]}},{"type":"Feature","properties":{"highway":"bus_stop","public_transport":"platform","name":"Waalbandijk","ref:IFOPT":"NL:Q:61450170","_quaycode":"NL:Q:61450170","_town":"Tuil","_status":"available","_mode":"bus","_direction":257,"_visuallyAccessible":false,"_disabledAccessible":false,"geojson_lng":5.239114853871903,"geojson_lat":51.821177990361264},"geometry":{"type":"Point","coordinates":[5.239114853871903,51.821177990361264]}},{"type":"Feature","properties":{"highway":"bus_stop","public_transport":"platform","name":"Middelkampseweg","ref:IFOPT":"NL:Q:62670060","_quaycode":"NL:Q:62670060","_town":"Gameren","_status":"available","_mode":"bus","_direction":259,"_visuallyAccessible":false,"_disabledAccessible":false,"geojson_lng":5.207712715674067,"geojson_lat":51.79709439588835},"geometry":{"type":"Point","coordinates":[5.207712715674067,51.79709439588835]}},{"type":"Feature","properties":{"highway":"bus_stop","public_transport":"platform","name":"Fiep Westendorplaan","ref:IFOPT":"NL:Q:62570330","_quaycode":"NL:Q:62570330","_town":"Zaltbommel","_status":"available","_mode":"bus","_direction":58,"_visuallyAccessible":null,"_disabledAccessible":null,"geojson_lng":5.251123995913583,"geojson_lat":51.80202029064705},"geometry":{"type":"Point","coordinates":[5.251123995913583,51.80202029064705]}},{"type":"Feature","properties":{"highway":"bus_stop","public_transport":"platform","name":"Wellsedam","ref:IFOPT":"NL:Q:62230140","_quaycode":"NL:Q:62230140","_town":"Ammerzoden","_status":"available","_mode":"bus","_direction":86,"_visuallyAccessible":false,"_disabledAccessible":true,"geojson_lng":5.216099127007745,"geojson_lat":51.74787313020617},"geometry":{"type":"Point","coordinates":[5.216099127007745,51.74787313020617]}},{"type":"Feature","properties":{"highway":"bus_stop","public_transport":"platform","name":"Hofstraat","ref:IFOPT":"NL:Q:62330120","_quaycode":"NL:Q:62330120","_town":"Nederhemert-Noord","_status":"available","_mode":"bus","_direction":77,"_visuallyAccessible":false,"_disabledAccessible":false,"geojson_lng":5.1676350556439274,"geojson_lat":51.765212064282544},"geometry":{"type":"Point","coordinates":[5.1676350556439274,51.765212064282544]}},{"type":"Feature","properties":{"highway":"bus_stop","public_transport":"platform","name":"Hertog Karelweg/Kerkewaard","ref:IFOPT":"NL:Q:61550310","_quaycode":"NL:Q:61550310","_town":"Haaften","_status":"available","_mode":"bus","_direction":257,"_visuallyAccessible":false,"_disabledAccessible":false,"geojson_lng":5.221671260027648,"geojson_lat":51.819833412798644},"geometry":{"type":"Point","coordinates":[5.221671260027648,51.819833412798644]}},{"type":"Feature","properties":{"highway":"bus_stop","public_transport":"platform","name":"Schokkerstraat","ref:IFOPT":"NL:Q:62230190","_quaycode":"NL:Q:62230190","_town":"Ammerzoden","_status":"available","_mode":"bus","_direction":32,"_visuallyAccessible":false,"_disabledAccessible":false,"geojson_lng":5.216280027951026,"geojson_lat":51.749796923745194},"geometry":{"type":"Point","coordinates":[5.216280027951026,51.749796923745194]}},{"type":"Feature","properties":{"highway":"bus_stop","public_transport":"platform","name":"Zuid","ref:IFOPT":"NL:Q:62670190","_quaycode":"NL:Q:62670190","_town":"Nieuwaal","_status":"available","_mode":"bus","_direction":50,"_visuallyAccessible":false,"_disabledAccessible":false,"geojson_lng":5.178824369847251,"geojson_lat":51.803522504828614},"geometry":{"type":"Point","coordinates":[5.178824369847251,51.803522504828614]}},{"type":"Feature","properties":{"highway":"bus_stop","public_transport":"platform","name":"Delwijnsestraat","ref:IFOPT":"NL:Q:62330060","_quaycode":"NL:Q:62330060","_town":"Delwijnen","_status":"available","_mode":"bus","_direction":3,"_visuallyAccessible":false,"_disabledAccessible":false,"geojson_lng":5.187821381466816,"geojson_lat":51.77018275705281},"geometry":{"type":"Point","coordinates":[5.187821381466816,51.77018275705281]}},{"type":"Feature","properties":{"highway":"bus_stop","public_transport":"platform","name":"Dorpstraat","ref:IFOPT":"NL:Q:62231080","_quaycode":"NL:Q:62231080","_town":"Well","_status":"available","_mode":"bus","_direction":76,"_visuallyAccessible":false,"_disabledAccessible":false,"geojson_lng":5.204846241524337,"geojson_lat":51.7446383104761},"geometry":{"type":"Point","coordinates":[5.204846241524337,51.7446383104761]}},{"type":"Feature","properties":{"highway":"bus_stop","public_transport":"platform","name":"Marktplein","ref:IFOPT":"NL:Q:62871130","_quaycode":"NL:Q:62871130","_town":"Brakel","_status":"available","_mode":"bus","_direction":90,"_visuallyAccessible":true,"_disabledAccessible":true,"geojson_lng":5.097866972347169,"geojson_lat":51.81984530292089},"geometry":{"type":"Point","coordinates":[5.097866972347169,51.81984530292089]}},{"type":"Feature","properties":{"highway":"bus_stop","public_transport":"platform","name":"Molenkampsweg","ref:IFOPT":"NL:Q:62871020","_quaycode":"NL:Q:62871020","_town":"Zuilichem","_status":"available","_mode":"bus","_direction":111,"_visuallyAccessible":false,"_disabledAccessible":false,"geojson_lng":5.113700627148197,"geojson_lat":51.80862975909367},"geometry":{"type":"Point","coordinates":[5.113700627148197,51.80862975909367]}},{"type":"Feature","properties":{"highway":"bus_stop","public_transport":"platform","name":"Bommelsekade","ref:IFOPT":"NL:Q:62571080","_quaycode":"NL:Q:62571080","_town":"Zaltbommel","_status":"available","_mode":"bus","_direction":140,"_visuallyAccessible":true,"_disabledAccessible":true,"geojson_lng":5.275084757656019,"geojson_lat":51.79800082740739},"geometry":{"type":"Point","coordinates":[5.275084757656019,51.79800082740739]}},{"type":"Feature","properties":{"highway":"bus_stop","public_transport":"platform","name":"Den Hoek","ref:IFOPT":"NL:Q:62470080","_quaycode":"NL:Q:62470080","_town":"Bruchem","_status":"available","_mode":"bus","_direction":44,"_visuallyAccessible":false,"_disabledAccessible":false,"geojson_lng":5.239332663270464,"geojson_lat":51.78567410494435},"geometry":{"type":"Point","coordinates":[5.239332663270464,51.78567410494435]}},{"type":"Feature","properties":{"highway":"bus_stop","public_transport":"platform","name":"Hoogaarsstraat","ref:IFOPT":"NL:Q:62570470","_quaycode":"NL:Q:62570470","_town":"Zaltbommel","_status":"available","_mode":"bus","_direction":85,"_visuallyAccessible":false,"_disabledAccessible":false,"geojson_lng":5.246147904869755,"geojson_lat":51.80773103734401},"geometry":{"type":"Point","coordinates":[5.246147904869755,51.80773103734401]}},{"type":"Feature","properties":{"highway":"bus_stop","public_transport":"platform","name":"Plaatsmajoor","ref:IFOPT":"NL:Q:62570080","_quaycode":"NL:Q:62570080","_town":"Zaltbommel","_status":"available","_mode":"bus","_direction":31,"_visuallyAccessible":true,"_disabledAccessible":true,"geojson_lng":5.2334985687130695,"geojson_lat":51.80082106573105},"geometry":{"type":"Point","coordinates":[5.2334985687130695,51.80082106573105]}},{"type":"Feature","properties":{"highway":"bus_stop","public_transport":"platform","name":"Nederhemertsekade","ref:IFOPT":"NL:Q:62330210","_quaycode":"NL:Q:62330210","_town":"Nederhemert","_status":"available","_mode":"bus","_direction":282,"_visuallyAccessible":false,"_disabledAccessible":false,"geojson_lng":5.168225562874275,"geojson_lat":51.76890741987991},"geometry":{"type":"Point","coordinates":[5.168225562874275,51.76890741987991]}},{"type":"Feature","properties":{"highway":"bus_stop","public_transport":"platform","name":"Marijkestraat","ref:IFOPT":"NL:Q:61551170","_quaycode":"NL:Q:61551170","_town":"Haaften","_status":"available","_mode":"bus","_direction":343,"_visuallyAccessible":false,"_disabledAccessible":false,"geojson_lng":5.205672627698514,"geojson_lat":51.82727013118959},"geometry":{"type":"Point","coordinates":[5.205672627698514,51.82727013118959]}},{"type":"Feature","properties":{"highway":"bus_stop","public_transport":"platform","name":"Hogeweg","ref:IFOPT":"NL:Q:62470020","_quaycode":"NL:Q:62470020","_town":"Bruchem","_status":"available","_mode":"bus","_direction":301,"_visuallyAccessible":false,"_disabledAccessible":false,"geojson_lng":5.249335375577754,"geojson_lat":51.79430615850002},"geometry":{"type":"Point","coordinates":[5.249335375577754,51.79430615850002]}},{"type":"Feature","properties":{"highway":"bus_stop","public_transport":"platform","name":"Karstraat","ref:IFOPT":"NL:Q:62570010","_quaycode":"NL:Q:62570010","_town":"Zaltbommel","_status":"available","_mode":"bus","_direction":251,"_visuallyAccessible":true,"_disabledAccessible":true,"geojson_lng":5.244928356857977,"geojson_lat":51.81282598175527},"geometry":{"type":"Point","coordinates":[5.244928356857977,51.81282598175527]}},{"type":"Feature","properties":{"highway":"bus_stop","public_transport":"platform","name":"Haarstraat","ref:IFOPT":"NL:Q:62230080","_quaycode":"NL:Q:62230080","_town":"Ammerzoden","_status":"available","_mode":"bus","_direction":111,"_visuallyAccessible":false,"_disabledAccessible":false,"geojson_lng":5.227045411966233,"geojson_lat":51.748176213411746},"geometry":{"type":"Point","coordinates":[5.227045411966233,51.748176213411746]}},{"type":"Feature","properties":{"highway":"bus_stop","public_transport":"platform","name":"Zorgcentrum Wittenberg","ref:IFOPT":"NL:Q:61550170","_quaycode":"NL:Q:61550170","_town":"Haaften","_status":"available","_mode":"bus","_direction":310,"_visuallyAccessible":false,"_disabledAccessible":true,"geojson_lng":5.211202416795251,"geojson_lat":51.81909912171822},"geometry":{"type":"Point","coordinates":[5.211202416795251,51.81909912171822]}},{"type":"Feature","properties":{"highway":"bus_stop","public_transport":"platform","name":"Capreton","ref:IFOPT":"NL:Q:62430040","_quaycode":"NL:Q:62430040","_town":"Aalst","_status":"available","_mode":"bus","_direction":343,"_visuallyAccessible":false,"_disabledAccessible":false,"geojson_lng":5.119468268625953,"geojson_lat":51.794549202522525},"geometry":{"type":"Point","coordinates":[5.119468268625953,51.794549202522525]}},{"type":"Feature","properties":{"highway":"bus_stop","public_transport":"platform","name":"Oudewaai","ref:IFOPT":"NL:Q:63010350","_quaycode":"NL:Q:63010350","_town":"Hedel","_status":"available","_mode":"bus","_direction":272,"_visuallyAccessible":false,"_disabledAccessible":false,"geojson_lng":5.247550760472211,"geojson_lat":51.74796870953089},"geometry":{"type":"Point","coordinates":[5.247550760472211,51.74796870953089]}},{"type":"Feature","properties":{"highway":"bus_stop","public_transport":"platform","name":"Kapelstraat","ref:IFOPT":"NL:Q:62330080","_quaycode":"NL:Q:62330080","_town":"Nederhemert","_status":"available","_mode":"bus","_direction":80,"_visuallyAccessible":false,"_disabledAccessible":false,"geojson_lng":5.172413512820227,"geojson_lat":51.76256931693426},"geometry":{"type":"Point","coordinates":[5.172413512820227,51.76256931693426]}},{"type":"Feature","properties":{"highway":"bus_stop","public_transport":"platform","name":"Achterweg","ref:IFOPT":"NL:Q:61450060","_quaycode":"NL:Q:61450060","_town":"Waardenburg","_status":"available","_mode":"bus","_direction":47,"_visuallyAccessible":false,"_disabledAccessible":false,"geojson_lng":5.252496429576325,"geojson_lat":51.82797132713689},"geometry":{"type":"Point","coordinates":[5.252496429576325,51.82797132713689]}},{"type":"Feature","properties":{"highway":"bus_stop","public_transport":"platform","name":"Wielkamp","ref:IFOPT":"NL:Q:62571060","_quaycode":"NL:Q:62571060","_town":"Zaltbommel","_status":"available","_mode":"bus","_direction":84,"_visuallyAccessible":false,"_disabledAccessible":false,"geojson_lng":5.241264136554324,"geojson_lat":51.80239495380459},"geometry":{"type":"Point","coordinates":[5.241264136554324,51.80239495380459]}},{"type":"Feature","properties":{"highway":"bus_stop","public_transport":"platform","name":"Hambloksestraat","ref:IFOPT":"NL:Q:62430200","_quaycode":"NL:Q:62430200","_town":"Aalst","_status":"available","_mode":"bus","_direction":111,"_visuallyAccessible":false,"_disabledAccessible":false,"geojson_lng":5.137281972631684,"geojson_lat":51.7738701340286},"geometry":{"type":"Point","coordinates":[5.137281972631684,51.7738701340286]}},{"type":"Feature","properties":{"highway":"bus_stop","public_transport":"platform","name":"Groenestraat","ref:IFOPT":"NL:Q:62470050","_quaycode":"NL:Q:62470050","_town":"Bruchem","_status":"available","_mode":"bus","_direction":207,"_visuallyAccessible":false,"_disabledAccessible":false,"geojson_lng":5.239307028882276,"geojson_lat":51.78909865734836},"geometry":{"type":"Point","coordinates":[5.239307028882276,51.78909865734836]}},{"type":"Feature","properties":{"highway":"bus_stop","public_transport":"platform","name":"Kerkstraat","ref:IFOPT":"NL:Q:62670180","_quaycode":"NL:Q:62670180","_town":"Nieuwaal","_status":"available","_mode":"bus","_direction":70,"_visuallyAccessible":false,"_disabledAccessible":false,"geojson_lng":5.177669650684112,"geojson_lat":51.809866928790335},"geometry":{"type":"Point","coordinates":[5.177669650684112,51.809866928790335]}},{"type":"Feature","properties":{"highway":"bus_stop","public_transport":"platform","name":"Baronieweg","ref:IFOPT":"NL:Q:63011030","_quaycode":"NL:Q:63011030","_town":"Hedel","_status":"available","_mode":"bus","_direction":156,"_visuallyAccessible":false,"_disabledAccessible":false,"geojson_lng":5.266747976498878,"geojson_lat":51.754956026792605},"geometry":{"type":"Point","coordinates":[5.266747976498878,51.754956026792605]}},{"type":"Feature","properties":{"highway":"bus_stop","public_transport":"platform","name":"PGEM Huisje","ref:IFOPT":"NL:Q:62770060","_quaycode":"NL:Q:62770060","_town":"Zuilichem","_status":"available","_mode":"bus","_direction":106,"_visuallyAccessible":false,"_disabledAccessible":false,"geojson_lng":5.126323784298301,"geojson_lat":51.80724730807002},"geometry":{"type":"Point","coordinates":[5.126323784298301,51.80724730807002]}},{"type":"Feature","properties":{"highway":"bus_stop","public_transport":"platform","name":"Uithovensestraat","ref:IFOPT":"NL:Q:63010340","_quaycode":"NL:Q:63010340","_town":"Hedel","_status":"available","_mode":"bus","_direction":120,"_visuallyAccessible":false,"_disabledAccessible":false,"geojson_lng":5.258636347701447,"geojson_lat":51.745194958268904},"geometry":{"type":"Point","coordinates":[5.258636347701447,51.745194958268904]}},{"type":"Feature","properties":{"highway":"bus_stop","public_transport":"platform","name":"Groenestraat","ref:IFOPT":"NL:Q:62470060","_quaycode":"NL:Q:62470060","_town":"Bruchem","_status":"available","_mode":"bus","_direction":31,"_visuallyAccessible":false,"_disabledAccessible":false,"geojson_lng":5.239423008703509,"geojson_lat":51.78908981496641},"geometry":{"type":"Point","coordinates":[5.239423008703509,51.78908981496641]}},{"type":"Feature","properties":{"highway":"bus_stop","public_transport":"platform","name":"Brandweerkazerne","ref:IFOPT":"NL:Q:63010370","_quaycode":"NL:Q:63010370","_town":"Hedel","_status":"available","_mode":"bus","_direction":135,"_visuallyAccessible":null,"_disabledAccessible":null,"geojson_lng":5.25294064817841,"geojson_lat":51.74690537472614},"geometry":{"type":"Point","coordinates":[5.25294064817841,51.74690537472614]}},{"type":"Feature","properties":{"highway":"bus_stop","public_transport":"platform","name":"Hendrikstraat","ref:IFOPT":"NL:Q:62670110","_quaycode":"NL:Q:62670110","_town":"Gameren","_status":"available","_mode":"bus","_direction":329,"_visuallyAccessible":false,"_disabledAccessible":false,"geojson_lng":5.193053008635095,"geojson_lat":51.803529584551825},"geometry":{"type":"Point","coordinates":[5.193053008635095,51.803529584551825]}},{"type":"Feature","properties":{"highway":"bus_stop","public_transport":"platform","name":"Achterweg","ref:IFOPT":"NL:Q:61450130","_quaycode":"NL:Q:61450130","_town":"Waardenburg","_status":"available","_mode":"bus","_direction":226,"_visuallyAccessible":false,"_disabledAccessible":false,"geojson_lng":5.252365657854983,"geojson_lat":51.82804308407549},"geometry":{"type":"Point","coordinates":[5.252365657854983,51.82804308407549]}},{"type":"Feature","properties":{"highway":"bus_stop","public_transport":"platform","name":"Ridderhof","ref:IFOPT":"NL:Q:62670070","_quaycode":"NL:Q:62670070","_town":"Gameren","_status":"available","_mode":"bus","_direction":288,"_visuallyAccessible":false,"_disabledAccessible":true,"geojson_lng":5.20190715478459,"geojson_lat":51.80108106884835},"geometry":{"type":"Point","coordinates":[5.20190715478459,51.80108106884835]}},{"type":"Feature","properties":{"highway":"bus_stop","public_transport":"platform","name":"Hambloksestraat","ref:IFOPT":"NL:Q:62430210","_quaycode":"NL:Q:62430210","_town":"Aalst","_status":"available","_mode":"bus","_direction":288,"_visuallyAccessible":false,"_disabledAccessible":false,"geojson_lng":5.137397684435244,"geojson_lat":51.7739063342307},"geometry":{"type":"Point","coordinates":[5.137397684435244,51.7739063342307]}},{"type":"Feature","properties":{"highway":"bus_stop","public_transport":"platform","name":"Blankensteijn","ref:IFOPT":"NL:Q:63010140","_quaycode":"NL:Q:63010140","_town":"Hedel","_status":"available","_mode":"bus","_direction":99,"_visuallyAccessible":false,"_disabledAccessible":true,"geojson_lng":5.2621159068469545,"geojson_lat":51.743571809269866},"geometry":{"type":"Point","coordinates":[5.2621159068469545,51.743571809269866]}},{"type":"Feature","properties":{"highway":"bus_stop","public_transport":"platform","name":"Maasdijk 15","ref:IFOPT":"NL:Q:62330160","_quaycode":"NL:Q:62330160","_town":"Wellseind","_status":"available","_mode":"bus","_direction":147,"_visuallyAccessible":false,"_disabledAccessible":false,"geojson_lng":5.152991601503913,"geojson_lat":51.762010821989946},"geometry":{"type":"Point","coordinates":[5.152991601503913,51.762010821989946]}},{"type":"Feature","properties":{"highway":"bus_stop","public_transport":"platform","name":"E.P. van Ooijenstraat","ref:IFOPT":"NL:Q:62430420","_quaycode":"NL:Q:62430420","_town":"Aalst","_status":"available","_mode":"bus","_direction":76,"_visuallyAccessible":false,"_disabledAccessible":false,"geojson_lng":5.132356502563479,"geojson_lat":51.78399850632509},"geometry":{"type":"Point","coordinates":[5.132356502563479,51.78399850632509]}},{"type":"Feature","properties":{"highway":"bus_stop","public_transport":"platform","name":"Busstation","ref:IFOPT":"NL:Q:61451190","_quaycode":"NL:Q:61451190","_town":"Waardenburg","_status":"available","_mode":"bus","_direction":262,"_visuallyAccessible":false,"_disabledAccessible":false,"geojson_lng":5.259402674958265,"geojson_lat":51.832661978521784},"geometry":{"type":"Point","coordinates":[5.259402674958265,51.832661978521784]}},{"type":"Feature","properties":{"highway":"bus_stop","public_transport":"platform","name":"E.P. van Ooijenstraat","ref:IFOPT":"NL:Q:62430440","_quaycode":"NL:Q:62430440","_town":"Aalst","_status":"available","_mode":"bus","_direction":90,"_visuallyAccessible":false,"_disabledAccessible":false,"geojson_lng":5.1317642597705495,"geojson_lat":51.783655657944685},"geometry":{"type":"Point","coordinates":[5.1317642597705495,51.783655657944685]}},{"type":"Feature","properties":{"highway":"bus_stop","public_transport":"platform","name":"De Kraaij","ref:IFOPT":"NL:Q:62431080","_quaycode":"NL:Q:62431080","_town":"Poederoijen","_status":"available","_mode":"bus","_direction":29,"_visuallyAccessible":false,"_disabledAccessible":false,"geojson_lng":5.115547671308188,"geojson_lat":51.79808163613713},"geometry":{"type":"Point","coordinates":[5.115547671308188,51.79808163613713]}},{"type":"Feature","properties":{"highway":"bus_stop","public_transport":"platform","name":"Leutsestraat","ref:IFOPT":"NL:Q:62570180","_quaycode":"NL:Q:62570180","_town":"Zaltbommel","_status":"available","_mode":"bus","_direction":86,"_visuallyAccessible":false,"_disabledAccessible":false,"geojson_lng":5.227162050468948,"geojson_lat":51.801118206561746},"geometry":{"type":"Point","coordinates":[5.227162050468948,51.801118206561746]}},{"type":"Feature","properties":{"highway":"bus_stop","public_transport":"platform","name":"Kerk","ref:IFOPT":"NL:Q:62430460","_quaycode":"NL:Q:62430460","_town":"Aalst","_status":"available","_mode":"bus","_direction":90,"_visuallyAccessible":false,"_disabledAccessible":false,"geojson_lng":5.126231912590209,"geojson_lat":51.78302328268464},"geometry":{"type":"Point","coordinates":[5.126231912590209,51.78302328268464]}},{"type":"Feature","properties":{"highway":"bus_stop","public_transport":"platform","name":"Haarstraat","ref:IFOPT":"NL:Q:62230090","_quaycode":"NL:Q:62230090","_town":"Ammerzoden","_status":"available","_mode":"bus","_direction":288,"_visuallyAccessible":false,"_disabledAccessible":false,"geojson_lng":5.227567096563173,"geojson_lat":51.74806906290096},"geometry":{"type":"Point","coordinates":[5.227567096563173,51.74806906290096]}},{"type":"Feature","properties":{"highway":"bus_stop","public_transport":"platform","name":"Hotel Zaltbommel","ref:IFOPT":"NL:Q:62570950","_quaycode":"NL:Q:62570950","_town":"Zaltbommel","_status":"available","_mode":"bus","_direction":230,"_visuallyAccessible":false,"_disabledAccessible":false,"geojson_lng":5.2547351764000485,"geojson_lat":51.79670328805555},"geometry":{"type":"Point","coordinates":[5.2547351764000485,51.79670328805555]}},{"type":"Feature","properties":{"highway":"bus_stop","public_transport":"platform","name":"Ammerzodenseweg","ref:IFOPT":"NL:Q:62230110","_quaycode":"NL:Q:62230110","_town":"Ammerzoden","_status":"available","_mode":"bus","_direction":269,"_visuallyAccessible":false,"_disabledAccessible":false,"geojson_lng":5.2387590889967415,"geojson_lat":51.74855115511372},"geometry":{"type":"Point","coordinates":[5.2387590889967415,51.74855115511372]}},{"type":"Feature","properties":{"highway":"bus_stop","public_transport":"platform","name":"Breedstraat","ref:IFOPT":"NL:Q:63011050","_quaycode":"NL:Q:63011050","_town":"Hedel","_status":"available","_mode":"bus","_direction":230,"_visuallyAccessible":false,"_disabledAccessible":false,"geojson_lng":5.265114898302656,"geojson_lat":51.75012143147292},"geometry":{"type":"Point","coordinates":[5.265114898302656,51.75012143147292]}},{"type":"Feature","properties":{"highway":"bus_stop","public_transport":"platform","name":"Zorgcentrum Wittenberg","ref:IFOPT":"NL:Q:61550060","_quaycode":"NL:Q:61550060","_town":"Haaften","_status":"available","_mode":"bus","_direction":130,"_visuallyAccessible":false,"_disabledAccessible":true,"geojson_lng":5.211246488048785,"geojson_lat":51.81895537361096},"geometry":{"type":"Point","coordinates":[5.211246488048785,51.81895537361096]}},{"type":"Feature","properties":{"highway":"bus_stop","public_transport":"platform","name":"Hendrikstraat","ref:IFOPT":"NL:Q:62670100","_quaycode":"NL:Q:62670100","_town":"Gameren","_status":"available","_mode":"bus","_direction":149,"_visuallyAccessible":false,"_disabledAccessible":false,"geojson_lng":5.192937098735273,"geojson_lat":51.8035114160204},"geometry":{"type":"Point","coordinates":[5.192937098735273,51.8035114160204]}},{"type":"Feature","properties":{"highway":"bus_stop","public_transport":"platform","name":"De Kraaij","ref:IFOPT":"NL:Q:62431090","_quaycode":"NL:Q:62431090","_town":"Zaltbommel","_status":"available","_mode":"bus","_direction":215,"_visuallyAccessible":false,"_disabledAccessible":false,"geojson_lng":5.1155330123654705,"geojson_lat":51.79810856750234},"geometry":{"type":"Point","coordinates":[5.1155330123654705,51.79810856750234]}},{"type":"Feature","properties":{"highway":"bus_stop","public_transport":"platform","name":"Rotonde-Hogeweg","ref:IFOPT":"NL:Q:62571110","_quaycode":"NL:Q:62571110","_town":"Zaltbommel","_status":"available","_mode":"bus","_direction":297,"_visuallyAccessible":false,"_disabledAccessible":false,"geojson_lng":5.251780348100628,"geojson_lat":51.795872985317196},"geometry":{"type":"Point","coordinates":[5.251780348100628,51.795872985317196]}},{"type":"Feature","properties":{"highway":"bus_stop","public_transport":"platform","name":"Maasdijk","ref:IFOPT":"NL:Q:63280100","_quaycode":"NL:Q:63280100","_town":"Nederhemert-Zuid","_status":"available","_mode":"bus","_direction":83,"_visuallyAccessible":false,"_disabledAccessible":false,"geojson_lng":5.142612624534988,"geojson_lat":51.74466886463301},"geometry":{"type":"Point","coordinates":[5.142612624534988,51.74466886463301]}},{"type":"Feature","properties":{"highway":"bus_stop","public_transport":"platform","name":"Kromme Nol","ref:IFOPT":"NL:Q:63291180","_quaycode":"NL:Q:63291180","_town":"Wijk en Aalburg","_status":"available","_mode":"bus","_direction":297,"_visuallyAccessible":false,"_disabledAccessible":true,"geojson_lng":5.113474872467836,"geojson_lat":51.74545838295791},"geometry":{"type":"Point","coordinates":[5.113474872467836,51.74545838295791]}},{"type":"Feature","properties":{"highway":"bus_stop","public_transport":"platform","name":"Kromme Nol","ref:IFOPT":"NL:Q:63291280","_quaycode":"NL:Q:63291280","_town":"Wijk en Aalburg","_status":"available","_mode":"bus","_direction":310,"_visuallyAccessible":false,"_disabledAccessible":false,"geojson_lng":5.113447002042227,"geojson_lat":51.745278548202215},"geometry":{"type":"Point","coordinates":[5.113447002042227,51.745278548202215]}},{"type":"Feature","properties":{"highway":"bus_stop","public_transport":"platform","name":"Maasdijk","ref:IFOPT":"NL:Q:63280090","_quaycode":"NL:Q:63280090","_town":"Nederhemert-Zuid","_status":"available","_mode":"bus","_direction":254,"_visuallyAccessible":false,"_disabledAccessible":false,"geojson_lng":5.1426400142574185,"geojson_lat":51.744715153783105},"geometry":{"type":"Point","coordinates":[5.1426400142574185,51.744715153783105]}},{"type":"Feature","properties":{"highway":"bus_stop","public_transport":"platform","name":"Oost","ref:IFOPT":"NL:Q:62770020","_quaycode":"NL:Q:62770020","_town":"Zuilichem","_status":"available","_mode":"bus","_direction":284,"_visuallyAccessible":null,"_disabledAccessible":null,"geojson_lng":5.142163974280535,"geojson_lat":51.806041039019064},"geometry":{"type":"Point","coordinates":[5.142163974280535,51.806041039019064]}},{"type":"Feature","properties":{"highway":"bus_stop","public_transport":"platform","name":"Kweldijk","ref:IFOPT":"NL:Q:62770050","_quaycode":"NL:Q:62770050","_town":"Zaltbommel","_status":"available","_mode":"bus","_direction":270,"_visuallyAccessible":false,"_disabledAccessible":false,"geojson_lng":5.135179462049465,"geojson_lat":51.80530717871543},"geometry":{"type":"Point","coordinates":[5.135179462049465,51.80530717871543]}},{"type":"Feature","properties":{"highway":"bus_stop","public_transport":"platform","name":"Molenveldweg","ref:IFOPT":"NL:Q:62470160","_quaycode":"NL:Q:62470160","_town":"Kerkwijk","_status":"available","_mode":"bus","_direction":87,"_visuallyAccessible":false,"_disabledAccessible":false,"geojson_lng":5.214981033074571,"geojson_lat":51.77528624380814},"geometry":{"type":"Point","coordinates":[5.214981033074571,51.77528624380814]}},{"type":"Feature","properties":{"highway":"bus_stop","public_transport":"platform","name":"Zandsteeg","ref:IFOPT":"NL:Q:61650180","_quaycode":"NL:Q:61650180","_town":"Herwijnen","_status":"available","_mode":"bus","_direction":90,"_visuallyAccessible":false,"_disabledAccessible":false,"geojson_lng":5.150263854075929,"geojson_lat":51.829139877201825},"geometry":{"type":"Point","coordinates":[5.150263854075929,51.829139877201825]}},{"type":"Feature","properties":{"highway":"bus_stop","public_transport":"platform","name":"Baronieweg","ref:IFOPT":"NL:Q:63011020","_quaycode":"NL:Q:63011020","_town":"Hedel","_status":"available","_mode":"bus","_direction":99,"_visuallyAccessible":false,"_disabledAccessible":true,"geojson_lng":5.268166680872034,"geojson_lat":51.7551911734498},"geometry":{"type":"Point","coordinates":[5.268166680872034,51.7551911734498]}},{"type":"Feature","properties":{"highway":"bus_stop","public_transport":"platform","name":"Burgerstraat","ref:IFOPT":"NL:Q:62670080","_quaycode":"NL:Q:62670080","_town":"Gameren","_status":"available","_mode":"bus","_direction":83,"_visuallyAccessible":false,"_disabledAccessible":false,"geojson_lng":5.187373533574154,"geojson_lat":51.8026391918457},"geometry":{"type":"Point","coordinates":[5.187373533574154,51.8026391918457]}},{"type":"Feature","properties":{"highway":"bus_stop","public_transport":"platform","name":"Carpoolplaats","ref:IFOPT":"NL:Q:62570910","_quaycode":"NL:Q:62570910","_town":"Zaltbommel","_status":"available","_mode":"bus","_direction":74,"_visuallyAccessible":false,"_disabledAccessible":false,"geojson_lng":5.248143489761833,"geojson_lat":51.795338419571216},"geometry":{"type":"Point","coordinates":[5.248143489761833,51.795338419571216]}},{"type":"Feature","properties":{"highway":"bus_stop","public_transport":"platform","name":"Hertog Karelweg/Kerkewaard","ref:IFOPT":"NL:Q:61550320","_quaycode":"NL:Q:61550320","_town":"Haaften","_status":"available","_mode":"bus","_direction":76,"_visuallyAccessible":false,"_disabledAccessible":true,"geojson_lng":5.222830866261571,"geojson_lat":51.820023797255715},"geometry":{"type":"Point","coordinates":[5.222830866261571,51.820023797255715]}},{"type":"Feature","properties":{"highway":"bus_stop","public_transport":"platform","name":"Peperstraat","ref:IFOPT":"NL:Q:62470030","_quaycode":"NL:Q:62470030","_town":"Bruchem","_status":"available","_mode":"bus","_direction":255,"_visuallyAccessible":false,"_disabledAccessible":false,"geojson_lng":5.251213007281524,"geojson_lat":51.79174665265586},"geometry":{"type":"Point","coordinates":[5.251213007281524,51.79174665265586]}},{"type":"Feature","properties":{"highway":"bus_stop","public_transport":"platform","name":"Marijkestraat","ref:IFOPT":"NL:Q:61551060","_quaycode":"NL:Q:61551060","_town":"Haaften","_status":"available","_mode":"bus","_direction":165,"_visuallyAccessible":false,"_disabledAccessible":false,"geojson_lng":5.205615073956834,"geojson_lat":51.82715319334208},"geometry":{"type":"Point","coordinates":[5.205615073956834,51.82715319334208]}},{"type":"Feature","properties":{"highway":"bus_stop","public_transport":"platform","name":"Baronieweg","ref:IFOPT":"NL:Q:63011010","_quaycode":"NL:Q:63011010","_town":"Hedel","_status":"available","_mode":"bus","_direction":156,"_visuallyAccessible":true,"_disabledAccessible":true,"geojson_lng":5.266935871046014,"geojson_lat":51.755100034491754},"geometry":{"type":"Point","coordinates":[5.266935871046014,51.755100034491754]}},{"type":"Feature","properties":{"highway":"bus_stop","public_transport":"platform","name":"Kloosterwiel","ref:IFOPT":"NL:Q:62570150","_quaycode":"NL:Q:62570150","_town":"Zaltbommel","_status":"available","_mode":"bus","_direction":81,"_visuallyAccessible":false,"_disabledAccessible":true,"geojson_lng":5.239533970943823,"geojson_lat":51.808343107140544},"geometry":{"type":"Point","coordinates":[5.239533970943823,51.808343107140544]}},{"type":"Feature","properties":{"highway":"bus_stop","public_transport":"platform","name":"Blankensteijn","ref:IFOPT":"NL:Q:63010150","_quaycode":"NL:Q:63010150","_town":"Hedel","_status":"available","_mode":"bus","_direction":270,"_visuallyAccessible":true,"_disabledAccessible":true,"geojson_lng":5.262492390123004,"geojson_lat":51.7435901864256},"geometry":{"type":"Point","coordinates":[5.262492390123004,51.7435901864256]}},{"type":"Feature","properties":{"highway":"bus_stop","public_transport":"platform","name":"Van Voordenpark","ref:IFOPT":"NL:Q:62570340","_quaycode":"NL:Q:62570340","_town":"Zaltbommel","_status":"available","_mode":"bus","_direction":179,"_visuallyAccessible":false,"_disabledAccessible":false,"geojson_lng":5.258988895002179,"geojson_lat":51.79783145306473},"geometry":{"type":"Point","coordinates":[5.258988895002179,51.79783145306473]}},{"type":"Feature","properties":{"highway":"bus_stop","public_transport":"platform","name":"Gemeentekantoor","ref:IFOPT":"NL:Q:62570920","_quaycode":"NL:Q:62570920","_town":"Zaltbommel","_status":"available","_mode":"bus","_direction":1,"_visuallyAccessible":false,"_disabledAccessible":false,"geojson_lng":5.256278535044709,"geojson_lat":51.79937457282634},"geometry":{"type":"Point","coordinates":[5.256278535044709,51.79937457282634]}},{"type":"Feature","properties":{"highway":"bus_stop","public_transport":"platform","name":"Peerboltestraat","ref:IFOPT":"NL:Q:62570060","_quaycode":"NL:Q:62570060","_town":"Zaltbommel","_status":"available","_mode":"bus","_direction":347,"_visuallyAccessible":false,"_disabledAccessible":false,"geojson_lng":5.2412807697334705,"geojson_lat":51.80624200693199},"geometry":{"type":"Point","coordinates":[5.2412807697334705,51.80624200693199]}},{"type":"Feature","properties":{"highway":"bus_stop","public_transport":"platform","name":"Marten van Rossemsingel","ref:IFOPT":"NL:Q:62570231","_quaycode":"NL:Q:62570231","_town":"Zaltbommel","_status":"available","_mode":"bus","_direction":43,"_visuallyAccessible":false,"_disabledAccessible":false,"geojson_lng":5.251869153086417,"geojson_lat":51.809796109185214},"geometry":{"type":"Point","coordinates":[5.251869153086417,51.809796109185214]}},{"type":"Feature","properties":{"highway":"bus_stop","public_transport":"platform","name":"Valeton","ref:IFOPT":"NL:Q:62571030","_quaycode":"NL:Q:62571030","_town":"Zaltbommel","_status":"available","_mode":"bus","_direction":203,"_visuallyAccessible":true,"_disabledAccessible":true,"geojson_lng":5.274540330643202,"geojson_lat":51.80122713985154},"geometry":{"type":"Point","coordinates":[5.274540330643202,51.80122713985154]}},{"type":"Feature","properties":{"highway":"bus_stop","public_transport":"platform","name":"Nieuwe Steeg","ref:IFOPT":"NL:Q:61750270","_quaycode":"NL:Q:61750270","_town":"Herwijnen","_status":"available","_mode":"bus","_direction":272,"_visuallyAccessible":false,"_disabledAccessible":true,"geojson_lng":5.129110295000214,"geojson_lat":51.82960763143738},"geometry":{"type":"Point","coordinates":[5.129110295000214,51.82960763143738]}},{"type":"Feature","properties":{"highway":"bus_stop","public_transport":"platform","name":"Molenstraat","ref:IFOPT":"NL:Q:62330130","_quaycode":"NL:Q:62330130","_town":"Nederhemert-Noord","_status":"available","_mode":"bus","_direction":256,"_visuallyAccessible":false,"_disabledAccessible":false,"geojson_lng":5.160762413996917,"geojson_lat":51.763554114908665},"geometry":{"type":"Point","coordinates":[5.160762413996917,51.763554114908665]}},{"type":"Feature","properties":{"highway":"bus_stop","public_transport":"platform","name":"De Poorterij","ref:IFOPT":"NL:Q:62570510","_quaycode":"NL:Q:62570510","_town":"Zaltbommel","_status":"available","_mode":"bus","_direction":313,"_visuallyAccessible":false,"_disabledAccessible":true,"geojson_lng":5.250821724937663,"geojson_lat":51.81091844598554},"geometry":{"type":"Point","coordinates":[5.250821724937663,51.81091844598554]}},{"type":"Feature","properties":{"highway":"bus_stop","public_transport":"platform","name":"Meidijk","ref:IFOPT":"NL:Q:62770040","_quaycode":"NL:Q:62770040","_town":"Zuilichem","_status":"available","_mode":"bus","_direction":50,"_visuallyAccessible":false,"_disabledAccessible":false,"geojson_lng":5.1225186826358025,"geojson_lat":51.80582760845954},"geometry":{"type":"Point","coordinates":[5.1225186826358025,51.80582760845954]}},{"type":"Feature","properties":{"highway":"bus_stop","public_transport":"platform","name":"Kerk","ref:IFOPT":"NL:Q:62430450","_quaycode":"NL:Q:62430450","_town":"Aalst","_status":"available","_mode":"bus","_direction":270,"_visuallyAccessible":false,"_disabledAccessible":false,"geojson_lng":5.126506633279974,"geojson_lat":51.783131754629146},"geometry":{"type":"Point","coordinates":[5.126506633279974,51.783131754629146]}},{"type":"Feature","properties":{"highway":"bus_stop","public_transport":"platform","name":"Ridderstraat","ref:IFOPT":"NL:Q:62670120","_quaycode":"NL:Q:62670120","_town":"Gameren","_status":"available","_mode":"bus","_direction":83,"_visuallyAccessible":false,"_disabledAccessible":false,"geojson_lng":5.195922949496675,"geojson_lat":51.80028948081135},"geometry":{"type":"Point","coordinates":[5.195922949496675,51.80028948081135]}},{"type":"Feature","properties":{"highway":"bus_stop","public_transport":"platform","name":"Zandsteeg","ref:IFOPT":"NL:Q:61650190","_quaycode":"NL:Q:61650190","_town":"Herwijnen","_status":"available","_mode":"bus","_direction":270,"_visuallyAccessible":false,"_disabledAccessible":false,"geojson_lng":5.148362630155258,"geojson_lat":51.82929781702864},"geometry":{"type":"Point","coordinates":[5.148362630155258,51.82929781702864]}},{"type":"Feature","properties":{"highway":"bus_stop","public_transport":"platform","name":"Cambium College","ref:IFOPT":"NL:Q:62570440","_quaycode":"NL:Q:62570440","_town":"Zaltbommel","_status":"available","_mode":"bus","_direction":139,"_visuallyAccessible":false,"_disabledAccessible":true,"geojson_lng":5.232446547059132,"geojson_lat":51.80321059785413},"geometry":{"type":"Point","coordinates":[5.232446547059132,51.80321059785413]}},{"type":"Feature","properties":{"highway":"bus_stop","public_transport":"platform","name":"Schutskooi","ref:IFOPT":"NL:Q:62570490","_quaycode":"NL:Q:62570490","_town":"Zaltbommel","_status":"available","_mode":"bus","_direction":153,"_visuallyAccessible":false,"_disabledAccessible":true,"geojson_lng":5.254960595699671,"geojson_lat":51.8088288843964},"geometry":{"type":"Point","coordinates":[5.254960595699671,51.8088288843964]}},{"type":"Feature","properties":{"highway":"bus_stop","public_transport":"platform","name":"E.P. van Ooijenstraat","ref:IFOPT":"NL:Q:62430430","_quaycode":"NL:Q:62430430","_town":"Aalst","_status":"available","_mode":"bus","_direction":272,"_visuallyAccessible":false,"_disabledAccessible":false,"geojson_lng":5.131748953994581,"geojson_lat":51.78379943968421},"geometry":{"type":"Point","coordinates":[5.131748953994581,51.78379943968421]}},{"type":"Feature","properties":{"highway":"bus_stop","public_transport":"platform","name":"Kerk","ref:IFOPT":"NL:Q:62670150","_quaycode":"NL:Q:62670150","_town":"Nieuwaal","_status":"available","_mode":"bus","_direction":347,"_visuallyAccessible":false,"_disabledAccessible":true,"geojson_lng":5.1790424791725105,"geojson_lat":51.80774810775726},"geometry":{"type":"Point","coordinates":[5.1790424791725105,51.80774810775726]}},{"type":"Feature","properties":{"highway":"bus_stop","public_transport":"platform","name":"Oost","ref:IFOPT":"NL:Q:62770010","_quaycode":"NL:Q:62770010","_town":"Zuilichem","_status":"available","_mode":"bus","_direction":104,"_visuallyAccessible":null,"_disabledAccessible":null,"geojson_lng":5.142135220047666,"geojson_lat":51.80599603692401},"geometry":{"type":"Point","coordinates":[5.142135220047666,51.80599603692401]}},{"type":"Feature","properties":{"highway":"bus_stop","public_transport":"platform","name":"Hofstraat","ref:IFOPT":"NL:Q:62330110","_quaycode":"NL:Q:62330110","_town":"Nederhemert-Noord","_status":"available","_mode":"bus","_direction":257,"_visuallyAccessible":false,"_disabledAccessible":false,"geojson_lng":5.167721491748032,"geojson_lat":51.76531109895005},"geometry":{"type":"Point","coordinates":[5.167721491748032,51.76531109895005]}},{"type":"Feature","properties":{"highway":"bus_stop","public_transport":"platform","name":"Maasdijk","ref:IFOPT":"NL:Q:62430020","_quaycode":"NL:Q:62430020","_town":"Aalst","_status":"available","_mode":"bus","_direction":175,"_visuallyAccessible":false,"_disabledAccessible":false,"geojson_lng":5.121573868854923,"geojson_lat":51.78406447921693},"geometry":{"type":"Point","coordinates":[5.121573868854923,51.78406447921693]}},{"type":"Feature","properties":{"highway":"bus_stop","public_transport":"platform","name":"Molenstraat","ref:IFOPT":"NL:Q:62330140","_quaycode":"NL:Q:62330140","_town":"Nederhemert-Noord","_status":"available","_mode":"bus","_direction":76,"_visuallyAccessible":false,"_disabledAccessible":false,"geojson_lng":5.160965391699643,"geojson_lat":51.763518552671584},"geometry":{"type":"Point","coordinates":[5.160965391699643,51.763518552671584]}},{"type":"Feature","properties":{"highway":"bus_stop","public_transport":"platform","name":"Aalderwijksestraat","ref:IFOPT":"NL:Q:62470170","_quaycode":"NL:Q:62470170","_town":"Kerkwijk","_status":"available","_mode":"bus","_direction":250,"_visuallyAccessible":false,"_disabledAccessible":false,"geojson_lng":5.220804395539819,"geojson_lat":51.77566316932638},"geometry":{"type":"Point","coordinates":[5.220804395539819,51.77566316932638]}},{"type":"Feature","properties":{"highway":"bus_stop","public_transport":"platform","name":"Baronieweg","ref:IFOPT":"NL:Q:63011040","_quaycode":"NL:Q:63011040","_town":"Hedel","_status":"available","_mode":"bus","_direction":333,"_visuallyAccessible":false,"_disabledAccessible":false,"geojson_lng":5.2669376540320165,"geojson_lat":51.75477801052437},"geometry":{"type":"Point","coordinates":[5.2669376540320165,51.75477801052437]}},{"type":"Feature","properties":{"highway":"bus_stop","public_transport":"platform","name":"Bolt","ref:IFOPT":"NL:Q:62771020","_quaycode":"NL:Q:62771020","_town":"Nieuwaal","_status":"available","_mode":"bus","_direction":99,"_visuallyAccessible":false,"_disabledAccessible":false,"geojson_lng":5.1556606842980655,"geojson_lat":51.80930426110964},"geometry":{"type":"Point","coordinates":[5.1556606842980655,51.80930426110964]}},{"type":"Feature","properties":{"highway":"bus_stop","public_transport":"platform","name":"Zuid","ref:IFOPT":"NL:Q:62670200","_quaycode":"NL:Q:62670200","_town":"Nieuwaal","_status":"available","_mode":"bus","_direction":229,"_visuallyAccessible":false,"_disabledAccessible":false,"geojson_lng":5.17883739652849,"geojson_lat":51.80359442328405},"geometry":{"type":"Point","coordinates":[5.17883739652849,51.80359442328405]}},{"type":"Feature","properties":{"highway":"bus_stop","public_transport":"platform","name":"Peperstraat","ref:IFOPT":"NL:Q:62470040","_quaycode":"NL:Q:62470040","_town":"Bruchem","_status":"available","_mode":"bus","_direction":321,"_visuallyAccessible":false,"_disabledAccessible":false,"geojson_lng":5.251271229416046,"geojson_lat":51.791665824416114},"geometry":{"type":"Point","coordinates":[5.251271229416046,51.791665824416114]}},{"type":"Feature","properties":{"highway":"bus_stop","public_transport":"platform","name":"Kloosterwiel","ref:IFOPT":"NL:Q:62570160","_quaycode":"NL:Q:62570160","_town":"Zaltbommel","_status":"available","_mode":"bus","_direction":260,"_visuallyAccessible":true,"_disabledAccessible":true,"geojson_lng":5.238881619215706,"geojson_lat":51.80829734319806},"geometry":{"type":"Point","coordinates":[5.238881619215706,51.80829734319806]}},{"type":"Feature","properties":{"highway":"bus_stop","public_transport":"platform","name":"Molenveldweg","ref:IFOPT":"NL:Q:62470200","_quaycode":"NL:Q:62470200","_town":"Kerkwijk","_status":"available","_mode":"bus","_direction":180,"_visuallyAccessible":false,"_disabledAccessible":false,"geojson_lng":5.213722013169671,"geojson_lat":51.77487991038147},"geometry":{"type":"Point","coordinates":[5.213722013169671,51.77487991038147]}},{"type":"Feature","properties":{"highway":"bus_stop","public_transport":"platform","name":"Thijs de Torenwachterstraat","ref:IFOPT":"NL:Q:62570390","_quaycode":"NL:Q:62570390","_town":"Zaltbommel","_status":"available","_mode":"bus","_direction":92,"_visuallyAccessible":null,"_disabledAccessible":null,"geojson_lng":5.253582531256736,"geojson_lat":51.799191768716696},"geometry":{"type":"Point","coordinates":[5.253582531256736,51.799191768716696]}},{"type":"Feature","properties":{"highway":"bus_stop","public_transport":"platform","name":"Dorpstraat","ref:IFOPT":"NL:Q:62231070","_quaycode":"NL:Q:62231070","_town":"Well","_status":"available","_mode":"bus","_direction":255,"_visuallyAccessible":false,"_disabledAccessible":false,"geojson_lng":5.20481695612737,"geojson_lat":51.74471916110116},"geometry":{"type":"Point","coordinates":[5.20481695612737,51.74471916110116]}},{"type":"Feature","properties":{"highway":"bus_stop","public_transport":"platform","name":"Breedstraat","ref:IFOPT":"NL:Q:63011080","_quaycode":"NL:Q:63011080","_town":"Hedel","_status":"available","_mode":"bus","_direction":323,"_visuallyAccessible":false,"_disabledAccessible":false,"geojson_lng":5.2652641376339675,"geojson_lat":51.749994648094635},"geometry":{"type":"Point","coordinates":[5.2652641376339675,51.749994648094635]}},{"type":"Feature","properties":{"highway":"bus_stop","public_transport":"platform","name":"Den Hoek","ref:IFOPT":"NL:Q:62470070","_quaycode":"NL:Q:62470070","_town":"Bruchem","_status":"available","_mode":"bus","_direction":216,"_visuallyAccessible":false,"_disabledAccessible":false,"geojson_lng":5.239274604144808,"geojson_lat":51.7857009970494},"geometry":{"type":"Point","coordinates":[5.239274604144808,51.7857009970494]}},{"type":"Feature","properties":{"highway":"bus_stop","public_transport":"platform","name":"Centrum","ref:IFOPT":"NL:Q:62770070","_quaycode":"NL:Q:62770070","_town":"Zuilichem","_status":"available","_mode":"bus","_direction":263,"_visuallyAccessible":false,"_disabledAccessible":true,"geojson_lng":5.1354445089687575,"geojson_lat":51.807177338054416},"geometry":{"type":"Point","coordinates":[5.1354445089687575,51.807177338054416]}},{"type":"Feature","properties":{"highway":"bus_stop","public_transport":"platform","name":"Klemit (Wellseind)","ref:IFOPT":"NL:Q:62330030","_quaycode":"NL:Q:62330030","_town":"Nederhemert","_status":"available","_mode":"bus","_direction":241,"_visuallyAccessible":false,"_disabledAccessible":false,"geojson_lng":5.180001256363867,"geojson_lat":51.76314923378337},"geometry":{"type":"Point","coordinates":[5.180001256363867,51.76314923378337]}},{"type":"Feature","properties":{"highway":"bus_stop","public_transport":"platform","name":"Nieuwe Steeg","ref:IFOPT":"NL:Q:61750260","_quaycode":"NL:Q:61750260","_town":"Herwijnen","_status":"available","_mode":"bus","_direction":90,"_visuallyAccessible":false,"_disabledAccessible":true,"geojson_lng":5.131142363419716,"geojson_lat":51.82941433518711},"geometry":{"type":"Point","coordinates":[5.131142363419716,51.82941433518711]}},{"type":"Feature","properties":{"highway":"bus_stop","public_transport":"platform","name":"Ammerstraat","ref:IFOPT":"NL:Q:62230120","_quaycode":"NL:Q:62230120","_town":"Ammerzoden","_status":"available","_mode":"bus","_direction":67,"_visuallyAccessible":true,"_disabledAccessible":true,"geojson_lng":5.223061207928914,"geojson_lat":51.7487279914686},"geometry":{"type":"Point","coordinates":[5.223061207928914,51.7487279914686]}},{"type":"Feature","properties":{"highway":"bus_stop","public_transport":"platform","name":"Marktplein","ref:IFOPT":"NL:Q:62870030","_quaycode":"NL:Q:62870030","_town":"Brakel","_status":"available","_mode":"bus","_direction":270,"_visuallyAccessible":true,"_disabledAccessible":true,"geojson_lng":5.097358870807214,"geojson_lat":51.819906968958975},"geometry":{"type":"Point","coordinates":[5.097358870807214,51.819906968958975]}},{"type":"Feature","properties":{"highway":"bus_stop","public_transport":"platform","name":"Maaijenstraat","ref:IFOPT":"NL:Q:62230030","_quaycode":"NL:Q:62230030","_town":"Maasdriel","_status":"available","_mode":"bus","_direction":134,"_visuallyAccessible":false,"_disabledAccessible":false,"geojson_lng":5.20089137323257,"geojson_lat":51.74509050822217},"geometry":{"type":"Point","coordinates":[5.20089137323257,51.74509050822217]}},{"type":"Feature","properties":{"highway":"bus_stop","public_transport":"platform","name":"Zonnepad","ref:IFOPT":"NL:Q:62430240","_quaycode":"NL:Q:62430240","_town":"Aalst","_status":"available","_mode":"bus","_direction":289,"_visuallyAccessible":false,"_disabledAccessible":false,"geojson_lng":5.129558222362059,"geojson_lat":51.78168236637319},"geometry":{"type":"Point","coordinates":[5.129558222362059,51.78168236637319]}},{"type":"Feature","properties":{"highway":"bus_stop","public_transport":"platform","name":"Wellsedam","ref:IFOPT":"NL:Q:62230150","_quaycode":"NL:Q:62230150","_town":"Ammerzoden","_status":"available","_mode":"bus","_direction":266,"_visuallyAccessible":true,"_disabledAccessible":true,"geojson_lng":5.216301413018268,"geojson_lat":51.74799027496581},"geometry":{"type":"Point","coordinates":[5.216301413018268,51.74799027496581]}},{"type":"Feature","properties":{"highway":"bus_stop","public_transport":"platform","name":"Meidijk","ref:IFOPT":"NL:Q:62770140","_quaycode":"NL:Q:62770140","_town":"Zuilichem","_status":"available","_mode":"bus","_direction":228,"_visuallyAccessible":false,"_disabledAccessible":false,"geojson_lng":5.122416977968683,"geojson_lat":51.8058633327802},"geometry":{"type":"Point","coordinates":[5.122416977968683,51.8058633327802]}},{"type":"Feature","properties":{"highway":"bus_stop","public_transport":"platform","name":"Oudewaai","ref:IFOPT":"NL:Q:63010360","_quaycode":"NL:Q:63010360","_town":"Hedel","_status":"available","_mode":"bus","_direction":100,"_visuallyAccessible":false,"_disabledAccessible":false,"geojson_lng":5.249158985640034,"geojson_lat":51.747682981961084},"geometry":{"type":"Point","coordinates":[5.249158985640034,51.747682981961084]}},{"type":"Feature","properties":{"highway":"bus_stop","public_transport":"platform","name":"Valeton","ref:IFOPT":"NL:Q:62571040","_quaycode":"NL:Q:62571040","_town":"Zaltbommel","_status":"available","_mode":"bus","_direction":24,"_visuallyAccessible":true,"_disabledAccessible":true,"geojson_lng":5.275003944887295,"geojson_lat":51.80135342102249},"geometry":{"type":"Point","coordinates":[5.275003944887295,51.80135342102249]}},{"type":"Feature","properties":{"highway":"bus_stop","public_transport":"platform","name":" De Kraaij","ref:IFOPT":"NL:Q:62431190","_quaycode":"NL:Q:62431190","_town":"Zaltbommel","_status":"available","_mode":"bus","_direction":288,"_visuallyAccessible":false,"_disabledAccessible":false,"geojson_lng":5.114762304547364,"geojson_lat":51.798502272083326},"geometry":{"type":"Point","coordinates":[5.114762304547364,51.798502272083326]}},{"type":"Feature","properties":{"highway":"bus_stop","public_transport":"platform","name":"Rotonde-Hogeweg","ref:IFOPT":"NL:Q:62571120","_quaycode":"NL:Q:62571120","_town":"Zaltbommel","_status":"available","_mode":"bus","_direction":117,"_visuallyAccessible":false,"_disabledAccessible":false,"geojson_lng":5.251853097452528,"geojson_lat":51.79578318517382},"geometry":{"type":"Point","coordinates":[5.251853097452528,51.79578318517382]}},{"type":"Feature","properties":{"highway":"bus_stop","public_transport":"platform","name":"Maas Waalweg","ref:IFOPT":"NL:Q:62430170","_quaycode":"NL:Q:62430170","_town":"Nederhemert-Noord","_status":"available","_mode":"bus","_direction":286,"_visuallyAccessible":false,"_disabledAccessible":false,"geojson_lng":5.143246646622486,"geojson_lat":51.77207600867502},"geometry":{"type":"Point","coordinates":[5.143246646622486,51.77207600867502]}},{"type":"Feature","properties":{"highway":"bus_stop","public_transport":"platform","name":"Prinses Beatrixstraat","ref:IFOPT":"NL:Q:63010240","_quaycode":"NL:Q:63010240","_town":"Hedel","_status":"available","_mode":"bus","_direction":149,"_visuallyAccessible":false,"_disabledAccessible":false,"geojson_lng":5.268159545275596,"geojson_lat":51.751210449849246},"geometry":{"type":"Point","coordinates":[5.268159545275596,51.751210449849246]}},{"type":"Feature","properties":{"highway":"bus_stop","public_transport":"platform","name":"Schutskooi","ref:IFOPT":"NL:Q:62570480","_quaycode":"NL:Q:62570480","_town":"Zaltbommel","_status":"available","_mode":"bus","_direction":311,"_visuallyAccessible":false,"_disabledAccessible":true,"geojson_lng":5.255119834346298,"geojson_lat":51.80891894742027},"geometry":{"type":"Point","coordinates":[5.255119834346298,51.80891894742027]}},{"type":"Feature","properties":{"highway":"bus_stop","public_transport":"platform","name":"Irenestraat","ref:IFOPT":"NL:Q:61650160","_quaycode":"NL:Q:61650160","_town":"Hellouw","_status":"available","_mode":"bus","_direction":78,"_visuallyAccessible":false,"_disabledAccessible":false,"geojson_lng":5.17634414000578,"geojson_lat":51.82975586477758},"geometry":{"type":"Point","coordinates":[5.17634414000578,51.82975586477758]}},{"type":"Feature","properties":{"highway":"bus_stop","public_transport":"platform","name":"Karstraat","ref:IFOPT":"NL:Q:62570020","_quaycode":"NL:Q:62570020","_town":"Zaltbommel","_status":"available","_mode":"bus","_direction":72,"_visuallyAccessible":true,"_disabledAccessible":true,"geojson_lng":5.2452618049924,"geojson_lat":51.81285335030646},"geometry":{"type":"Point","coordinates":[5.2452618049924,51.81285335030646]}},{"type":"Feature","properties":{"highway":"bus_stop","public_transport":"platform","name":"Goudenregenlaan","ref:IFOPT":"NL:Q:62430260","_quaycode":"NL:Q:62430260","_town":"Aalst","_status":"available","_mode":"bus","_direction":113,"_visuallyAccessible":false,"_disabledAccessible":false,"geojson_lng":5.130862547833478,"geojson_lat":51.779114527667076},"geometry":{"type":"Point","coordinates":[5.130862547833478,51.779114527667076]}},{"type":"Feature","properties":{"highway":"bus_stop","public_transport":"platform","name":"PGEM Huisje","ref:IFOPT":"NL:Q:62770160","_quaycode":"NL:Q:62770160","_town":"Zuilichem","_status":"available","_mode":"bus","_direction":286,"_visuallyAccessible":false,"_disabledAccessible":false,"geojson_lng":5.126366919162634,"geojson_lat":51.807310322845915},"geometry":{"type":"Point","coordinates":[5.126366919162634,51.807310322845915]}},{"type":"Feature","properties":{"highway":"bus_stop","public_transport":"platform","name":"De Poorterij","ref:IFOPT":"NL:Q:62570500","_quaycode":"NL:Q:62570500","_town":"Zaltbommel","_status":"available","_mode":"bus","_direction":122,"_visuallyAccessible":false,"_disabledAccessible":true,"geojson_lng":5.2510693233561385,"geojson_lat":51.810559197776115},"geometry":{"type":"Point","coordinates":[5.2510693233561385,51.810559197776115]}},{"type":"Feature","properties":{"highway":"bus_stop","public_transport":"platform","name":"Bolt","ref:IFOPT":"NL:Q:62771030","_quaycode":"NL:Q:62771030","_town":"Nieuwaal","_status":"available","_mode":"bus","_direction":281,"_visuallyAccessible":false,"_disabledAccessible":false,"geojson_lng":5.155617368144761,"geojson_lat":51.80926822204611},"geometry":{"type":"Point","coordinates":[5.155617368144761,51.80926822204611]}},{"type":"Feature","properties":{"highway":"bus_stop","public_transport":"platform","name":"Nederhemertsekade","ref:IFOPT":"NL:Q:62330220","_quaycode":"NL:Q:62330220","_town":"Nederhemert","_status":"available","_mode":"bus","_direction":102,"_visuallyAccessible":false,"_disabledAccessible":false,"geojson_lng":5.167835105069417,"geojson_lat":51.7687628754157},"geometry":{"type":"Point","coordinates":[5.167835105069417,51.7687628754157]}},{"type":"Feature","properties":{"highway":"bus_stop","public_transport":"platform","name":"Busstation","ref:IFOPT":"NL:Q:61450090","_quaycode":"NL:Q:61450090","_town":"Waardenburg","_status":"available","_mode":"bus","_direction":265,"_visuallyAccessible":false,"_disabledAccessible":true,"geojson_lng":5.25943189428523,"geojson_lat":51.83259010341125},"geometry":{"type":"Point","coordinates":[5.25943189428523,51.83259010341125]}},{"type":"Feature","properties":{"highway":"bus_stop","public_transport":"platform","name":"Waalbandijk","ref:IFOPT":"NL:Q:61450020","_quaycode":"NL:Q:61450020","_town":"Tuil","_status":"available","_mode":"bus","_direction":78,"_visuallyAccessible":false,"_disabledAccessible":true,"geojson_lng":5.241072181929634,"geojson_lat":51.82140515081056},"geometry":{"type":"Point","coordinates":[5.241072181929634,51.82140515081056]}},{"type":"Feature","properties":{"highway":"bus_stop","public_transport":"platform","name":"Dorp","ref:IFOPT":"NL:Q:61550150","_quaycode":"NL:Q:61550150","_town":"Haaften","_status":"available","_mode":"bus","_direction":278,"_visuallyAccessible":false,"_disabledAccessible":false,"geojson_lng":5.212513677703453,"geojson_lat":51.81756406561756},"geometry":{"type":"Point","coordinates":[5.212513677703453,51.81756406561756]}},{"type":"Feature","properties":{"highway":"bus_stop","public_transport":"platform","name":"PGEM Station","ref:IFOPT":"NL:Q:61350020","_quaycode":"NL:Q:61350020","_town":"Neerijnen","_status":"available","_mode":"bus","_direction":109,"_visuallyAccessible":false,"_disabledAccessible":false,"geojson_lng":5.276082584449266,"geojson_lat":51.834341778755395},"geometry":{"type":"Point","coordinates":[5.276082584449266,51.834341778755395]}},{"type":"Feature","properties":{"highway":"bus_stop","public_transport":"platform","name":"Molenkampsweg","ref:IFOPT":"NL:Q:62870120","_quaycode":"NL:Q:62870120","_town":"Zuilichem","_status":"available","_mode":"bus","_direction":290,"_visuallyAccessible":false,"_disabledAccessible":false,"geojson_lng":5.113729245673069,"geojson_lat":51.80869274471029},"geometry":{"type":"Point","coordinates":[5.113729245673069,51.80869274471029]}},{"type":"Feature","properties":{"highway":"bus_stop","public_transport":"platform","name":"Wielkamp","ref:IFOPT":"NL:Q:62571020","_quaycode":"NL:Q:62571020","_town":"Zaltbommel","_status":"available","_mode":"bus","_direction":253,"_visuallyAccessible":false,"_disabledAccessible":false,"geojson_lng":5.241234820689081,"geojson_lat":51.8024937897242},"geometry":{"type":"Point","coordinates":[5.241234820689081,51.8024937897242]}},{"type":"Feature","properties":{"highway":"bus_stop","public_transport":"platform","name":"Dorp","ref:IFOPT":"NL:Q:61550080","_quaycode":"NL:Q:61550080","_town":"Haaften","_status":"available","_mode":"bus","_direction":96,"_visuallyAccessible":false,"_disabledAccessible":false,"geojson_lng":5.212615511340798,"geojson_lat":51.81748332157134},"geometry":{"type":"Point","coordinates":[5.212615511340798,51.81748332157134]}},{"type":"Feature","properties":{"highway":"bus_stop","public_transport":"platform","name":"Kerkstraat","ref:IFOPT":"NL:Q:62670170","_quaycode":"NL:Q:62670170","_town":"Nieuwaal","_status":"available","_mode":"bus","_direction":259,"_visuallyAccessible":false,"_disabledAccessible":false,"geojson_lng":5.177654858008209,"geojson_lat":51.80992982119925},"geometry":{"type":"Point","coordinates":[5.177654858008209,51.80992982119925]}},{"type":"Feature","properties":{"highway":"bus_stop","public_transport":"platform","name":"Burgerstraat","ref:IFOPT":"NL:Q:62671090","_quaycode":"NL:Q:62671090","_town":"Gameren","_status":"available","_mode":"bus","_direction":263,"_visuallyAccessible":false,"_disabledAccessible":false,"geojson_lng":5.187344218868636,"geojson_lat":51.802711049199495},"geometry":{"type":"Point","coordinates":[5.187344218868636,51.802711049199495]}},{"type":"Feature","properties":{"highway":"bus_stop","public_transport":"platform","name":"Ridderstraat","ref:IFOPT":"NL:Q:62670090","_quaycode":"NL:Q:62670090","_town":"Gameren","_status":"available","_mode":"bus","_direction":263,"_visuallyAccessible":false,"_disabledAccessible":false,"geojson_lng":5.195401005943252,"geojson_lat":51.80029761771072},"geometry":{"type":"Point","coordinates":[5.195401005943252,51.80029761771072]}},{"type":"Feature","properties":{"highway":"bus_stop","public_transport":"platform","name":"Plaatsmajoor","ref:IFOPT":"NL:Q:62570450","_quaycode":"NL:Q:62570450","_town":"Zaltbommel","_status":"available","_mode":"bus","_direction":214,"_visuallyAccessible":true,"_disabledAccessible":true,"geojson_lng":5.233367968098107,"geojson_lat":51.80085684831537},"geometry":{"type":"Point","coordinates":[5.233367968098107,51.80085684831537]}},{"type":"Feature","properties":{"highway":"bus_stop","public_transport":"platform","name":"Maaijenstraat","ref:IFOPT":"NL:Q:62230040","_quaycode":"NL:Q:62230040","_town":"Maasdriel","_status":"available","_mode":"bus","_direction":315,"_visuallyAccessible":null,"_disabledAccessible":null,"geojson_lng":5.200760574425099,"geojson_lat":51.745207150417315},"geometry":{"type":"Point","coordinates":[5.200760574425099,51.745207150417315]}},{"type":"Feature","properties":{"highway":"bus_stop","public_transport":"platform","name":"Schmitzstraat","ref:IFOPT":"NL:Q:63490290","_quaycode":"NL:Q:63490290","_town":"Veen","_status":"available","_mode":"bus","_direction":172,"_visuallyAccessible":true,"_disabledAccessible":true,"geojson_lng":5.102402964654676,"geojson_lat":51.776792800847275},"geometry":{"type":"Point","coordinates":[5.102402964654676,51.776792800847275]}},{"type":"Feature","properties":{"highway":"bus_stop","public_transport":"platform","name":"Aalburgsestraat","ref:IFOPT":"NL:Q:63390130","_quaycode":"NL:Q:63390130","_town":"Wijk en Aalburg","_status":"available","_mode":"bus","_direction":149,"_visuallyAccessible":true,"_disabledAccessible":true,"geojson_lng":5.128805596295043,"geojson_lat":51.756198436159416},"geometry":{"type":"Point","coordinates":[5.128805596295043,51.756198436159416]}},{"type":"Feature","properties":{"highway":"bus_stop","public_transport":"platform","name":"Kerkverreweide","ref:IFOPT":"NL:Q:63390060","_quaycode":"NL:Q:63390060","_town":"Wijk en Aalburg","_status":"available","_mode":"bus","_direction":258,"_visuallyAccessible":true,"_disabledAccessible":true,"geojson_lng":5.125422487878545,"geojson_lat":51.762662631457644},"geometry":{"type":"Point","coordinates":[5.125422487878545,51.762662631457644]}},{"type":"Feature","properties":{"highway":"bus_stop","public_transport":"platform","name":"Haverleij","ref:IFOPT":"NL:Q:63106520","_quaycode":"NL:Q:63106520","_town":"Engelen","_status":"available","_mode":"bus","_direction":330,"_visuallyAccessible":false,"_disabledAccessible":true,"geojson_lng":5.25328755528401,"geojson_lat":51.727580582787304},"geometry":{"type":"Point","coordinates":[5.25328755528401,51.727580582787304]}},{"type":"Feature","properties":{"highway":"bus_stop","public_transport":"platform","name":"Perzikstraat","ref:IFOPT":"NL:Q:63390040","_quaycode":"NL:Q:63390040","_town":"Wijk en Aalburg","_status":"available","_mode":"bus","_direction":169,"_visuallyAccessible":true,"_disabledAccessible":true,"geojson_lng":5.121796111349653,"geojson_lat":51.76351737579304},"geometry":{"type":"Point","coordinates":[5.121796111349653,51.76351737579304]}},{"type":"Feature","properties":{"highway":"bus_stop","public_transport":"platform","name":"Aalburgsestraat","ref:IFOPT":"NL:Q:63390120","_quaycode":"NL:Q:63390120","_town":"Wijk en Aalburg","_status":"available","_mode":"bus","_direction":347,"_visuallyAccessible":true,"_disabledAccessible":true,"geojson_lng":5.128731637819665,"geojson_lat":51.75646792730339},"geometry":{"type":"Point","coordinates":[5.128731637819665,51.75646792730339]}},{"type":"Feature","properties":{"highway":"bus_stop","public_transport":"platform","name":"Bergstraat","ref:IFOPT":"NL:Q:63291330","_quaycode":"NL:Q:63291330","_town":"Wijk en Aalburg","_status":"available","_mode":"bus","_direction":77,"_visuallyAccessible":true,"_disabledAccessible":true,"geojson_lng":5.124426457088107,"geojson_lat":51.7595773607136},"geometry":{"type":"Point","coordinates":[5.124426457088107,51.7595773607136]}}]}