{"type":"FeatureCollection","features":[{"type":"Feature","properties":{"SeqNo":"6064","Type":"S","DHID":"de:08115:4735","Parent":"de:08115:4735","Name":"Nufringen Mitte","MunicipalityCode":"08115037","Municipality":"Nufringen","DistrictCode":"","District":"","Description":"","Authority":"NVBW","DelfiName":"-","THID":"D91FB300127F","LastOperationDate":"2025-02-28T00:00:00","SEV":"ja","longitude":"8,88945","latitude":"48,622841","geojson_lng":8.88945,"geojson_lat":48.622841},"geometry":{"type":"Point","coordinates":[8.88945,48.622841]}},{"type":"Feature","properties":{"SeqNo":"6065","Type":"A","DHID":"de:08115:4735:1","Parent":"de:08115:4735","Name":"Bus","MunicipalityCode":"00000000","Municipality":"-","DistrictCode":"-","District":"-","Description":"","Authority":"NVBW","DelfiName":"-","THID":"-","LastOperationDate":"","SEV":"ja","longitude":"8,88945","latitude":"48,622853","geojson_lng":8.88945,"geojson_lat":48.622853},"geometry":{"type":"Point","coordinates":[8.88945,48.622853]}},{"type":"Feature","properties":{"SeqNo":"6066","Type":"A","DHID":"de:08115:4735:2","Parent":"de:08115:4735","Name":"NBus","MunicipalityCode":"00000000","Municipality":"-","DistrictCode":"-","District":"-","Description":"","Authority":"NVBW","DelfiName":"-","THID":"-","LastOperationDate":"","SEV":"nein","longitude":"8,88945","latitude":"48,622853","geojson_lng":8.88945,"geojson_lat":48.622853},"geometry":{"type":"Point","coordinates":[8.88945,48.622853]}},{"type":"Feature","properties":{"SeqNo":"6067","Type":"Q","DHID":"de:08115:4735:1:3","Parent":"de:08115:4735:1","Name":"Rtg Gärtringen","MunicipalityCode":"00000000","Municipality":"-","DistrictCode":"-","District":"-","Description":"","Authority":"NVBW","DelfiName":"-","THID":"-","LastOperationDate":"","SEV":"ja","longitude":"8,889584","latitude":"48,622841","geojson_lng":8.889584,"geojson_lat":48.622841},"geometry":{"type":"Point","coordinates":[8.889584,48.622841]}},{"type":"Feature","properties":{"SeqNo":"6068","Type":"Q","DHID":"de:08115:4735:1:4","Parent":"de:08115:4735:1","Name":"Rtg Herrenberg","MunicipalityCode":"00000000","Municipality":"-","DistrictCode":"-","District":"-","Description":"","Authority":"NVBW","DelfiName":"-","THID":"-","LastOperationDate":"","SEV":"ja","longitude":"8,889719","latitude":"48,622841","geojson_lng":8.889719,"geojson_lat":48.622841},"geometry":{"type":"Point","coordinates":[8.889719,48.622841]}},{"type":"Feature","properties":{"SeqNo":"6069","Type":"Q","DHID":"de:08115:4735:1:5","Parent":"de:08115:4735:1","Name":"Bauhaltestelle Rtg Gärtringen","MunicipalityCode":"00000000","Municipality":"-","DistrictCode":"-","District":"-","Description":"","Authority":"NVBW","DelfiName":"-","THID":"-","LastOperationDate":"","SEV":"nein","longitude":"8,889854","latitude":"48,622841","geojson_lng":8.889854,"geojson_lat":48.622841},"geometry":{"type":"Point","coordinates":[8.889854,48.622841]}},{"type":"Feature","properties":{"SeqNo":"6070","Type":"Q","DHID":"de:08115:4735:1:6","Parent":"de:08115:4735:1","Name":"Bauhaltestelle Rtg Herrenberg","MunicipalityCode":"00000000","Municipality":"-","DistrictCode":"-","District":"-","Description":"","Authority":"NVBW","DelfiName":"-","THID":"-","LastOperationDate":"","SEV":"nein","longitude":"8,889989","latitude":"48,622841","geojson_lng":8.889989,"geojson_lat":48.622841},"geometry":{"type":"Point","coordinates":[8.889989,48.622841]}},{"type":"Feature","properties":{"SeqNo":"6472","Type":"S","DHID":"de:08115:5775","Parent":"de:08115:5775","Name":"Nufringen","MunicipalityCode":"08115037","Municipality":"Nufringen","DistrictCode":"-","District":"-","Description":"","Authority":"NVBW","DelfiName":"-","THID":"D91FB300168F","LastOperationDate":"2025-06-14T00:00:00","SEV":"nein","longitude":"8,889818","latitude":"48,620109","geojson_lng":8.889818,"geojson_lat":48.620109},"geometry":{"type":"Point","coordinates":[8.889818,48.620109]}},{"type":"Feature","properties":{"SeqNo":"6473","Type":"A","DHID":"de:08115:5775:1","Parent":"de:08115:5775","Name":"S/R","MunicipalityCode":"00000000","Municipality":"-","DistrictCode":"-","District":"-","Description":"S/R","Authority":"NVBW","DelfiName":"-","THID":"-","LastOperationDate":"","SEV":"nein","longitude":"8,889845","latitude":"48,620109","geojson_lng":8.889845,"geojson_lat":48.620109},"geometry":{"type":"Point","coordinates":[8.889845,48.620109]}},{"type":"Feature","properties":{"SeqNo":"6474","Type":"A","DHID":"de:08115:5775:2","Parent":"de:08115:5775","Name":"Bus","MunicipalityCode":"00000000","Municipality":"-","DistrictCode":"-","District":"-","Description":"Bus","Authority":"NVBW","DelfiName":"-","THID":"-","LastOperationDate":"","SEV":"nein","longitude":"8,889216","latitude":"48,620477","geojson_lng":8.889216,"geojson_lat":48.620477},"geometry":{"type":"Point","coordinates":[8.889216,48.620477]}},{"type":"Feature","properties":{"SeqNo":"6475","Type":"A","DHID":"de:08115:5775:50","Parent":"de:08115:5775","Name":"B+R-Platz","MunicipalityCode":"00000000","Municipality":"-","DistrictCode":"-","District":"-","Description":"B+R-Platz","Authority":"NVBW","DelfiName":"-","THID":"-","LastOperationDate":"","SEV":"nein","longitude":"8,891022","latitude":"48,621083","geojson_lng":8.891022,"geojson_lat":48.621083},"geometry":{"type":"Point","coordinates":[8.891022,48.621083]}},{"type":"Feature","properties":{"SeqNo":"6477","Type":"A","DHID":"de:08115:5775:80","Parent":"de:08115:5775","Name":"Unterführg Rtg Herrb","MunicipalityCode":"00000000","Municipality":"-","DistrictCode":"-","District":"-","Description":"Unterführg Rtg Herrb","Authority":"NVBW","DelfiName":"-","THID":"-","LastOperationDate":"","SEV":"nein","longitude":"8,88998","latitude":"48,620198","geojson_lng":8.88998,"geojson_lat":48.620198},"geometry":{"type":"Point","coordinates":[8.88998,48.620198]}},{"type":"Feature","properties":{"SeqNo":"6478","Type":"A","DHID":"de:08115:5775:81","Parent":"de:08115:5775","Name":"Unterführg Rtg BB","MunicipalityCode":"00000000","Municipality":"-","DistrictCode":"-","District":"-","Description":"Unterführg Rtg BB","Authority":"NVBW","DelfiName":"-","THID":"-","LastOperationDate":"","SEV":"nein","longitude":"8,891363","latitude":"48,621071","geojson_lng":8.891363,"geojson_lat":48.621071},"geometry":{"type":"Point","coordinates":[8.891363,48.621071]}},{"type":"Feature","properties":{"SeqNo":"6479","Type":"A","DHID":"de:08115:5775:90","Parent":"de:08115:5775","Name":"Zugang Bfstr BB","MunicipalityCode":"00000000","Municipality":"-","DistrictCode":"-","District":"-","Description":"Zugang Bfstr BB","Authority":"NVBW","DelfiName":"-","THID":"-","LastOperationDate":"","SEV":"nein","longitude":"8,891147","latitude":"48,62122","geojson_lng":8.891147,"geojson_lat":48.62122},"geometry":{"type":"Point","coordinates":[8.891147,48.62122]}},{"type":"Feature","properties":{"SeqNo":"6480","Type":"A","DHID":"de:08115:5775:91","Parent":"de:08115:5775","Name":"Zugang Bfstr Herrenb","MunicipalityCode":"00000000","Municipality":"-","DistrictCode":"-","District":"-","Description":"Zugang Bfstr Herrenb","Authority":"NVBW","DelfiName":"-","THID":"-","LastOperationDate":"","SEV":"nein","longitude":"8,889602","latitude":"48,62027","geojson_lng":8.889602,"geojson_lat":48.62027},"geometry":{"type":"Point","coordinates":[8.889602,48.62027]}},{"type":"Feature","properties":{"SeqNo":"6481","Type":"A","DHID":"de:08115:5775:92","Parent":"de:08115:5775","Name":"Zugang Wiese BB","MunicipalityCode":"00000000","Municipality":"-","DistrictCode":"-","District":"-","Description":"Zugang Wiese BB","Authority":"NVBW","DelfiName":"-","THID":"-","LastOperationDate":"","SEV":"nein","longitude":"8,89157","latitude":"48,620941","geojson_lng":8.89157,"geojson_lat":48.620941},"geometry":{"type":"Point","coordinates":[8.89157,48.620941]}},{"type":"Feature","properties":{"SeqNo":"6482","Type":"A","DHID":"de:08115:5775:93","Parent":"de:08115:5775","Name":"Zugang Wiese Herrenb","MunicipalityCode":"00000000","Municipality":"-","DistrictCode":"-","District":"-","Description":"Zugang Wiese Herrenb","Authority":"NVBW","DelfiName":"-","THID":"-","LastOperationDate":"","SEV":"nein","longitude":"8,890078","latitude":"48,620068","geojson_lng":8.890078,"geojson_lat":48.620068},"geometry":{"type":"Point","coordinates":[8.890078,48.620068]}},{"type":"Feature","properties":{"SeqNo":"6483","Type":"Q","DHID":"de:08115:5775:1:1","Parent":"de:08115:5775:1","Name":"Gleis 1","MunicipalityCode":"00000000","Municipality":"-","DistrictCode":"-","District":"-","Description":"Gleis 1","Authority":"NVBW","DelfiName":"-","THID":"-","LastOperationDate":"","SEV":"nein","longitude":"8,889764","latitude":"48,620157","geojson_lng":8.889764,"geojson_lat":48.620157},"geometry":{"type":"Point","coordinates":[8.889764,48.620157]}},{"type":"Feature","properties":{"SeqNo":"6484","Type":"Q","DHID":"de:08115:5775:1:2","Parent":"de:08115:5775:1","Name":"Gleis 2","MunicipalityCode":"00000000","Municipality":"-","DistrictCode":"-","District":"-","Description":"Gleis 2","Authority":"NVBW","DelfiName":"-","THID":"-","LastOperationDate":"","SEV":"nein","longitude":"8,88989","latitude":"48,620086","geojson_lng":8.88989,"geojson_lat":48.620086},"geometry":{"type":"Point","coordinates":[8.88989,48.620086]}},{"type":"Feature","properties":{"SeqNo":"6732","Type":"S","DHID":"de:08115:6480","Parent":"de:08115:6480","Name":"Nufringen Friedhof","MunicipalityCode":"08115037","Municipality":"Nufringen","DistrictCode":"","District":"","Description":"","Authority":"NVBW","DelfiName":"-","THID":"D91FB3001950","LastOperationDate":"2025-02-23T00:00:00","SEV":"nein","longitude":"8,897768","latitude":"48,620519","geojson_lng":8.897768,"geojson_lat":48.620519},"geometry":{"type":"Point","coordinates":[8.897768,48.620519]}},{"type":"Feature","properties":{"SeqNo":"6733","Type":"Q","DHID":"de:08115:6480:0:3","Parent":"de:08115:6480","Name":"Rtg Gärtringer Str.","MunicipalityCode":"00000000","Municipality":"-","DistrictCode":"-","District":"-","Description":"","Authority":"NVBW","DelfiName":"-","THID":"-","LastOperationDate":"","SEV":"nein","longitude":"8,897768","latitude":"48,620519","geojson_lng":8.897768,"geojson_lat":48.620519},"geometry":{"type":"Point","coordinates":[8.897768,48.620519]}},{"type":"Feature","properties":{"SeqNo":"6734","Type":"Q","DHID":"de:08115:6480:0:4","Parent":"de:08115:6480","Name":"Rtg Rohrau Rathaus","MunicipalityCode":"00000000","Municipality":"-","DistrictCode":"-","District":"-","Description":"","Authority":"NVBW","DelfiName":"-","THID":"-","LastOperationDate":"","SEV":"nein","longitude":"8,897768","latitude":"48,620519","geojson_lng":8.897768,"geojson_lat":48.620519},"geometry":{"type":"Point","coordinates":[8.897768,48.620519]}}]}