{"type":"FeatureCollection","features":[{"type":"Feature","properties":{"SeqNo":"517220","Type":"S","DHID":"de:05113:9111","Parent":"de:05113:9111","Name":"Essen Albermannstr.","MunicipalityCode":"05113000","Municipality":"Essen","DistrictCode":"-","District":"-","Description":"","Authority":"VRR","DelfiName":"-","THID":"D913F9002397","LastOperationDate":"1999-12-31T00:00:00","SEV":"nein","longitude":"7,007946","latitude":"51,386842","geojson_lng":7.007946,"geojson_lat":51.386842},"geometry":{"type":"Point","coordinates":[7.007946,51.386842]}},{"type":"Feature","properties":{"SeqNo":"517221","Type":"A","DHID":"de:05113:9111:1","Parent":"de:05113:9111","Name":"1","MunicipalityCode":"00000000","Municipality":"-","DistrictCode":"-","District":"-","Description":"Bus","Authority":"VRR","DelfiName":"-","THID":"-","LastOperationDate":"","SEV":"nein","longitude":"7,007874","latitude":"51,386853","geojson_lng":7.007874,"geojson_lat":51.386853},"geometry":{"type":"Point","coordinates":[7.007874,51.386853]}},{"type":"Feature","properties":{"SeqNo":"517222","Type":"Q","DHID":"de:05113:9111:1:1","Parent":"de:05113:9111:1","Name":"1","MunicipalityCode":"00000000","Municipality":"-","DistrictCode":"-","District":"-","Description":"190 Ri Ruhrlandklinik","Authority":"VRR","DelfiName":"-","THID":"-","LastOperationDate":"","SEV":"nein","longitude":"7,007919","latitude":"51,386803","geojson_lng":7.007919,"geojson_lat":51.386803},"geometry":{"type":"Point","coordinates":[7.007919,51.386803]}},{"type":"Feature","properties":{"SeqNo":"517223","Type":"Q","DHID":"de:05113:9111:1:2","Parent":"de:05113:9111:1","Name":"2","MunicipalityCode":"00000000","Municipality":"-","DistrictCode":"-","District":"-","Description":"190 Ri KEM","Authority":"VRR","DelfiName":"-","THID":"-","LastOperationDate":"","SEV":"nein","longitude":"7,007973","latitude":"51,386887","geojson_lng":7.007973,"geojson_lat":51.386887},"geometry":{"type":"Point","coordinates":[7.007973,51.386887]}},{"type":"Feature","properties":{"SeqNo":"518131","Type":"S","DHID":"de:05113:9237","Parent":"de:05113:9237","Name":"Essen Forstmannstr.","MunicipalityCode":"05113000","Municipality":"Essen","DistrictCode":"-","District":"-","Description":"","Authority":"VRR","DelfiName":"-","THID":"D913F9002415","LastOperationDate":"2025-06-14T00:00:00","SEV":"nein","longitude":"7,00358","latitude":"51,392162","geojson_lng":7.00358,"geojson_lat":51.392162},"geometry":{"type":"Point","coordinates":[7.00358,51.392162]}},{"type":"Feature","properties":{"SeqNo":"518132","Type":"A","DHID":"de:05113:9237:1","Parent":"de:05113:9237","Name":"1","MunicipalityCode":"00000000","Municipality":"-","DistrictCode":"-","District":"-","Description":"Bus","Authority":"VRR","DelfiName":"-","THID":"-","LastOperationDate":"","SEV":"nein","longitude":"7,003679","latitude":"51,392162","geojson_lng":7.003679,"geojson_lat":51.392162},"geometry":{"type":"Point","coordinates":[7.003679,51.392162]}},{"type":"Feature","properties":{"SeqNo":"518133","Type":"Q","DHID":"de:05113:9237:1:1","Parent":"de:05113:9237:1","Name":"1","MunicipalityCode":"00000000","Municipality":"-","DistrictCode":"-","District":"-","Description":"180 Ri BUR","Authority":"VRR","DelfiName":"-","THID":"-","LastOperationDate":"","SEV":"nein","longitude":"7,003679","latitude":"51,392212","geojson_lng":7.003679,"geojson_lat":51.392212},"geometry":{"type":"Point","coordinates":[7.003679,51.392212]}},{"type":"Feature","properties":{"SeqNo":"518134","Type":"Q","DHID":"de:05113:9237:1:2","Parent":"de:05113:9237:1","Name":"2","MunicipalityCode":"00000000","Municipality":"-","DistrictCode":"-","District":"-","Description":"180 Ri Werden","Authority":"VRR","DelfiName":"-","THID":"-","LastOperationDate":"","SEV":"nein","longitude":"7,003616","latitude":"51,392117","geojson_lng":7.003616,"geojson_lat":51.392117},"geometry":{"type":"Point","coordinates":[7.003616,51.392117]}},{"type":"Feature","properties":{"SeqNo":"519786","Type":"Q","DHID":"de:05113:9494:1:2","Parent":"de:05113:9494:1","Name":"169/NE8 Ri BRE","MunicipalityCode":"00000000","Municipality":"-","DistrictCode":"-","District":"-","Description":"","Authority":"VRR","DelfiName":"-","THID":"-","LastOperationDate":"","SEV":"nein","longitude":"7,009312","latitude":"51,388356","geojson_lng":7.009312,"geojson_lat":51.388356},"geometry":{"type":"Point","coordinates":[7.009312,51.388356]}},{"type":"Feature","properties":{"SeqNo":"520501","Type":"S","DHID":"de:05113:9618","Parent":"de:05113:9618","Name":"Essen Viehauser Berg","MunicipalityCode":"05113000","Municipality":"Essen","DistrictCode":"-","District":"-","Description":"","Authority":"VRR","DelfiName":"-","THID":"D913F9002592","LastOperationDate":"2025-06-14T00:00:00","SEV":"nein","longitude":"7,004209","latitude":"51,390323","geojson_lng":7.004209,"geojson_lat":51.390323},"geometry":{"type":"Point","coordinates":[7.004209,51.390323]}},{"type":"Feature","properties":{"SeqNo":"520502","Type":"A","DHID":"de:05113:9618:1","Parent":"de:05113:9618","Name":"1","MunicipalityCode":"00000000","Municipality":"-","DistrictCode":"-","District":"-","Description":"Bus","Authority":"VRR","DelfiName":"-","THID":"-","LastOperationDate":"","SEV":"nein","longitude":"7,004299","latitude":"51,390307","geojson_lng":7.004299,"geojson_lat":51.390307},"geometry":{"type":"Point","coordinates":[7.004299,51.390307]}},{"type":"Feature","properties":{"SeqNo":"520503","Type":"Q","DHID":"de:05113:9618:1:1","Parent":"de:05113:9618:1","Name":"1","MunicipalityCode":"00000000","Municipality":"-","DistrictCode":"-","District":"-","Description":"180 Ri BUR","Authority":"VRR","DelfiName":"-","THID":"-","LastOperationDate":"","SEV":"nein","longitude":"7,004218","latitude":"51,390312","geojson_lng":7.004218,"geojson_lat":51.390312},"geometry":{"type":"Point","coordinates":[7.004218,51.390312]}},{"type":"Feature","properties":{"SeqNo":"520504","Type":"Q","DHID":"de:05113:9618:1:2","Parent":"de:05113:9618:1","Name":"2","MunicipalityCode":"00000000","Municipality":"-","DistrictCode":"-","District":"-","Description":"180 Ri Werden","Authority":"VRR","DelfiName":"-","THID":"-","LastOperationDate":"","SEV":"nein","longitude":"7,004209","latitude":"51,390307","geojson_lng":7.004209,"geojson_lat":51.390307},"geometry":{"type":"Point","coordinates":[7.004209,51.390307]}},{"type":"Feature","properties":{"SeqNo":"520623","Type":"S","DHID":"de:05113:9638","Parent":"de:05113:9638","Name":"Essen Werden Brücke","MunicipalityCode":"05113000","Municipality":"Essen","DistrictCode":"-","District":"-","Description":"","Authority":"VRR","DelfiName":"-","THID":"D913F90025A6","LastOperationDate":"2025-06-14T00:00:00","SEV":"nein","longitude":"6,999637","latitude":"51,387134","geojson_lng":6.999637,"geojson_lat":51.387134},"geometry":{"type":"Point","coordinates":[6.999637,51.387134]}},{"type":"Feature","properties":{"SeqNo":"520624","Type":"A","DHID":"de:05113:9638:1","Parent":"de:05113:9638","Name":"1","MunicipalityCode":"00000000","Municipality":"-","DistrictCode":"-","District":"-","Description":"190 Ri Papiermühl","Authority":"VRR","DelfiName":"-","THID":"-","LastOperationDate":"","SEV":"nein","longitude":"7,000212","latitude":"51,386719","geojson_lng":7.000212,"geojson_lat":51.386719},"geometry":{"type":"Point","coordinates":[7.000212,51.386719]}},{"type":"Feature","properties":{"SeqNo":"520625","Type":"A","DHID":"de:05113:9638:2","Parent":"de:05113:9638","Name":"2","MunicipalityCode":"00000000","Municipality":"-","DistrictCode":"-","District":"-","Description":"190 Ri Kettwig","Authority":"VRR","DelfiName":"-","THID":"-","LastOperationDate":"","SEV":"nein","longitude":"7,000023","latitude":"51,387436","geojson_lng":7.000023,"geojson_lat":51.387436},"geometry":{"type":"Point","coordinates":[7.000023,51.387436]}},{"type":"Feature","properties":{"SeqNo":"520626","Type":"Q","DHID":"de:05113:9638:1:1","Parent":"de:05113:9638:1","Name":"1","MunicipalityCode":"00000000","Municipality":"-","DistrictCode":"-","District":"-","Description":"190 Ri Papiermuehle","Authority":"VRR","DelfiName":"-","THID":"-","LastOperationDate":"","SEV":"nein","longitude":"7,000158","latitude":"51,386691","geojson_lng":7.000158,"geojson_lat":51.386691},"geometry":{"type":"Point","coordinates":[7.000158,51.386691]}},{"type":"Feature","properties":{"SeqNo":"520627","Type":"Q","DHID":"de:05113:9638:2:2","Parent":"de:05113:9638:2","Name":"2","MunicipalityCode":"00000000","Municipality":"-","DistrictCode":"-","District":"-","Description":"190 Ri Kettwiger Markt","Authority":"VRR","DelfiName":"-","THID":"-","LastOperationDate":"","SEV":"nein","longitude":"7,000068","latitude":"51,387392","geojson_lng":7.000068,"geojson_lat":51.387392},"geometry":{"type":"Point","coordinates":[7.000068,51.387392]}},{"type":"Feature","properties":{"SeqNo":"520628","Type":"S","DHID":"de:05113:9639","Parent":"de:05113:9639","Name":"Essen Werdener Markt","MunicipalityCode":"05113000","Municipality":"Essen","DistrictCode":"","District":"","Description":"","Authority":"VRR","DelfiName":"-","THID":"D913F90025A7","LastOperationDate":"2025-06-14T00:00:00","SEV":"nein","longitude":"7,003266","latitude":"51,38835","geojson_lng":7.003266,"geojson_lat":51.38835},"geometry":{"type":"Point","coordinates":[7.003266,51.38835]}},{"type":"Feature","properties":{"SeqNo":"520629","Type":"A","DHID":"de:05113:9639:1","Parent":"de:05113:9639","Name":"Bus Ri VEL","MunicipalityCode":"00000000","Municipality":"-","DistrictCode":"-","District":"-","Description":"","Authority":"VRR","DelfiName":"-","THID":"-","LastOperationDate":"","SEV":"nein","longitude":"7,003311","latitude":"51,388249","geojson_lng":7.003311,"geojson_lat":51.388249},"geometry":{"type":"Point","coordinates":[7.003311,51.388249]}},{"type":"Feature","properties":{"SeqNo":"520630","Type":"A","DHID":"de:05113:9639:2","Parent":"de:05113:9639","Name":"Bus Ri BRE","MunicipalityCode":"00000000","Municipality":"-","DistrictCode":"-","District":"-","Description":"","Authority":"VRR","DelfiName":"-","THID":"-","LastOperationDate":"","SEV":"nein","longitude":"7,003221","latitude":"51,388429","geojson_lng":7.003221,"geojson_lat":51.388429},"geometry":{"type":"Point","coordinates":[7.003221,51.388429]}},{"type":"Feature","properties":{"SeqNo":"520631","Type":"A","DHID":"de:05113:9639:3","Parent":"de:05113:9639","Name":"Bus Ri Werden (182)","MunicipalityCode":"00000000","Municipality":"-","DistrictCode":"-","District":"-","Description":"","Authority":"VRR","DelfiName":"-","THID":"-","LastOperationDate":"","SEV":"nein","longitude":"7,0035","latitude":"51,387246","geojson_lng":7.0035,"geojson_lat":51.387246},"geometry":{"type":"Point","coordinates":[7.0035,51.387246]}},{"type":"Feature","properties":{"SeqNo":"520632","Type":"A","DHID":"de:05113:9639:4","Parent":"de:05113:9639","Name":"Bus Ri Heidhs. (192)","MunicipalityCode":"00000000","Municipality":"-","DistrictCode":"-","District":"-","Description":"","Authority":"VRR","DelfiName":"-","THID":"-","LastOperationDate":"","SEV":"nein","longitude":"7,003589","latitude":"51,387156","geojson_lng":7.003589,"geojson_lat":51.387156},"geometry":{"type":"Point","coordinates":[7.003589,51.387156]}},{"type":"Feature","properties":{"SeqNo":"520633","Type":"Q","DHID":"de:05113:9639:1:1","Parent":"de:05113:9639:1","Name":"169/NE8 Ri VEL","MunicipalityCode":"00000000","Municipality":"-","DistrictCode":"-","District":"-","Description":"","Authority":"VRR","DelfiName":"-","THID":"-","LastOperationDate":"","SEV":"nein","longitude":"7,003356","latitude":"51,388277","geojson_lng":7.003356,"geojson_lat":51.388277},"geometry":{"type":"Point","coordinates":[7.003356,51.388277]}},{"type":"Feature","properties":{"SeqNo":"520634","Type":"Q","DHID":"de:05113:9639:1:2","Parent":"de:05113:9639:2","Name":"169/NE8 Ri BRE","MunicipalityCode":"00000000","Municipality":"-","DistrictCode":"-","District":"-","Description":"","Authority":"VRR","DelfiName":"-","THID":"-","LastOperationDate":"","SEV":"nein","longitude":"7,003185","latitude":"51,388423","geojson_lng":7.003185,"geojson_lat":51.388423},"geometry":{"type":"Point","coordinates":[7.003185,51.388423]}},{"type":"Feature","properties":{"SeqNo":"520635","Type":"Q","DHID":"de:05113:9639:3:3","Parent":"de:05113:9639:3","Name":"Bus Ri Werden (182)","MunicipalityCode":"00000000","Municipality":"-","DistrictCode":"-","District":"-","Description":"","Authority":"VRR","DelfiName":"-","THID":"-","LastOperationDate":"","SEV":"nein","longitude":"7,003482","latitude":"51,387235","geojson_lng":7.003482,"geojson_lat":51.387235},"geometry":{"type":"Point","coordinates":[7.003482,51.387235]}},{"type":"Feature","properties":{"SeqNo":"520636","Type":"Q","DHID":"de:05113:9639:4:4","Parent":"de:05113:9639:4","Name":"Bus Ri Heidhs. (192)","MunicipalityCode":"00000000","Municipality":"-","DistrictCode":"-","District":"-","Description":"","Authority":"VRR","DelfiName":"-","THID":"-","LastOperationDate":"","SEV":"nein","longitude":"7,003607","latitude":"51,38715","geojson_lng":7.003607,"geojson_lat":51.38715},"geometry":{"type":"Point","coordinates":[7.003607,51.38715]}},{"type":"Feature","properties":{"SeqNo":"520638","Type":"A","DHID":"de:05113:9640:2","Parent":"de:05113:9640","Name":"Busplatz","MunicipalityCode":"00000000","Municipality":"-","DistrictCode":"-","District":"-","Description":"","Authority":"VRR","DelfiName":"-","THID":"-","LastOperationDate":"","SEV":"nein","longitude":"6,998181","latitude":"51,38659","geojson_lng":6.998181,"geojson_lat":51.38659},"geometry":{"type":"Point","coordinates":[6.998181,51.38659]}},{"type":"Feature","properties":{"SeqNo":"520640","Type":"A","DHID":"de:05113:9640:4","Parent":"de:05113:9640","Name":"Bus 169 Ri BRE","MunicipalityCode":"00000000","Municipality":"-","DistrictCode":"-","District":"-","Description":"","Authority":"VRR","DelfiName":"-","THID":"-","LastOperationDate":"","SEV":"nein","longitude":"6,998173","latitude":"51,3877","geojson_lng":6.998173,"geojson_lat":51.3877},"geometry":{"type":"Point","coordinates":[6.998173,51.3877]}},{"type":"Feature","properties":{"SeqNo":"520646","Type":"A","DHID":"de:05113:9640:80","Parent":"de:05113:9640","Name":"Park & Ride","MunicipalityCode":"00000000","Municipality":"-","DistrictCode":"-","District":"-","Description":"","Authority":"VRR","DelfiName":"-","THID":"-","LastOperationDate":"","SEV":"nein","longitude":"6,998217","latitude":"51,385642","geojson_lng":6.998217,"geojson_lat":51.385642},"geometry":{"type":"Point","coordinates":[6.998217,51.385642]}},{"type":"Feature","properties":{"SeqNo":"520653","Type":"Q","DHID":"de:05113:9640:2:2","Parent":"de:05113:9640:2","Name":"Bus Ri Werden","MunicipalityCode":"00000000","Municipality":"-","DistrictCode":"-","District":"-","Description":"","Authority":"VRR","DelfiName":"-","THID":"-","LastOperationDate":"","SEV":"nein","longitude":"6,998164","latitude":"51,386483","geojson_lng":6.998164,"geojson_lat":51.386483},"geometry":{"type":"Point","coordinates":[6.998164,51.386483]}},{"type":"Feature","properties":{"SeqNo":"520654","Type":"Q","DHID":"de:05113:9640:2:3","Parent":"de:05113:9640:2","Name":"Bus Ri KEM","MunicipalityCode":"00000000","Municipality":"-","DistrictCode":"-","District":"-","Description":"","Authority":"VRR","DelfiName":"-","THID":"-","LastOperationDate":"","SEV":"nein","longitude":"6,998361","latitude":"51,386674","geojson_lng":6.998361,"geojson_lat":51.386674},"geometry":{"type":"Point","coordinates":[6.998361,51.386674]}},{"type":"Feature","properties":{"SeqNo":"521505","Type":"S","DHID":"de:05113:9893","Parent":"de:05113:9893","Name":"Essen An der Stadtmauer","MunicipalityCode":"05113000","Municipality":"Essen","DistrictCode":"","District":"","Description":"","Authority":"VRR","DelfiName":"-","THID":"D913F90026A5","LastOperationDate":"2025-06-14T00:00:00","SEV":"nein","longitude":"7,005521","latitude":"51,386287","geojson_lng":7.005521,"geojson_lat":51.386287},"geometry":{"type":"Point","coordinates":[7.005521,51.386287]}},{"type":"Feature","properties":{"SeqNo":"521506","Type":"A","DHID":"de:05113:9893:1","Parent":"de:05113:9893","Name":"Bus Ri Heidhs. (192)","MunicipalityCode":"00000000","Municipality":"-","DistrictCode":"-","District":"-","Description":"","Authority":"VRR","DelfiName":"-","THID":"-","LastOperationDate":"","SEV":"nein","longitude":"7,005494","latitude":"51,386293","geojson_lng":7.005494,"geojson_lat":51.386293},"geometry":{"type":"Point","coordinates":[7.005494,51.386293]}},{"type":"Feature","properties":{"SeqNo":"521507","Type":"A","DHID":"de:05113:9893:2","Parent":"de:05113:9893","Name":"Bus Ri Werden (182)","MunicipalityCode":"00000000","Municipality":"-","DistrictCode":"-","District":"-","Description":"","Authority":"VRR","DelfiName":"-","THID":"-","LastOperationDate":"","SEV":"nein","longitude":"7,005557","latitude":"51,386282","geojson_lng":7.005557,"geojson_lat":51.386282},"geometry":{"type":"Point","coordinates":[7.005557,51.386282]}},{"type":"Feature","properties":{"SeqNo":"521508","Type":"Q","DHID":"de:05113:9893:1:1","Parent":"de:05113:9893:1","Name":"Bus Ri Heidhs. (192)","MunicipalityCode":"00000000","Municipality":"-","DistrictCode":"-","District":"-","Description":"","Authority":"VRR","DelfiName":"-","THID":"-","LastOperationDate":"","SEV":"nein","longitude":"7,005485","latitude":"51,386326","geojson_lng":7.005485,"geojson_lat":51.386326},"geometry":{"type":"Point","coordinates":[7.005485,51.386326]}},{"type":"Feature","properties":{"SeqNo":"521509","Type":"Q","DHID":"de:05113:9893:2:2","Parent":"de:05113:9893:2","Name":"Bus Ri Werden (182)","MunicipalityCode":"00000000","Municipality":"-","DistrictCode":"-","District":"-","Description":"","Authority":"VRR","DelfiName":"-","THID":"-","LastOperationDate":"","SEV":"nein","longitude":"7,005539","latitude":"51,386298","geojson_lng":7.005539,"geojson_lat":51.386298},"geometry":{"type":"Point","coordinates":[7.005539,51.386298]}}]}