{"type":"FeatureCollection","features":[{"type":"Feature","properties":{"SeqNo":"539315","Type":"S","DHID":"de:05158:13955","Parent":"de:05158:13955","Name":"Haan Seilbahnweg","MunicipalityCode":"05158008","Municipality":"Haan","DistrictCode":"","District":"","Description":"","Authority":"VRR","DelfiName":"-","THID":"D91426003683","LastOperationDate":"2025-06-14T00:00:00","SEV":"nein","longitude":"7,005988","latitude":"51,218679","geojson_lng":7.005988,"geojson_lat":51.218679},"geometry":{"type":"Point","coordinates":[7.005988,51.218679]}},{"type":"Feature","properties":{"SeqNo":"539316","Type":"A","DHID":"de:05158:13955:1","Parent":"de:05158:13955","Name":"für Steig 1","MunicipalityCode":"00000000","Municipality":"-","DistrictCode":"-","District":"-","Description":"","Authority":"VRR","DelfiName":"-","THID":"-","LastOperationDate":"","SEV":"nein","longitude":"7,005467","latitude":"51,218769","geojson_lng":7.005467,"geojson_lat":51.218769},"geometry":{"type":"Point","coordinates":[7.005467,51.218769]}},{"type":"Feature","properties":{"SeqNo":"539317","Type":"A","DHID":"de:05158:13955:2","Parent":"de:05158:13955","Name":"für Steig 2","MunicipalityCode":"00000000","Municipality":"-","DistrictCode":"-","District":"-","Description":"","Authority":"VRR","DelfiName":"-","THID":"-","LastOperationDate":"","SEV":"nein","longitude":"7,00659","latitude":"51,2186","geojson_lng":7.00659,"geojson_lat":51.2186},"geometry":{"type":"Point","coordinates":[7.00659,51.2186]}},{"type":"Feature","properties":{"SeqNo":"539318","Type":"Q","DHID":"de:05158:13955:0:1","Parent":"de:05158:13955:1","Name":"Ri. Gruiten S","MunicipalityCode":"00000000","Municipality":"-","DistrictCode":"-","District":"-","Description":"","Authority":"VRR","DelfiName":"-","THID":"-","LastOperationDate":"","SEV":"nein","longitude":"7,005476","latitude":"51,218786","geojson_lng":7.005476,"geojson_lat":51.218786},"geometry":{"type":"Point","coordinates":[7.005476,51.218786]}},{"type":"Feature","properties":{"SeqNo":"539319","Type":"Q","DHID":"de:05158:13955:1:1","Parent":"de:05158:13955:1","Name":"Ri. Gruiten S","MunicipalityCode":"00000000","Municipality":"-","DistrictCode":"-","District":"-","Description":"","Authority":"VRR","DelfiName":"-","THID":"-","LastOperationDate":"","SEV":"nein","longitude":"7,005467","latitude":"51,218786","geojson_lng":7.005467,"geojson_lat":51.218786},"geometry":{"type":"Point","coordinates":[7.005467,51.218786]}},{"type":"Feature","properties":{"SeqNo":"539320","Type":"Q","DHID":"de:05158:13955:0:2","Parent":"de:05158:13955:2","Name":"Ri. Sinterstraße","MunicipalityCode":"00000000","Municipality":"-","DistrictCode":"-","District":"-","Description":"","Authority":"VRR","DelfiName":"-","THID":"-","LastOperationDate":"","SEV":"nein","longitude":"7,006581","latitude":"51,218583","geojson_lng":7.006581,"geojson_lat":51.218583},"geometry":{"type":"Point","coordinates":[7.006581,51.218583]}},{"type":"Feature","properties":{"SeqNo":"539321","Type":"Q","DHID":"de:05158:13955:2:2","Parent":"de:05158:13955:2","Name":"Ri. SinterstraÃŸe","MunicipalityCode":"00000000","Municipality":"-","DistrictCode":"-","District":"-","Description":"","Authority":"VRR","DelfiName":"-","THID":"-","LastOperationDate":"","SEV":"nein","longitude":"7,006581","latitude":"51,218583","geojson_lng":7.006581,"geojson_lat":51.218583},"geometry":{"type":"Point","coordinates":[7.006581,51.218583]}},{"type":"Feature","properties":{"SeqNo":"539357","Type":"A","DHID":"de:05158:13966:3","Parent":"de:05158:13966","Name":"für Steig 3","MunicipalityCode":"00000000","Municipality":"-","DistrictCode":"-","District":"-","Description":"","Authority":"VRR","DelfiName":"-","THID":"-","LastOperationDate":"","SEV":"nein","longitude":"7,00924","latitude":"51,217902","geojson_lng":7.00924,"geojson_lat":51.217902},"geometry":{"type":"Point","coordinates":[7.00924,51.217902]}},{"type":"Feature","properties":{"SeqNo":"539361","Type":"Q","DHID":"de:05158:13966:2:3","Parent":"de:05158:13966:2","Name":"Ri. Sinterstr.","MunicipalityCode":"00000000","Municipality":"-","DistrictCode":"-","District":"-","Description":"","Authority":"VRR","DelfiName":"-","THID":"-","LastOperationDate":"","SEV":"nein","longitude":"7,009276","latitude":"51,217846","geojson_lng":7.009276,"geojson_lat":51.217846},"geometry":{"type":"Point","coordinates":[7.009276,51.217846]}},{"type":"Feature","properties":{"SeqNo":"539362","Type":"Q","DHID":"de:05158:13966:3:3","Parent":"de:05158:13966:3","Name":"Ri. Sinterstr.","MunicipalityCode":"00000000","Municipality":"-","DistrictCode":"-","District":"-","Description":"","Authority":"VRR","DelfiName":"-","THID":"-","LastOperationDate":"","SEV":"nein","longitude":"7,00924","latitude":"51,217874","geojson_lng":7.00924,"geojson_lat":51.217874},"geometry":{"type":"Point","coordinates":[7.00924,51.217874]}},{"type":"Feature","properties":{"SeqNo":"539384","Type":"A","DHID":"de:05158:13970:70","Parent":"de:05158:13970","Name":"P+R","MunicipalityCode":"00000000","Municipality":"-","DistrictCode":"-","District":"-","Description":"","Authority":"VRR","DelfiName":"-","THID":"-","LastOperationDate":"","SEV":"nein","longitude":"7,008782","latitude":"51,214774","geojson_lng":7.008782,"geojson_lat":51.214774},"geometry":{"type":"Point","coordinates":[7.008782,51.214774]}},{"type":"Feature","properties":{"SeqNo":"539385","Type":"A","DHID":"de:05158:13970:71","Parent":"de:05158:13970","Name":"Zugang P+R","MunicipalityCode":"00000000","Municipality":"-","DistrictCode":"-","District":"-","Description":"","Authority":"VRR","DelfiName":"-","THID":"-","LastOperationDate":"","SEV":"nein","longitude":"7,008836","latitude":"51,214639","geojson_lng":7.008836,"geojson_lat":51.214639},"geometry":{"type":"Point","coordinates":[7.008836,51.214639]}},{"type":"Feature","properties":{"SeqNo":"539386","Type":"A","DHID":"de:05158:13970:72","Parent":"de:05158:13970","Name":"Unterführung P+R","MunicipalityCode":"00000000","Municipality":"-","DistrictCode":"-","District":"-","Description":"","Authority":"VRR","DelfiName":"-","THID":"-","LastOperationDate":"","SEV":"nein","longitude":"7,008871","latitude":"51,214453","geojson_lng":7.008871,"geojson_lat":51.214453},"geometry":{"type":"Point","coordinates":[7.008871,51.214453]}}]}