{"type":"FeatureCollection","features":[{"type":"Feature","properties":{"SeqNo":"673932","Type":"S","DHID":"de:05954:5538","Parent":"de:05954:5538","Name":"Witten Vormholz","MunicipalityCode":"05954036","Municipality":"Witten","DistrictCode":"-","District":"-","Description":"","Authority":"VRR","DelfiName":"-","THID":"D917420015A2","LastOperationDate":"2025-02-28T00:00:00","SEV":"nein","longitude":"7,295847","latitude":"51,410129","geojson_lng":7.295847,"geojson_lat":51.410129},"geometry":{"type":"Point","coordinates":[7.295847,51.410129]}},{"type":"Feature","properties":{"SeqNo":"673933","Type":"A","DHID":"de:05954:5538:1","Parent":"de:05954:5538","Name":"Ri. Hardenst Weg","MunicipalityCode":"00000000","Municipality":"-","DistrictCode":"-","District":"-","Description":"Ri. Hardenst Weg","Authority":"VRR","DelfiName":"-","THID":"-","LastOperationDate":"","SEV":"nein","longitude":"7,295838","latitude":"51,410219","geojson_lng":7.295838,"geojson_lat":51.410219},"geometry":{"type":"Point","coordinates":[7.295838,51.410219]}},{"type":"Feature","properties":{"SeqNo":"673934","Type":"A","DHID":"de:05954:5538:2","Parent":"de:05954:5538","Name":"Ri. Stadtf. Vormh","MunicipalityCode":"00000000","Municipality":"-","DistrictCode":"-","District":"-","Description":"Ri. Stadtf. Vormh","Authority":"VRR","DelfiName":"-","THID":"-","LastOperationDate":"","SEV":"nein","longitude":"7,295847","latitude":"51,41004","geojson_lng":7.295847,"geojson_lat":51.41004},"geometry":{"type":"Point","coordinates":[7.295847,51.41004]}},{"type":"Feature","properties":{"SeqNo":"673935","Type":"Q","DHID":"de:05954:5538:0:01","Parent":"de:05954:5538:1","Name":"Ri. Hardensteiner Weg","MunicipalityCode":"00000000","Municipality":"-","DistrictCode":"-","District":"-","Description":"Ri. Hardensteiner Weg","Authority":"VRR","DelfiName":"-","THID":"-","LastOperationDate":"","SEV":"nein","longitude":"7,295784","latitude":"51,410213","geojson_lng":7.295784,"geojson_lat":51.410213},"geometry":{"type":"Point","coordinates":[7.295784,51.410213]}},{"type":"Feature","properties":{"SeqNo":"673936","Type":"Q","DHID":"de:05954:5538:0:02","Parent":"de:05954:5538:2","Name":"Ri. Stadtforst Vormholz","MunicipalityCode":"00000000","Municipality":"-","DistrictCode":"-","District":"-","Description":"Ri. Stadtforst Vormholz","Authority":"VRR","DelfiName":"-","THID":"-","LastOperationDate":"","SEV":"nein","longitude":"7,29591","latitude":"51,410062","geojson_lng":7.29591,"geojson_lat":51.410062},"geometry":{"type":"Point","coordinates":[7.29591,51.410062]}},{"type":"Feature","properties":{"SeqNo":"674343","Type":"S","DHID":"de:05954:6096","Parent":"de:05954:6096","Name":"Witten Stadtforst Vormholz","MunicipalityCode":"05954036","Municipality":"Witten","DistrictCode":"-","District":"-","Description":"","Authority":"VRR","DelfiName":"-","THID":"D917420017D0","LastOperationDate":"2025-02-28T00:00:00","SEV":"nein","longitude":"7,29609","latitude":"51,406621","geojson_lng":7.29609,"geojson_lat":51.406621},"geometry":{"type":"Point","coordinates":[7.29609,51.406621]}},{"type":"Feature","properties":{"SeqNo":"674344","Type":"A","DHID":"de:05954:6096:1","Parent":"de:05954:6096","Name":"Ri. Vormholz","MunicipalityCode":"00000000","Municipality":"-","DistrictCode":"-","District":"-","Description":"Ri. Vormholz","Authority":"VRR","DelfiName":"-","THID":"-","LastOperationDate":"","SEV":"nein","longitude":"7,296171","latitude":"51,406672","geojson_lng":7.296171,"geojson_lat":51.406672},"geometry":{"type":"Point","coordinates":[7.296171,51.406672]}},{"type":"Feature","properties":{"SeqNo":"674345","Type":"A","DHID":"de:05954:6096:2","Parent":"de:05954:6096","Name":"Ri. Zum Wiesengrund","MunicipalityCode":"00000000","Municipality":"-","DistrictCode":"-","District":"-","Description":"Ri. Zum Wiesengrund","Authority":"VRR","DelfiName":"-","THID":"-","LastOperationDate":"","SEV":"nein","longitude":"7,296","latitude":"51,406593","geojson_lng":7.296,"geojson_lat":51.406593},"geometry":{"type":"Point","coordinates":[7.296,51.406593]}},{"type":"Feature","properties":{"SeqNo":"674346","Type":"A","DHID":"de:05954:6096:3","Parent":"de:05954:6096","Name":"von Kurhaus","MunicipalityCode":"00000000","Municipality":"-","DistrictCode":"-","District":"-","Description":"von Kurhaus","Authority":"VRR","DelfiName":"-","THID":"-","LastOperationDate":"","SEV":"nein","longitude":"7,29573","latitude":"51,406089","geojson_lng":7.29573,"geojson_lat":51.406089},"geometry":{"type":"Point","coordinates":[7.29573,51.406089]}},{"type":"Feature","properties":{"SeqNo":"674347","Type":"Q","DHID":"de:05954:6096:0:01","Parent":"de:05954:6096:1","Name":"Ri. Vormholz","MunicipalityCode":"00000000","Municipality":"-","DistrictCode":"-","District":"-","Description":"Ri. Vormholz","Authority":"VRR","DelfiName":"-","THID":"-","LastOperationDate":"","SEV":"nein","longitude":"7,296117","latitude":"51,406683","geojson_lng":7.296117,"geojson_lat":51.406683},"geometry":{"type":"Point","coordinates":[7.296117,51.406683]}},{"type":"Feature","properties":{"SeqNo":"674348","Type":"Q","DHID":"de:05954:6096:0:02","Parent":"de:05954:6096:2","Name":"Ri. Zum Wiesengrund","MunicipalityCode":"00000000","Municipality":"-","DistrictCode":"-","District":"-","Description":"Ri. Zum Wiesengrund","Authority":"VRR","DelfiName":"-","THID":"-","LastOperationDate":"","SEV":"nein","longitude":"7,296063","latitude":"51,406588","geojson_lng":7.296063,"geojson_lat":51.406588},"geometry":{"type":"Point","coordinates":[7.296063,51.406588]}},{"type":"Feature","properties":{"SeqNo":"674349","Type":"Q","DHID":"de:05954:6096:0:03","Parent":"de:05954:6096:3","Name":"von Kurhaus","MunicipalityCode":"00000000","Municipality":"-","DistrictCode":"-","District":"-","Description":"von Kurhaus","Authority":"VRR","DelfiName":"-","THID":"-","LastOperationDate":"","SEV":"nein","longitude":"7,295695","latitude":"51,406123","geojson_lng":7.295695,"geojson_lat":51.406123},"geometry":{"type":"Point","coordinates":[7.295695,51.406123]}}]}