{"type":"FeatureCollection","features":[{"type":"Feature","properties":{"highway":"bus_stop","public_transport":"platform","name":"VU Medisch Centrum","ref:IFOPT":"NL:Q:57142600","_quaycode":"NL:Q:57142600","_town":"Amsterdam","_status":"available","_mode":"bus","_direction":8,"_visuallyAccessible":true,"_disabledAccessible":true,"geojson_lng":4.857508588443199,"geojson_lat":52.33488422447709},"geometry":{"type":"Point","coordinates":[4.857508588443199,52.33488422447709]}},{"type":"Feature","properties":{"highway":"bus_stop","public_transport":"platform","name":"VU Medisch Centrum","ref:IFOPT":"NL:Q:57142590","_quaycode":"NL:Q:57142590","_town":"Amsterdam","_status":"available","_mode":"bus","_direction":188,"_visuallyAccessible":true,"_disabledAccessible":true,"geojson_lng":4.857232731954204,"geojson_lat":52.33464031875479},"geometry":{"type":"Point","coordinates":[4.857232731954204,52.33464031875479]}},{"type":"Feature","properties":{"highway":"bus_stop","public_transport":"platform","name":"De Boelelaan/VU","ref:IFOPT":"NL:Q:30007132","_quaycode":"NL:Q:30007132","_town":"Amsterdam","_status":"available","_mode":"bus","_direction":270,"_visuallyAccessible":false,"_disabledAccessible":true,"geojson_lng":4.8662062929198395,"geojson_lat":52.33512057017732},"geometry":{"type":"Point","coordinates":[4.8662062929198395,52.33512057017732]}},{"type":"Feature","properties":{"highway":"bus_stop","public_transport":"platform","name":"VUmc/Boechorststraat","ref:IFOPT":"NL:Q:30007136","_quaycode":"NL:Q:30007136","_town":"Amsterdam","_status":"available","_mode":"bus","_direction":358,"_visuallyAccessible":false,"_disabledAccessible":false,"geojson_lng":4.861856366524639,"geojson_lat":52.3344721925728},"geometry":{"type":"Point","coordinates":[4.861856366524639,52.3344721925728]}},{"type":"Feature","properties":{"highway":"bus_stop","public_transport":"platform","name":"Overijsselweg","ref:IFOPT":"NL:Q:30007135","_quaycode":"NL:Q:30007135","_town":"Amsterdam","_status":"available","_mode":"bus","_direction":180,"_visuallyAccessible":false,"_disabledAccessible":false,"geojson_lng":4.861727740978161,"geojson_lat":52.33170337937784},"geometry":{"type":"Point","coordinates":[4.861727740978161,52.33170337937784]}},{"type":"Feature","properties":{"highway":"bus_stop","public_transport":"platform","name":"Overijsselweg","ref:IFOPT":"NL:Q:30007134","_quaycode":"NL:Q:30007134","_town":"Amsterdam","_status":"available","_mode":"bus","_direction":0,"_visuallyAccessible":false,"_disabledAccessible":false,"geojson_lng":4.861893470651872,"geojson_lat":52.33257593190294},"geometry":{"type":"Point","coordinates":[4.861893470651872,52.33257593190294]}}]}