{"type":"FeatureCollection","features":[{"type":"Feature","properties":{"SeqNo":"460373","Type":"S","DHID":"de:06532:21783","Parent":"de:06532:21783","Name":"Dillenburg-Nanzenbach Querstraße","MunicipalityCode":"06532006","Municipality":"Dillenburg","DistrictCode":"-","District":"-","Description":"","Authority":"rms","DelfiName":"-","THID":"D91984005517","LastOperationDate":"2025-06-14T00:00:00","SEV":"nein","longitude":"8,333264","latitude":"50,772622","geojson_lng":8.333264,"geojson_lat":50.772622},"geometry":{"type":"Point","coordinates":[8.333264,50.772622]}},{"type":"Feature","properties":{"SeqNo":"460374","Type":"A","DHID":"de:06532:21783:1","Parent":"de:06532:21783","Name":"Nanzenbach Querstraße | NSchule","MunicipalityCode":"00000000","Municipality":"-","DistrictCode":"-","District":"-","Description":"","Authority":"rms","DelfiName":"-","THID":"-","LastOperationDate":"","SEV":"nein","longitude":"8,333844","latitude":"50,772716","geojson_lng":8.333844,"geojson_lat":50.772716},"geometry":{"type":"Point","coordinates":[8.333844,50.772716]}},{"type":"Feature","properties":{"SeqNo":"460375","Type":"A","DHID":"de:06532:21783:2","Parent":"de:06532:21783","Name":"Nanzenbach Querstraße | NDillenburg","MunicipalityCode":"00000000","Municipality":"-","DistrictCode":"-","District":"-","Description":"","Authority":"rms","DelfiName":"-","THID":"-","LastOperationDate":"","SEV":"nein","longitude":"8,332627","latitude":"50,772565","geojson_lng":8.332627,"geojson_lat":50.772565},"geometry":{"type":"Point","coordinates":[8.332627,50.772565]}},{"type":"Feature","properties":{"SeqNo":"460376","Type":"Q","DHID":"de:06532:21783:1:1","Parent":"de:06532:21783:1","Name":"NHirzenhain","MunicipalityCode":"00000000","Municipality":"-","DistrictCode":"-","District":"-","Description":"","Authority":"rms","DelfiName":"-","THID":"-","LastOperationDate":"","SEV":"nein","longitude":"8,333844","latitude":"50,772716","geojson_lng":8.333844,"geojson_lat":50.772716},"geometry":{"type":"Point","coordinates":[8.333844,50.772716]}},{"type":"Feature","properties":{"SeqNo":"460377","Type":"Q","DHID":"de:06532:21783:2:2","Parent":"de:06532:21783:2","Name":"NDillenburg","MunicipalityCode":"00000000","Municipality":"-","DistrictCode":"-","District":"-","Description":"","Authority":"rms","DelfiName":"-","THID":"-","LastOperationDate":"","SEV":"nein","longitude":"8,332627","latitude":"50,772565","geojson_lng":8.332627,"geojson_lat":50.772565},"geometry":{"type":"Point","coordinates":[8.332627,50.772565]}},{"type":"Feature","properties":{"SeqNo":"460378","Type":"S","DHID":"de:06532:21784","Parent":"de:06532:21784","Name":"Dillenburg-Nanzenbach Schule","MunicipalityCode":"06532006","Municipality":"Dillenburg","DistrictCode":"-","District":"-","Description":"","Authority":"rms","DelfiName":"-","THID":"D91984005518","LastOperationDate":"2025-06-14T00:00:00","SEV":"nein","longitude":"8,336474","latitude":"50,773135","geojson_lng":8.336474,"geojson_lat":50.773135},"geometry":{"type":"Point","coordinates":[8.336474,50.773135]}},{"type":"Feature","properties":{"SeqNo":"460379","Type":"A","DHID":"de:06532:21784:1","Parent":"de:06532:21784","Name":"Nanzenbach Schule | NHirzenhain","MunicipalityCode":"00000000","Municipality":"-","DistrictCode":"-","District":"-","Description":"","Authority":"rms","DelfiName":"-","THID":"-","LastOperationDate":"","SEV":"nein","longitude":"8,336263","latitude":"50,773089","geojson_lng":8.336263,"geojson_lat":50.773089},"geometry":{"type":"Point","coordinates":[8.336263,50.773089]}},{"type":"Feature","properties":{"SeqNo":"460380","Type":"A","DHID":"de:06532:21784:2","Parent":"de:06532:21784","Name":"Nanzenbach Schule | NDillenburg","MunicipalityCode":"00000000","Municipality":"-","DistrictCode":"-","District":"-","Description":"","Authority":"rms","DelfiName":"-","THID":"-","LastOperationDate":"","SEV":"nein","longitude":"8,336573","latitude":"50,773207","geojson_lng":8.336573,"geojson_lat":50.773207},"geometry":{"type":"Point","coordinates":[8.336573,50.773207]}},{"type":"Feature","properties":{"SeqNo":"460381","Type":"Q","DHID":"de:06532:21784:1:1","Parent":"de:06532:21784:1","Name":"NHirzenhain","MunicipalityCode":"00000000","Municipality":"-","DistrictCode":"-","District":"-","Description":"","Authority":"rms","DelfiName":"-","THID":"-","LastOperationDate":"","SEV":"nein","longitude":"8,336263","latitude":"50,773089","geojson_lng":8.336263,"geojson_lat":50.773089},"geometry":{"type":"Point","coordinates":[8.336263,50.773089]}},{"type":"Feature","properties":{"SeqNo":"460382","Type":"Q","DHID":"de:06532:21784:2:2","Parent":"de:06532:21784:2","Name":"NDillenburg","MunicipalityCode":"00000000","Municipality":"-","DistrictCode":"-","District":"-","Description":"","Authority":"rms","DelfiName":"-","THID":"-","LastOperationDate":"","SEV":"nein","longitude":"8,336573","latitude":"50,773207","geojson_lng":8.336573,"geojson_lat":50.773207},"geometry":{"type":"Point","coordinates":[8.336573,50.773207]}}]}