{"type":"FeatureCollection","features":[{"type":"Feature","properties":{"SeqNo":"37788","Type":"S","DHID":"de:08212:10000","Parent":"de:08212:10000","Name":"Karlsruhe Pappelallee","MunicipalityCode":"08212000","Municipality":"Karlsruhe","DistrictCode":"","District":"","Description":"","Authority":"NVBW","DelfiName":"-","THID":"D92014002710","LastOperationDate":"2025-06-06T00:00:00","SEV":"nein","longitude":"8,335054","latitude":"48,995135","geojson_lng":8.335054,"geojson_lat":48.995135},"geometry":{"type":"Point","coordinates":[8.335054,48.995135]}},{"type":"Feature","properties":{"SeqNo":"37789","Type":"Q","DHID":"de:08212:10000:0:1","Parent":"de:08212:10000","Name":"RiWest","MunicipalityCode":"00000000","Municipality":"-","DistrictCode":"-","District":"-","Description":"","Authority":"NVBW","DelfiName":"-","THID":"-","LastOperationDate":"","SEV":"nein","longitude":"8,335135","latitude":"48,9951","geojson_lng":8.335135,"geojson_lat":48.9951},"geometry":{"type":"Point","coordinates":[8.335135,48.9951]}},{"type":"Feature","properties":{"SeqNo":"37790","Type":"S","DHID":"de:08212:10001","Parent":"de:08212:10001","Name":"Karlsruhe Falterweg","MunicipalityCode":"08212000","Municipality":"Karlsruhe","DistrictCode":"","District":"","Description":"","Authority":"NVBW","DelfiName":"-","THID":"D92014002711","LastOperationDate":"2025-06-06T00:00:00","SEV":"nein","longitude":"8,336366","latitude":"48,997069","geojson_lng":8.336366,"geojson_lat":48.997069},"geometry":{"type":"Point","coordinates":[8.336366,48.997069]}},{"type":"Feature","properties":{"SeqNo":"37791","Type":"A","DHID":"de:08212:10001:1","Parent":"de:08212:10001","Name":"Bus","MunicipalityCode":"00000000","Municipality":"-","DistrictCode":"-","District":"-","Description":"","Authority":"NVBW","DelfiName":"-","THID":"-","LastOperationDate":"","SEV":"nein","longitude":"8,336366","latitude":"48,997069","geojson_lng":8.336366,"geojson_lat":48.997069},"geometry":{"type":"Point","coordinates":[8.336366,48.997069]}},{"type":"Feature","properties":{"SeqNo":"37792","Type":"Q","DHID":"de:08212:10001:1:1","Parent":"de:08212:10001:1","Name":"Richtung Lameyplatz","MunicipalityCode":"00000000","Municipality":"-","DistrictCode":"-","District":"-","Description":"","Authority":"NVBW","DelfiName":"-","THID":"-","LastOperationDate":"","SEV":"nein","longitude":"8,336438","latitude":"48,997033","geojson_lng":8.336438,"geojson_lat":48.997033},"geometry":{"type":"Point","coordinates":[8.336438,48.997033]}},{"type":"Feature","properties":{"SeqNo":"38454","Type":"S","DHID":"de:08212:205","Parent":"de:08212:205","Name":"Daxlanden Karl-Delisle-Straße","MunicipalityCode":"08212000","Municipality":"Karlsruhe","DistrictCode":"","District":"","Description":"","Authority":"NVBW","DelfiName":"-","THID":"D920140000CD","LastOperationDate":"2025-06-06T00:00:00","SEV":"nein","longitude":"8,338082","latitude":"48,996019","geojson_lng":8.338082,"geojson_lat":48.996019},"geometry":{"type":"Point","coordinates":[8.338082,48.996019]}},{"type":"Feature","properties":{"SeqNo":"38455","Type":"A","DHID":"de:08212:205:1","Parent":"de:08212:205","Name":"Tram/34 >Bach-West","MunicipalityCode":"00000000","Municipality":"-","DistrictCode":"-","District":"-","Description":"","Authority":"NVBW","DelfiName":"-","THID":"-","LastOperationDate":"","SEV":"nein","longitude":"8,337758","latitude":"48,995778","geojson_lng":8.337758,"geojson_lat":48.995778},"geometry":{"type":"Point","coordinates":[8.337758,48.995778]}},{"type":"Feature","properties":{"SeqNo":"38456","Type":"A","DHID":"de:08212:205:11","Parent":"de:08212:205","Name":"Bus","MunicipalityCode":"00000000","Municipality":"-","DistrictCode":"-","District":"-","Description":"","Authority":"NVBW","DelfiName":"-","THID":"-","LastOperationDate":"","SEV":"nein","longitude":"8,338423","latitude":"48,996143","geojson_lng":8.338423,"geojson_lat":48.996143},"geometry":{"type":"Point","coordinates":[8.338423,48.996143]}},{"type":"Feature","properties":{"SeqNo":"38457","Type":"A","DHID":"de:08212:205:2","Parent":"de:08212:205","Name":"Tram/34 >Entenfang","MunicipalityCode":"00000000","Municipality":"-","DistrictCode":"-","District":"-","Description":"","Authority":"NVBW","DelfiName":"-","THID":"-","LastOperationDate":"","SEV":"nein","longitude":"8,338423","latitude":"48,996285","geojson_lng":8.338423,"geojson_lat":48.996285},"geometry":{"type":"Point","coordinates":[8.338423,48.996285]}},{"type":"Feature","properties":{"SeqNo":"38459","Type":"Q","DHID":"de:08212:205:1:1","Parent":"de:08212:205:1","Name":"Tram/34 >Bach-West","MunicipalityCode":"00000000","Municipality":"-","DistrictCode":"-","District":"-","Description":"","Authority":"NVBW","DelfiName":"-","THID":"-","LastOperationDate":"","SEV":"nein","longitude":"8,337785","latitude":"48,99576","geojson_lng":8.337785,"geojson_lat":48.99576},"geometry":{"type":"Point","coordinates":[8.337785,48.99576]}},{"type":"Feature","properties":{"SeqNo":"38460","Type":"Q","DHID":"de:08212:205:11:11","Parent":"de:08212:205:11","Name":"Bus >S_ORS(83)","MunicipalityCode":"00000000","Municipality":"-","DistrictCode":"-","District":"-","Description":"","Authority":"NVBW","DelfiName":"-","THID":"-","LastOperationDate":"","SEV":"nein","longitude":"8,338441","latitude":"48,996108","geojson_lng":8.338441,"geojson_lat":48.996108},"geometry":{"type":"Point","coordinates":[8.338441,48.996108]}},{"type":"Feature","properties":{"SeqNo":"38461","Type":"Q","DHID":"de:08212:205:11:12","Parent":"de:08212:205:11","Name":"Ersatzhalt> ETF","MunicipalityCode":"00000000","Municipality":"-","DistrictCode":"-","District":"-","Description":"","Authority":"NVBW","DelfiName":"-","THID":"-","LastOperationDate":"","SEV":"nein","longitude":"8,338064","latitude":"48,995678","geojson_lng":8.338064,"geojson_lat":48.995678},"geometry":{"type":"Point","coordinates":[8.338064,48.995678]}},{"type":"Feature","properties":{"SeqNo":"38462","Type":"Q","DHID":"de:08212:205:2:2","Parent":"de:08212:205:2","Name":"Tram/34 >Entenfang","MunicipalityCode":"00000000","Municipality":"-","DistrictCode":"-","District":"-","Description":"","Authority":"NVBW","DelfiName":"-","THID":"-","LastOperationDate":"","SEV":"nein","longitude":"8,338378","latitude":"48,996302","geojson_lng":8.338378,"geojson_lat":48.996302},"geometry":{"type":"Point","coordinates":[8.338378,48.996302]}},{"type":"Feature","properties":{"SeqNo":"40347","Type":"S","DHID":"de:08212:6221","Parent":"de:08212:6221","Name":"Daxlanden Agathenstraße","MunicipalityCode":"08212000","Municipality":"Karlsruhe","DistrictCode":"","District":"","Description":"","Authority":"NVBW","DelfiName":"-","THID":"D9201400184D","LastOperationDate":"2025-06-06T00:00:00","SEV":"nein","longitude":"8,334291","latitude":"48,999674","geojson_lng":8.334291,"geojson_lat":48.999674},"geometry":{"type":"Point","coordinates":[8.334291,48.999674]}},{"type":"Feature","properties":{"SeqNo":"40348","Type":"Q","DHID":"de:08212:6221:0:1","Parent":"de:08212:6221","Name":"Bus","MunicipalityCode":"00000000","Municipality":"-","DistrictCode":"-","District":"-","Description":"","Authority":"NVBW","DelfiName":"-","THID":"-","LastOperationDate":"","SEV":"nein","longitude":"8,334345","latitude":"48,999709","geojson_lng":8.334345,"geojson_lat":48.999709},"geometry":{"type":"Point","coordinates":[8.334345,48.999709]}},{"type":"Feature","properties":{"SeqNo":"40349","Type":"Q","DHID":"de:08212:6221:0:2","Parent":"de:08212:6221","Name":"Bus","MunicipalityCode":"00000000","Municipality":"-","DistrictCode":"-","District":"-","Description":"","Authority":"NVBW","DelfiName":"-","THID":"-","LastOperationDate":"","SEV":"nein","longitude":"8,334237","latitude":"48,999691","geojson_lng":8.334237,"geojson_lat":48.999691},"geometry":{"type":"Point","coordinates":[8.334237,48.999691]}},{"type":"Feature","properties":{"SeqNo":"40350","Type":"S","DHID":"de:08212:6222","Parent":"de:08212:6222","Name":"Daxlanden Turnerstraße","MunicipalityCode":"08212000","Municipality":"Karlsruhe","DistrictCode":"","District":"","Description":"","Authority":"NVBW","DelfiName":"-","THID":"D9201400184E","LastOperationDate":"2025-06-14T00:00:00","SEV":"nein","longitude":"8,336932","latitude":"49,001872","geojson_lng":8.336932,"geojson_lat":49.001872},"geometry":{"type":"Point","coordinates":[8.336932,49.001872]}},{"type":"Feature","properties":{"SeqNo":"40351","Type":"Q","DHID":"de:08212:6222:0:1","Parent":"de:08212:6222","Name":"NL-Taxi (NL16)","MunicipalityCode":"00000000","Municipality":"-","DistrictCode":"-","District":"-","Description":"","Authority":"NVBW","DelfiName":"-","THID":"-","LastOperationDate":"","SEV":"nein","longitude":"8,337004","latitude":"49,001819","geojson_lng":8.337004,"geojson_lat":49.001819},"geometry":{"type":"Point","coordinates":[8.337004,49.001819]}},{"type":"Feature","properties":{"SeqNo":"40352","Type":"S","DHID":"de:08212:6223","Parent":"de:08212:6223","Name":"Daxlanden Kirschstraße","MunicipalityCode":"08212000","Municipality":"Karlsruhe","DistrictCode":"","District":"","Description":"","Authority":"NVBW","DelfiName":"-","THID":"D9201400184F","LastOperationDate":"2025-06-14T00:00:00","SEV":"nein","longitude":"8,333365","latitude":"49,001671","geojson_lng":8.333365,"geojson_lat":49.001671},"geometry":{"type":"Point","coordinates":[8.333365,49.001671]}},{"type":"Feature","properties":{"SeqNo":"40353","Type":"Q","DHID":"de:08212:6223:0:1","Parent":"de:08212:6223","Name":"Bus","MunicipalityCode":"00000000","Municipality":"-","DistrictCode":"-","District":"-","Description":"","Authority":"NVBW","DelfiName":"-","THID":"-","LastOperationDate":"","SEV":"nein","longitude":"8,333374","latitude":"49,001677","geojson_lng":8.333374,"geojson_lat":49.001677},"geometry":{"type":"Point","coordinates":[8.333374,49.001677]}},{"type":"Feature","properties":{"SeqNo":"40354","Type":"Q","DHID":"de:08212:6223:0:11","Parent":"de:08212:6223","Name":"NL-Taxi (NL16)","MunicipalityCode":"00000000","Municipality":"-","DistrictCode":"-","District":"-","Description":"","Authority":"NVBW","DelfiName":"-","THID":"-","LastOperationDate":"","SEV":"nein","longitude":"8,333374","latitude":"49,001677","geojson_lng":8.333374,"geojson_lat":49.001677},"geometry":{"type":"Point","coordinates":[8.333374,49.001677]}}]}