{"type":"FeatureCollection","features":[{"type":"Feature","properties":{"highway":"bus_stop","public_transport":"platform","name":"Haverterstraat","ref:IFOPT":"NL:Q:68480170","_quaycode":"NL:Q:68480170","_town":"Koningsbosch","_status":"available","_mode":"bus","_direction":205,"_visuallyAccessible":false,"_disabledAccessible":false,"geojson_lng":5.954675231123423,"geojson_lat":51.0540677091465},"geometry":{"type":"Point","coordinates":[5.954675231123423,51.0540677091465]}},{"type":"Feature","properties":{"highway":"bus_stop","public_transport":"platform","name":"Kerkstraat","ref:IFOPT":"NL:Q:68480140","_quaycode":"NL:Q:68480140","_town":"Koningsbosch","_status":"available","_mode":"bus","_direction":145,"_visuallyAccessible":false,"_disabledAccessible":false,"geojson_lng":5.951130426051921,"geojson_lat":51.05809408713862},"geometry":{"type":"Point","coordinates":[5.951130426051921,51.05809408713862]}},{"type":"Feature","properties":{"highway":"bus_stop","public_transport":"platform","name":"Op de Driessen","ref:IFOPT":"NL:Q:68480200","_quaycode":"NL:Q:68480200","_town":"Koningsbosch","_status":"available","_mode":"bus","_direction":180,"_visuallyAccessible":false,"_disabledAccessible":false,"geojson_lng":5.95332727042118,"geojson_lat":51.051152880756426},"geometry":{"type":"Point","coordinates":[5.95332727042118,51.051152880756426]}},{"type":"Feature","properties":{"highway":"bus_stop","public_transport":"platform","name":"Op de Driessen","ref:IFOPT":"NL:Q:68480210","_quaycode":"NL:Q:68480210","_town":"Koningsbosch","_status":"available","_mode":"bus","_direction":352,"_visuallyAccessible":false,"_disabledAccessible":false,"geojson_lng":5.953441244406909,"geojson_lat":51.05114333521539},"geometry":{"type":"Point","coordinates":[5.953441244406909,51.05114333521539]}},{"type":"Feature","properties":{"highway":"bus_stop","public_transport":"platform","name":"Kerkstraat","ref:IFOPT":"NL:Q:68480150","_quaycode":"NL:Q:68480150","_town":"Koningsbosch","_status":"available","_mode":"bus","_direction":325,"_visuallyAccessible":false,"_disabledAccessible":false,"geojson_lng":5.951781001184522,"geojson_lat":51.05764147254632},"geometry":{"type":"Point","coordinates":[5.951781001184522,51.05764147254632]}},{"type":"Feature","properties":{"highway":"bus_stop","public_transport":"platform","name":"Haverterstraat","ref:IFOPT":"NL:Q:68480160","_quaycode":"NL:Q:68480160","_town":"Koningsbosch","_status":"available","_mode":"bus","_direction":1,"_visuallyAccessible":false,"_disabledAccessible":false,"geojson_lng":5.954546213666761,"geojson_lat":51.054014406638146},"geometry":{"type":"Point","coordinates":[5.954546213666761,51.054014406638146]}},{"type":"Feature","properties":{"highway":"bus_stop","public_transport":"platform","name":"Nahversorgung","ref:IFOPT":"DE:Q:67077150","_quaycode":"DE:Q:67077150","_town":"Tüddern","_status":"available","_mode":"bus","_direction":290,"_visuallyAccessible":false,"_disabledAccessible":false,"geojson_lng":5.898581902544119,"geojson_lat":51.016835789180064},"geometry":{"type":"Point","coordinates":[5.898581902544119,51.016835789180064]}},{"type":"Feature","properties":{"highway":"bus_stop","public_transport":"platform","name":"Nahversorgung","ref:IFOPT":"DE:Q:67077160","_quaycode":"DE:Q:67077160","_town":"Tüddern","_status":"available","_mode":"bus","_direction":111,"_visuallyAccessible":false,"_disabledAccessible":true,"geojson_lng":5.898552505233722,"geojson_lat":51.016755018410564},"geometry":{"type":"Point","coordinates":[5.898552505233722,51.016755018410564]}},{"type":"Feature","properties":{"highway":"bus_stop","public_transport":"platform","name":"Apotheke","ref:IFOPT":"DE:Q:67077170","_quaycode":"DE:Q:67077170","_town":"Tüddern","_status":"available","_mode":"bus","_direction":240,"_visuallyAccessible":false,"_disabledAccessible":true,"geojson_lng":5.895108139179227,"geojson_lat":51.014558886525805},"geometry":{"type":"Point","coordinates":[5.895108139179227,51.014558886525805]}},{"type":"Feature","properties":{"highway":"bus_stop","public_transport":"platform","name":"Schule","ref:IFOPT":"DE:Q:67077680","_quaycode":"DE:Q:67077680","_town":"Höngen","_status":"available","_mode":"bus","_direction":110,"_visuallyAccessible":false,"_disabledAccessible":true,"geojson_lng":5.935660819849499,"geojson_lat":51.0250888925742},"geometry":{"type":"Point","coordinates":[5.935660819849499,51.0250888925742]}},{"type":"Feature","properties":{"highway":"bus_stop","public_transport":"platform","name":"Am Höfgen","ref:IFOPT":"DE:Q:67077720","_quaycode":"DE:Q:67077720","_town":"Tüddern","_status":"available","_mode":"bus","_direction":70,"_visuallyAccessible":false,"_disabledAccessible":false,"geojson_lng":5.905398484884429,"geojson_lat":51.0147200715524},"geometry":{"type":"Point","coordinates":[5.905398484884429,51.0147200715524]}},{"type":"Feature","properties":{"highway":"bus_stop","public_transport":"platform","name":"Am Höfgen","ref:IFOPT":"DE:Q:67077730","_quaycode":"DE:Q:67077730","_town":"Tüddern","_status":"available","_mode":"bus","_direction":250,"_visuallyAccessible":false,"_disabledAccessible":false,"geojson_lng":5.905342699423333,"geojson_lat":51.014828188380456},"geometry":{"type":"Point","coordinates":[5.905342699423333,51.014828188380456]}},{"type":"Feature","properties":{"highway":"bus_stop","public_transport":"platform","name":"Apotheke","ref:IFOPT":"DE:Q:67077180","_quaycode":"DE:Q:67077180","_town":"Tüddern","_status":"available","_mode":"bus","_direction":60,"_visuallyAccessible":false,"_disabledAccessible":false,"geojson_lng":5.895249345210362,"geojson_lat":51.01444141127006},"geometry":{"type":"Point","coordinates":[5.895249345210362,51.01444141127006]}},{"type":"Feature","properties":{"highway":"bus_stop","public_transport":"platform","name":"Prinsenbaan 77","ref:IFOPT":"NL:Q:68480250","_quaycode":"NL:Q:68480250","_town":"Koningsbosch","_status":"available","_mode":"bus","_direction":12,"_visuallyAccessible":false,"_disabledAccessible":false,"geojson_lng":5.962884338585682,"geojson_lat":51.05701158445044},"geometry":{"type":"Point","coordinates":[5.962884338585682,51.05701158445044]}},{"type":"Feature","properties":{"highway":"bus_stop","public_transport":"platform","name":"Deuvenpoelweg","ref:IFOPT":"NL:Q:68480230","_quaycode":"NL:Q:68480230","_town":"Koningsbosch","_status":"available","_mode":"bus","_direction":220,"_visuallyAccessible":false,"_disabledAccessible":false,"geojson_lng":5.967227372969309,"geojson_lat":51.06210467794876},"geometry":{"type":"Point","coordinates":[5.967227372969309,51.06210467794876]}},{"type":"Feature","properties":{"highway":"bus_stop","public_transport":"platform","name":"Krimweg","ref:IFOPT":"NL:Q:68480190","_quaycode":"NL:Q:68480190","_town":"Koningsbosch","_status":"available","_mode":"bus","_direction":325,"_visuallyAccessible":false,"_disabledAccessible":false,"geojson_lng":5.94695557008896,"geojson_lat":51.06549426250021},"geometry":{"type":"Point","coordinates":[5.94695557008896,51.06549426250021]}},{"type":"Feature","properties":{"highway":"bus_stop","public_transport":"platform","name":"Deuvenpoelweg","ref:IFOPT":"NL:Q:68480220","_quaycode":"NL:Q:68480220","_town":"Koningsbosch","_status":"available","_mode":"bus","_direction":25,"_visuallyAccessible":false,"_disabledAccessible":false,"geojson_lng":5.967658463128777,"geojson_lat":51.06235421254374},"geometry":{"type":"Point","coordinates":[5.967658463128777,51.06235421254374]}},{"type":"Feature","properties":{"highway":"bus_stop","public_transport":"platform","name":"Krimweg","ref:IFOPT":"NL:Q:68480180","_quaycode":"NL:Q:68480180","_town":"Koningsbosch","_status":"available","_mode":"bus","_direction":145,"_visuallyAccessible":false,"_disabledAccessible":false,"geojson_lng":5.947050069845869,"geojson_lat":51.06505334665728},"geometry":{"type":"Point","coordinates":[5.947050069845869,51.06505334665728]}},{"type":"Feature","properties":{"highway":"bus_stop","public_transport":"platform","name":"Prinsenbaan 77","ref:IFOPT":"NL:Q:68480240","_quaycode":"NL:Q:68480240","_town":"Koningsbosch","_status":"available","_mode":"bus","_direction":220,"_visuallyAccessible":false,"_disabledAccessible":false,"geojson_lng":5.962640867777265,"geojson_lat":51.05693189211079},"geometry":{"type":"Point","coordinates":[5.962640867777265,51.05693189211079]}}]}