{"type":"FeatureCollection","features":[{"type":"Feature","properties":{"highway":"bus_stop","public_transport":"platform","name":"Saffier","ref:IFOPT":"NL:Q:53706850","_quaycode":"NL:Q:53706850","_town":"Dordrecht","_status":"available","_mode":"bus","_direction":92,"_visuallyAccessible":false,"_disabledAccessible":false,"geojson_lng":4.633754811761218,"geojson_lat":51.7633479237371},"geometry":{"type":"Point","coordinates":[4.633754811761218,51.7633479237371]}},{"type":"Feature","properties":{"highway":"bus_stop","public_transport":"platform","name":"Alexanderstraat","ref:IFOPT":"NL:Q:52580160","_quaycode":"NL:Q:52580160","_town":"'S-Gravendeel","_status":"available","_mode":"bus","_direction":96,"_visuallyAccessible":false,"_disabledAccessible":true,"geojson_lng":4.616407505304147,"geojson_lat":51.77481270883482},"geometry":{"type":"Point","coordinates":[4.616407505304147,51.77481270883482]}},{"type":"Feature","properties":{"highway":"bus_stop","public_transport":"platform","name":"Broekseweg","ref:IFOPT":"NL:Q:52590210","_quaycode":"NL:Q:52590210","_town":"Strijen","_status":"available","_mode":"bus","_direction":50,"_visuallyAccessible":false,"_disabledAccessible":false,"geojson_lng":4.584195683143524,"geojson_lat":51.74065484055287},"geometry":{"type":"Point","coordinates":[4.584195683143524,51.74065484055287]}},{"type":"Feature","properties":{"highway":"bus_stop","public_transport":"platform","name":"Kooilandsedijk","ref:IFOPT":"NL:Q:52590140","_quaycode":"NL:Q:52590140","_town":"Strijen","_status":"available","_mode":"bus","_direction":229,"_visuallyAccessible":false,"_disabledAccessible":false,"geojson_lng":4.571538962753189,"geojson_lat":51.73355615579523},"geometry":{"type":"Point","coordinates":[4.571538962753189,51.73355615579523]}},{"type":"Feature","properties":{"highway":"bus_stop","public_transport":"platform","name":"Smidsweg","ref:IFOPT":"NL:Q:52580120","_quaycode":"NL:Q:52580120","_town":"'S-Gravendeel","_status":"available","_mode":"bus","_direction":304,"_visuallyAccessible":false,"_disabledAccessible":false,"geojson_lng":4.613229507275482,"geojson_lat":51.781847956450406},"geometry":{"type":"Point","coordinates":[4.613229507275482,51.781847956450406]}},{"type":"Feature","properties":{"highway":"bus_stop","public_transport":"platform","name":"Smidsweg","ref:IFOPT":"NL:Q:52580010","_quaycode":"NL:Q:52580010","_town":"'S-Gravendeel","_status":"available","_mode":"bus","_direction":114,"_visuallyAccessible":true,"_disabledAccessible":true,"geojson_lng":4.613817751131651,"geojson_lat":51.781348466177384},"geometry":{"type":"Point","coordinates":[4.613817751131651,51.781348466177384]}},{"type":"Feature","properties":{"highway":"bus_stop","public_transport":"platform","name":"H. Hamerstraat","ref:IFOPT":"NL:Q:52580020","_quaycode":"NL:Q:52580020","_town":"'S-Gravendeel","_status":"available","_mode":"bus","_direction":94,"_visuallyAccessible":false,"_disabledAccessible":true,"geojson_lng":4.610252959391192,"geojson_lat":51.77712715492909},"geometry":{"type":"Point","coordinates":[4.610252959391192,51.77712715492909]}},{"type":"Feature","properties":{"highway":"bus_stop","public_transport":"platform","name":"Wieldrechtse Zeedijk","ref:IFOPT":"NL:Q:53706020","_quaycode":"NL:Q:53706020","_town":"Dordrecht","_status":"available","_mode":"bus","_direction":271,"_visuallyAccessible":false,"_disabledAccessible":true,"geojson_lng":4.632749195971213,"geojson_lat":51.78017738833513},"geometry":{"type":"Point","coordinates":[4.632749195971213,51.78017738833513]}},{"type":"Feature","properties":{"highway":"bus_stop","public_transport":"platform","name":"Boendersweg","ref:IFOPT":"NL:Q:52580030","_quaycode":"NL:Q:52580030","_town":"'S-Gravendeel","_status":"available","_mode":"bus","_direction":357,"_visuallyAccessible":false,"_disabledAccessible":false,"geojson_lng":4.614217456864222,"geojson_lat":51.771602140679725},"geometry":{"type":"Point","coordinates":[4.614217456864222,51.771602140679725]}},{"type":"Feature","properties":{"highway":"bus_stop","public_transport":"platform","name":"Lindenhoeve","ref:IFOPT":"NL:Q:52590270","_quaycode":"NL:Q:52590270","_town":"Mookhoek","_status":"available","_mode":"bus","_direction":40,"_visuallyAccessible":false,"_disabledAccessible":true,"geojson_lng":4.611649270237427,"geojson_lat":51.757424019035774},"geometry":{"type":"Point","coordinates":[4.611649270237427,51.757424019035774]}},{"type":"Feature","properties":{"highway":"bus_stop","public_transport":"platform","name":"Strijenseweg","ref:IFOPT":"NL:Q:52590290","_quaycode":"NL:Q:52590290","_town":"'S-Gravendeel","_status":"available","_mode":"bus","_direction":25,"_visuallyAccessible":false,"_disabledAccessible":false,"geojson_lng":4.612015646206265,"geojson_lat":51.76646016168383},"geometry":{"type":"Point","coordinates":[4.612015646206265,51.76646016168383]}},{"type":"Feature","properties":{"highway":"bus_stop","public_transport":"platform","name":"Boendersweg","ref:IFOPT":"NL:Q:52580060","_quaycode":"NL:Q:52580060","_town":"'S-Gravendeel","_status":"available","_mode":"bus","_direction":186,"_visuallyAccessible":false,"_disabledAccessible":false,"geojson_lng":4.614116302695965,"geojson_lat":51.771534706424056},"geometry":{"type":"Point","coordinates":[4.614116302695965,51.771534706424056]}},{"type":"Feature","properties":{"highway":"bus_stop","public_transport":"platform","name":"Weegje","ref:IFOPT":"NL:Q:52580040","_quaycode":"NL:Q:52580040","_town":"'S-Gravendeel","_status":"available","_mode":"bus","_direction":53,"_visuallyAccessible":false,"_disabledAccessible":true,"geojson_lng":4.615936663675942,"geojson_lat":51.777775904323846},"geometry":{"type":"Point","coordinates":[4.615936663675942,51.777775904323846]}},{"type":"Feature","properties":{"highway":"bus_stop","public_transport":"platform","name":"Saffier","ref:IFOPT":"NL:Q:53706851","_quaycode":"NL:Q:53706851","_town":"Dordrecht","_status":"available","_mode":"bus","_direction":92,"_visuallyAccessible":false,"_disabledAccessible":false,"geojson_lng":4.633740177213886,"geojson_lat":51.76335681846063},"geometry":{"type":"Point","coordinates":[4.633740177213886,51.76335681846063]}},{"type":"Feature","properties":{"highway":"bus_stop","public_transport":"platform","name":"Alexanderstraat","ref:IFOPT":"NL:Q:52580170","_quaycode":"NL:Q:52580170","_town":"'S-Gravendeel","_status":"available","_mode":"bus","_direction":281,"_visuallyAccessible":false,"_disabledAccessible":false,"geojson_lng":4.616522029581559,"geojson_lat":51.77489436030844},"geometry":{"type":"Point","coordinates":[4.616522029581559,51.77489436030844]}},{"type":"Feature","properties":{"highway":"bus_stop","public_transport":"platform","name":"Rotonde","ref:IFOPT":"NL:Q:52580070","_quaycode":"NL:Q:52580070","_town":"'S-Gravendeel","_status":"available","_mode":"bus","_direction":243,"_visuallyAccessible":false,"_disabledAccessible":false,"geojson_lng":4.619654009334471,"geojson_lat":51.78073062419193},"geometry":{"type":"Point","coordinates":[4.619654009334471,51.78073062419193]}},{"type":"Feature","properties":{"highway":"bus_stop","public_transport":"platform","name":"Schenkeldijk","ref:IFOPT":"NL:Q:52590100","_quaycode":"NL:Q:52590100","_town":"Mookhoek","_status":"available","_mode":"bus","_direction":200,"_visuallyAccessible":false,"_disabledAccessible":false,"geojson_lng":4.591899508000302,"geojson_lat":51.74964224320886},"geometry":{"type":"Point","coordinates":[4.591899508000302,51.74964224320886]}},{"type":"Feature","properties":{"highway":"bus_stop","public_transport":"platform","name":"Jade","ref:IFOPT":"NL:Q:53706880","_quaycode":"NL:Q:53706880","_town":"Dordrecht","_status":"available","_mode":"bus","_direction":185,"_visuallyAccessible":false,"_disabledAccessible":false,"geojson_lng":4.631631238023731,"geojson_lat":51.764727517254485},"geometry":{"type":"Point","coordinates":[4.631631238023731,51.764727517254485]}},{"type":"Feature","properties":{"highway":"bus_stop","public_transport":"platform","name":"Robijn","ref:IFOPT":"NL:Q:53706810","_quaycode":"NL:Q:53706810","_town":"Dordrecht","_status":"available","_mode":"bus","_direction":84,"_visuallyAccessible":false,"_disabledAccessible":false,"geojson_lng":4.641751816558762,"geojson_lat":51.76944846173878},"geometry":{"type":"Point","coordinates":[4.641751816558762,51.76944846173878]}},{"type":"Feature","properties":{"highway":"bus_stop","public_transport":"platform","name":"Provincialeweg N217","ref:IFOPT":"NL:Q:52581810","_quaycode":"NL:Q:52581810","_town":"'S-Gravendeel","_status":"available","_mode":"bus","_direction":109,"_visuallyAccessible":false,"_disabledAccessible":false,"geojson_lng":4.6048233505263125,"geojson_lat":51.78189106262426},"geometry":{"type":"Point","coordinates":[4.6048233505263125,51.78189106262426]}},{"type":"Feature","properties":{"highway":"bus_stop","public_transport":"platform","name":"Opaal","ref:IFOPT":"NL:Q:53706842","_quaycode":"NL:Q:53706842","_town":"Dordrecht","_status":"available","_mode":"bus","_direction":180,"_visuallyAccessible":false,"_disabledAccessible":false,"geojson_lng":4.63188384652082,"geojson_lat":51.76781228795289},"geometry":{"type":"Point","coordinates":[4.63188384652082,51.76781228795289]}},{"type":"Feature","properties":{"highway":"bus_stop","public_transport":"platform","name":"Wieldrechtse Zeedijk","ref:IFOPT":"NL:Q:53706010","_quaycode":"NL:Q:53706010","_town":"Dordrecht","_status":"available","_mode":"bus","_direction":93,"_visuallyAccessible":false,"_disabledAccessible":false,"geojson_lng":4.632708731497689,"geojson_lat":51.779997353221184},"geometry":{"type":"Point","coordinates":[4.632708731497689,51.779997353221184]}},{"type":"Feature","properties":{"highway":"bus_stop","public_transport":"platform","name":"Broekseweg","ref:IFOPT":"NL:Q:52590120","_quaycode":"NL:Q:52590120","_town":"Strijen","_status":"available","_mode":"bus","_direction":230,"_visuallyAccessible":false,"_disabledAccessible":false,"geojson_lng":4.584292231186526,"geojson_lat":51.74092516665892},"geometry":{"type":"Point","coordinates":[4.584292231186526,51.74092516665892]}},{"type":"Feature","properties":{"highway":"bus_stop","public_transport":"platform","name":"Strijenseweg","ref:IFOPT":"NL:Q:52590040","_quaycode":"NL:Q:52590040","_town":"'S-Gravendeel","_status":"available","_mode":"bus","_direction":200,"_visuallyAccessible":false,"_disabledAccessible":false,"geojson_lng":4.611742891962955,"geojson_lat":51.7663145379315},"geometry":{"type":"Point","coordinates":[4.611742891962955,51.7663145379315]}},{"type":"Feature","properties":{"highway":"bus_stop","public_transport":"platform","name":"Amethist","ref:IFOPT":"NL:Q:53706861","_quaycode":"NL:Q:53706861","_town":"Dordrecht","_status":"available","_mode":"bus","_direction":74,"_visuallyAccessible":false,"_disabledAccessible":false,"geojson_lng":4.637183025003306,"geojson_lat":51.76364855262329},"geometry":{"type":"Point","coordinates":[4.637183025003306,51.76364855262329]}},{"type":"Feature","properties":{"highway":"bus_stop","public_transport":"platform","name":"Maasdamseweg","ref:IFOPT":"NL:Q:52580130","_quaycode":"NL:Q:52580130","_town":"'S-Gravendeel","_status":"available","_mode":"bus","_direction":77,"_visuallyAccessible":false,"_disabledAccessible":false,"geojson_lng":4.606549888959397,"geojson_lat":51.7817767237363},"geometry":{"type":"Point","coordinates":[4.606549888959397,51.7817767237363]}},{"type":"Feature","properties":{"highway":"bus_stop","public_transport":"platform","name":"Amethist","ref:IFOPT":"NL:Q:53706860","_quaycode":"NL:Q:53706860","_town":"Dordrecht","_status":"available","_mode":"bus","_direction":73,"_visuallyAccessible":false,"_disabledAccessible":false,"geojson_lng":4.637168540341577,"geojson_lat":51.76364845997671},"geometry":{"type":"Point","coordinates":[4.637168540341577,51.76364845997671]}},{"type":"Feature","properties":{"highway":"bus_stop","public_transport":"platform","name":"Opaal","ref:IFOPT":"NL:Q:53706843","_quaycode":"NL:Q:53706843","_town":"Dordrecht","_status":"available","_mode":"bus","_direction":183,"_visuallyAccessible":false,"_disabledAccessible":false,"geojson_lng":4.631898332504563,"geojson_lat":51.767812381254984},"geometry":{"type":"Point","coordinates":[4.631898332504563,51.767812381254984]}},{"type":"Feature","properties":{"highway":"bus_stop","public_transport":"platform","name":"H. Hamerstraat","ref:IFOPT":"NL:Q:52580110","_quaycode":"NL:Q:52580110","_town":"'S-Gravendeel","_status":"available","_mode":"bus","_direction":274,"_visuallyAccessible":false,"_disabledAccessible":true,"geojson_lng":4.609061769298081,"geojson_lat":51.77729903318503},"geometry":{"type":"Point","coordinates":[4.609061769298081,51.77729903318503]}},{"type":"Feature","properties":{"highway":"bus_stop","public_transport":"platform","name":"Robijn","ref:IFOPT":"NL:Q:53706800","_quaycode":"NL:Q:53706800","_town":"Dordrecht","_status":"available","_mode":"bus","_direction":264,"_visuallyAccessible":false,"_disabledAccessible":false,"geojson_lng":4.642155738799635,"geojson_lat":51.769549906917874},"geometry":{"type":"Point","coordinates":[4.642155738799635,51.769549906917874]}},{"type":"Feature","properties":{"highway":"bus_stop","public_transport":"platform","name":"Zweedsestraat","ref:IFOPT":"NL:Q:52590080","_quaycode":"NL:Q:52590080","_town":"Mookhoek","_status":"available","_mode":"bus","_direction":252,"_visuallyAccessible":false,"_disabledAccessible":false,"geojson_lng":4.594945764437592,"geojson_lat":51.75182917107137},"geometry":{"type":"Point","coordinates":[4.594945764437592,51.75182917107137]}},{"type":"Feature","properties":{"highway":"bus_stop","public_transport":"platform","name":"Kiltunnel","ref:IFOPT":"NL:Q:53700010","_quaycode":"NL:Q:53700010","_town":"Dordrecht","_status":"available","_mode":"bus","_direction":92,"_visuallyAccessible":false,"_disabledAccessible":false,"geojson_lng":4.637038791563174,"geojson_lat":51.772423760920184},"geometry":{"type":"Point","coordinates":[4.637038791563174,51.772423760920184]}},{"type":"Feature","properties":{"highway":"bus_stop","public_transport":"platform","name":"Weegje","ref:IFOPT":"NL:Q:52580090","_quaycode":"NL:Q:52580090","_town":"'S-Gravendeel","_status":"available","_mode":"bus","_direction":225,"_visuallyAccessible":false,"_disabledAccessible":false,"geojson_lng":4.616193168807735,"geojson_lat":51.77802927604062},"geometry":{"type":"Point","coordinates":[4.616193168807735,51.77802927604062]}},{"type":"Feature","properties":{"highway":"bus_stop","public_transport":"platform","name":"Maasdamseweg","ref:IFOPT":"NL:Q:52580100","_quaycode":"NL:Q:52580100","_town":"'S-Gravendeel","_status":"available","_mode":"bus","_direction":276,"_visuallyAccessible":false,"_disabledAccessible":false,"geojson_lng":4.607386604420466,"geojson_lat":51.78199801987386},"geometry":{"type":"Point","coordinates":[4.607386604420466,51.78199801987386]}},{"type":"Feature","properties":{"highway":"bus_stop","public_transport":"platform","name":"Kiltunnel","ref:IFOPT":"NL:Q:53700020","_quaycode":"NL:Q:53700020","_town":"Dordrecht","_status":"available","_mode":"bus","_direction":271,"_visuallyAccessible":false,"_disabledAccessible":false,"geojson_lng":4.639486619970724,"geojson_lat":51.7728655050845},"geometry":{"type":"Point","coordinates":[4.639486619970724,51.7728655050845]}},{"type":"Feature","properties":{"highway":"bus_stop","public_transport":"platform","name":"Provincialeweg N217","ref:IFOPT":"NL:Q:52581800","_quaycode":"NL:Q:52581800","_town":"'S-Gravendeel","_status":"available","_mode":"bus","_direction":288,"_visuallyAccessible":false,"_disabledAccessible":false,"geojson_lng":4.60503759118073,"geojson_lat":51.78207226676642},"geometry":{"type":"Point","coordinates":[4.60503759118073,51.78207226676642]}},{"type":"Feature","properties":{"highway":"bus_stop","public_transport":"platform","name":"Schenkeldijk","ref:IFOPT":"NL:Q:52590230","_quaycode":"NL:Q:52590230","_town":"'S-Gravendeel","_status":"available","_mode":"bus","_direction":19,"_visuallyAccessible":false,"_disabledAccessible":false,"geojson_lng":4.592103412361651,"geojson_lat":51.74982739733116},"geometry":{"type":"Point","coordinates":[4.592103412361651,51.74982739733116]}},{"type":"Feature","properties":{"highway":"bus_stop","public_transport":"platform","name":"Kooilandsedijk","ref:IFOPT":"NL:Q:52590190","_quaycode":"NL:Q:52590190","_town":"Strijen","_status":"available","_mode":"bus","_direction":51,"_visuallyAccessible":false,"_disabledAccessible":false,"geojson_lng":4.571799023149205,"geojson_lat":51.73358493188647},"geometry":{"type":"Point","coordinates":[4.571799023149205,51.73358493188647]}},{"type":"Feature","properties":{"highway":"bus_stop","public_transport":"platform","name":"Keerweer","ref:IFOPT":"NL:Q:53706730","_quaycode":"NL:Q:53706730","_town":"Dordrecht","_status":"available","_mode":"bus","_direction":3,"_visuallyAccessible":false,"_disabledAccessible":false,"geojson_lng":4.643890523828697,"geojson_lat":51.772419334917},"geometry":{"type":"Point","coordinates":[4.643890523828697,51.772419334917]}},{"type":"Feature","properties":{"highway":"bus_stop","public_transport":"platform","name":"Keerweer","ref:IFOPT":"NL:Q:53706740","_quaycode":"NL:Q:53706740","_town":"Dordrecht","_status":"available","_mode":"bus","_direction":189,"_visuallyAccessible":false,"_disabledAccessible":false,"geojson_lng":4.643739352196047,"geojson_lat":51.7728048903701},"geometry":{"type":"Point","coordinates":[4.643739352196047,51.7728048903701]}},{"type":"Feature","properties":{"highway":"bus_stop","public_transport":"platform","name":"Steenplaats","ref:IFOPT":"NL:Q:52590160","_quaycode":"NL:Q:52590160","_town":"Strijen","_status":"available","_mode":"bus","_direction":296,"_visuallyAccessible":false,"_disabledAccessible":false,"geojson_lng":4.571687766199871,"geojson_lat":51.7333324701865},"geometry":{"type":"Point","coordinates":[4.571687766199871,51.7333324701865]}},{"type":"Feature","properties":{"highway":"bus_stop","public_transport":"platform","name":"Zweedsestraat","ref:IFOPT":"NL:Q:52590250","_quaycode":"NL:Q:52590250","_town":"'S-Gravendeel","_status":"available","_mode":"bus","_direction":72,"_visuallyAccessible":false,"_disabledAccessible":false,"geojson_lng":4.595394510271886,"geojson_lat":51.75184119149123},"geometry":{"type":"Point","coordinates":[4.595394510271886,51.75184119149123]}},{"type":"Feature","properties":{"highway":"bus_stop","public_transport":"platform","name":"Lindenhoeve","ref:IFOPT":"NL:Q:52590060","_quaycode":"NL:Q:52590060","_town":"Mookhoek","_status":"available","_mode":"bus","_direction":225,"_visuallyAccessible":false,"_disabledAccessible":false,"geojson_lng":4.609607359605666,"geojson_lat":51.75656554674571},"geometry":{"type":"Point","coordinates":[4.609607359605666,51.75656554674571]}},{"type":"Feature","properties":{"highway":"bus_stop","public_transport":"platform","name":"Olivijn","ref:IFOPT":"NL:Q:53706832","_quaycode":"NL:Q:53706832","_town":"Dordrecht","_status":"available","_mode":"bus","_direction":317,"_visuallyAccessible":false,"_disabledAccessible":false,"geojson_lng":4.638075880030217,"geojson_lat":51.76832841261512},"geometry":{"type":"Point","coordinates":[4.638075880030217,51.76832841261512]}},{"type":"Feature","properties":{"highway":"bus_stop","public_transport":"platform","name":"Laan van Europa","ref:IFOPT":"NL:Q:53707020","_quaycode":"NL:Q:53707020","_town":"Dordrecht","_status":"available","_mode":"bus","_direction":250,"_visuallyAccessible":false,"_disabledAccessible":false,"geojson_lng":4.653584322548132,"geojson_lat":51.776048179160945},"geometry":{"type":"Point","coordinates":[4.653584322548132,51.776048179160945]}},{"type":"Feature","properties":{"highway":"bus_stop","public_transport":"platform","name":"Malachiet","ref:IFOPT":"NL:Q:53706870","_quaycode":"NL:Q:53706870","_town":"Dordrecht","_status":"available","_mode":"bus","_direction":272,"_visuallyAccessible":false,"_disabledAccessible":false,"geojson_lng":4.634150593147129,"geojson_lat":51.769148212477496},"geometry":{"type":"Point","coordinates":[4.634150593147129,51.769148212477496]}},{"type":"Feature","properties":{"highway":"bus_stop","public_transport":"platform","name":"Rijksstraatweg","ref:IFOPT":"NL:Q:53706220","_quaycode":"NL:Q:53706220","_town":"Dordrecht","_status":"available","_mode":"bus","_direction":192,"_visuallyAccessible":false,"_disabledAccessible":false,"geojson_lng":4.643974425145182,"geojson_lat":51.776123226425085},"geometry":{"type":"Point","coordinates":[4.643974425145182,51.776123226425085]}},{"type":"Feature","properties":{"highway":"bus_stop","public_transport":"platform","name":"Steenplaats","ref:IFOPT":"NL:Q:52590170","_quaycode":"NL:Q:52590170","_town":"Strijen","_status":"available","_mode":"bus","_direction":115,"_visuallyAccessible":false,"_disabledAccessible":false,"geojson_lng":4.571763221599345,"geojson_lat":51.73316220715871},"geometry":{"type":"Point","coordinates":[4.571763221599345,51.73316220715871]}},{"type":"Feature","properties":{"highway":"bus_stop","public_transport":"platform","name":"Calandstraat","ref:IFOPT":"NL:Q:53706260","_quaycode":"NL:Q:53706260","_town":"Dordrecht","_status":"available","_mode":"bus","_direction":187,"_visuallyAccessible":false,"_disabledAccessible":true,"geojson_lng":4.644152450354584,"geojson_lat":51.77939625141665},"geometry":{"type":"Point","coordinates":[4.644152450354584,51.77939625141665]}},{"type":"Feature","properties":{"highway":"bus_stop","public_transport":"platform","name":"Einsteinstraat","ref:IFOPT":"NL:Q:53706050","_quaycode":"NL:Q:53706050","_town":"Dordrecht","_status":"available","_mode":"bus","_direction":92,"_visuallyAccessible":false,"_disabledAccessible":true,"geojson_lng":4.637362531030882,"geojson_lat":51.779874388652786},"geometry":{"type":"Point","coordinates":[4.637362531030882,51.779874388652786]}},{"type":"Feature","properties":{"highway":"bus_stop","public_transport":"platform","name":"Einsteinstraat","ref:IFOPT":"NL:Q:53706060","_quaycode":"NL:Q:53706060","_town":"Dordrecht","_status":"available","_mode":"bus","_direction":271,"_visuallyAccessible":false,"_disabledAccessible":false,"geojson_lng":4.637242648112644,"geojson_lat":51.780116316023495},"geometry":{"type":"Point","coordinates":[4.637242648112644,51.780116316023495]}},{"type":"Feature","properties":{"highway":"bus_stop","public_transport":"platform","name":"Laan van Europa","ref:IFOPT":"NL:Q:53707010","_quaycode":"NL:Q:53707010","_town":"Dordrecht","_status":"available","_mode":"bus","_direction":188,"_visuallyAccessible":false,"_disabledAccessible":false,"geojson_lng":4.652650587955669,"geojson_lat":51.7754497969008},"geometry":{"type":"Point","coordinates":[4.652650587955669,51.7754497969008]}},{"type":"Feature","properties":{"highway":"bus_stop","public_transport":"platform","name":"Rijksstraatweg","ref:IFOPT":"NL:Q:53706210","_quaycode":"NL:Q:53706210","_town":"Dordrecht","_status":"available","_mode":"bus","_direction":320,"_visuallyAccessible":false,"_disabledAccessible":false,"geojson_lng":4.644419440044765,"geojson_lat":51.77549683414935},"geometry":{"type":"Point","coordinates":[4.644419440044765,51.77549683414935]}},{"type":"Feature","properties":{"highway":"bus_stop","public_transport":"platform","name":"Olivijn","ref:IFOPT":"NL:Q:53706822","_quaycode":"NL:Q:53706822","_town":"Dordrecht","_status":"available","_mode":"bus","_direction":210,"_visuallyAccessible":false,"_disabledAccessible":false,"geojson_lng":4.63792213654263,"geojson_lat":51.768866753145765},"geometry":{"type":"Point","coordinates":[4.63792213654263,51.768866753145765]}},{"type":"Feature","properties":{"highway":"bus_stop","public_transport":"platform","name":"Kamerlingh Onnesweg/Drechtwerk","ref:IFOPT":"NL:Q:53706100","_quaycode":"NL:Q:53706100","_town":"Dordrecht","_status":"available","_mode":"bus","_direction":272,"_visuallyAccessible":false,"_disabledAccessible":false,"geojson_lng":4.64149021622727,"geojson_lat":51.780017557769504},"geometry":{"type":"Point","coordinates":[4.64149021622727,51.780017557769504]}},{"type":"Feature","properties":{"highway":"bus_stop","public_transport":"platform","name":"Kamerlingh Onnesweg/Drechtwerk","ref:IFOPT":"NL:Q:53706090","_quaycode":"NL:Q:53706090","_town":"Dordrecht","_status":"available","_mode":"bus","_direction":91,"_visuallyAccessible":false,"_disabledAccessible":false,"geojson_lng":4.642089121084388,"geojson_lat":51.7797337224165},"geometry":{"type":"Point","coordinates":[4.642089121084388,51.7797337224165]}}]}