{"type":"FeatureCollection","features":[{"type":"Feature","properties":{"SeqNo":"132384","Type":"Q","DHID":"de:09184:2117:0:1","Parent":"de:09184:2117","Name":"Ri. Ost / Hausen","MunicipalityCode":"00000000","Municipality":"-","DistrictCode":"-","District":"-","Description":"","Authority":"BEG","DelfiName":"-","THID":"-","LastOperationDate":"","SEV":"nein","longitude":"11,722287","latitude":"48,171992","geojson_lng":11.722287,"geojson_lat":48.171992},"geometry":{"type":"Point","coordinates":[11.722287,48.171992]}},{"type":"Feature","properties":{"SeqNo":"132386","Type":"Q","DHID":"de:09184:2117:0:3","Parent":"de:09184:2117","Name":"Ri. NW / Erdinger Straße (aufgelöst)","MunicipalityCode":"00000000","Municipality":"-","DistrictCode":"-","District":"-","Description":"","Authority":"BEG","DelfiName":"-","THID":"-","LastOperationDate":"","SEV":"nein","longitude":"11,724461","latitude":"48,171872","geojson_lng":11.724461,"geojson_lat":48.171872},"geometry":{"type":"Point","coordinates":[11.724461,48.171872]}},{"type":"Feature","properties":{"SeqNo":"132387","Type":"Q","DHID":"de:09184:2117:0:4","Parent":"de:09184:2117","Name":"Ri. SO / Realschule (aufgelöst)","MunicipalityCode":"00000000","Municipality":"-","DistrictCode":"-","District":"-","Description":"","Authority":"BEG","DelfiName":"-","THID":"-","LastOperationDate":"","SEV":"nein","longitude":"11,724362","latitude":"48,171884","geojson_lng":11.724362,"geojson_lat":48.171884},"geometry":{"type":"Point","coordinates":[11.724362,48.171884]}},{"type":"Feature","properties":{"SeqNo":"134631","Type":"S","DHID":"de:09184:2613","Parent":"de:09184:2613","Name":"Aschheim, Uhlandstraße","MunicipalityCode":"09184112","Municipality":"Aschheim","DistrictCode":"","District":"","Description":"","Authority":"BEG","DelfiName":"-","THID":"D923E0000A35","LastOperationDate":"2025-06-14T00:00:00","SEV":"nein","longitude":"11,729985","latitude":"48,166174","geojson_lng":11.729985,"geojson_lat":48.166174},"geometry":{"type":"Point","coordinates":[11.729985,48.166174]}},{"type":"Feature","properties":{"SeqNo":"134632","Type":"Q","DHID":"de:09184:2613:0:1","Parent":"de:09184:2613","Name":"Ri. West / Saturnstraße","MunicipalityCode":"00000000","Municipality":"-","DistrictCode":"-","District":"-","Description":"","Authority":"BEG","DelfiName":"-","THID":"-","LastOperationDate":"","SEV":"nein","longitude":"11,730605","latitude":"48,166115","geojson_lng":11.730605,"geojson_lat":48.166115},"geometry":{"type":"Point","coordinates":[11.730605,48.166115]}},{"type":"Feature","properties":{"SeqNo":"134633","Type":"Q","DHID":"de:09184:2613:0:2","Parent":"de:09184:2613","Name":"Ri. SO / XXXLutz","MunicipalityCode":"00000000","Municipality":"-","DistrictCode":"-","District":"-","Description":"","Authority":"BEG","DelfiName":"-","THID":"-","LastOperationDate":"","SEV":"nein","longitude":"11,729527","latitude":"48,166798","geojson_lng":11.729527,"geojson_lat":48.166798},"geometry":{"type":"Point","coordinates":[11.729527,48.166798]}},{"type":"Feature","properties":{"SeqNo":"134634","Type":"Q","DHID":"de:09184:2613:0:3","Parent":"de:09184:2613","Name":"BAU Ri. Ost / XXXLutz","MunicipalityCode":"00000000","Municipality":"-","DistrictCode":"-","District":"-","Description":"","Authority":"BEG","DelfiName":"-","THID":"-","LastOperationDate":"","SEV":"nein","longitude":"11,730632","latitude":"48,166007","geojson_lng":11.730632,"geojson_lat":48.166007},"geometry":{"type":"Point","coordinates":[11.730632,48.166007]}}]}