{"type":"FeatureCollection","features":[{"type":"Feature","properties":{"SeqNo":"716281","Type":"S","DHID":"de:03157:465","Parent":"de:03157:465","Name":"Wierthe","MunicipalityCode":"03157007","Municipality":"Vechelde","DistrictCode":"","District":"","Description":"","Authority":"HannIT","DelfiName":"-","THID":"D90C550001D1","LastOperationDate":"2025-02-28T00:00:00","SEV":"nein","longitude":"10,386735","latitude":"52,232742","geojson_lng":10.386735,"geojson_lat":52.232742},"geometry":{"type":"Point","coordinates":[10.386735,52.232742]}},{"type":"Feature","properties":{"SeqNo":"716282","Type":"A","DHID":"de:03157:465:1","Parent":"de:03157:465","Name":"Bus","MunicipalityCode":"00000000","Municipality":"-","DistrictCode":"-","District":"-","Description":"","Authority":"HannIT","DelfiName":"-","THID":"-","LastOperationDate":"","SEV":"nein","longitude":"10,386744","latitude":"52,232731","geojson_lng":10.386744,"geojson_lat":52.232731},"geometry":{"type":"Point","coordinates":[10.386744,52.232731]}},{"type":"Feature","properties":{"SeqNo":"716283","Type":"Q","DHID":"de:03157:465:1:A","Parent":"de:03157:465:1","Name":"Richtung Sonnenberg","MunicipalityCode":"00000000","Municipality":"-","DistrictCode":"-","District":"-","Description":"","Authority":"HannIT","DelfiName":"-","THID":"-","LastOperationDate":"","SEV":"nein","longitude":"10,386977","latitude":"52,232703","geojson_lng":10.386977,"geojson_lat":52.232703},"geometry":{"type":"Point","coordinates":[10.386977,52.232703]}},{"type":"Feature","properties":{"SeqNo":"716284","Type":"Q","DHID":"de:03157:465:1:B","Parent":"de:03157:465:1","Name":"Richtung Alvesse","MunicipalityCode":"00000000","Municipality":"-","DistrictCode":"-","District":"-","Description":"","Authority":"HannIT","DelfiName":"-","THID":"-","LastOperationDate":"","SEV":"nein","longitude":"10,386591","latitude":"52,23278","geojson_lng":10.386591,"geojson_lat":52.23278},"geometry":{"type":"Point","coordinates":[10.386591,52.23278]}},{"type":"Feature","properties":{"SeqNo":"716285","Type":"Q","DHID":"de:03157:465:1:C","Parent":"de:03157:465:1","Name":"Ersatzhalt / alle Rtg.","MunicipalityCode":"00000000","Municipality":"-","DistrictCode":"-","District":"-","Description":"","Authority":"HannIT","DelfiName":"-","THID":"-","LastOperationDate":"","SEV":"nein","longitude":"10,386276","latitude":"52,233974","geojson_lng":10.386276,"geojson_lat":52.233974},"geometry":{"type":"Point","coordinates":[10.386276,52.233974]}},{"type":"Feature","properties":{"SeqNo":"717054","Type":"S","DHID":"de:03157:8198","Parent":"de:03157:8198","Name":"Wierthe Telefonzelle","MunicipalityCode":"03157007","Municipality":"Vechelde","DistrictCode":"","District":"","Description":"","Authority":"HannIT","DelfiName":"-","THID":"D90C55002006","LastOperationDate":"1999-12-31T00:00:00","SEV":"nein","longitude":"10,386214","latitude":"52,233363","geojson_lng":10.386214,"geojson_lat":52.233363},"geometry":{"type":"Point","coordinates":[10.386214,52.233363]}},{"type":"Feature","properties":{"SeqNo":"717055","Type":"Q","DHID":"de:03157:8198:0:A","Parent":"de:03157:8198","Name":"A","MunicipalityCode":"00000000","Municipality":"-","DistrictCode":"-","District":"-","Description":"","Authority":"HannIT","DelfiName":"-","THID":"-","LastOperationDate":"","SEV":"nein","longitude":"10,386223","latitude":"52,233341","geojson_lng":10.386223,"geojson_lat":52.233341},"geometry":{"type":"Point","coordinates":[10.386223,52.233341]}},{"type":"Feature","properties":{"SeqNo":"717056","Type":"S","DHID":"de:03157:8199","Parent":"de:03157:8199","Name":"Wierthe, An der Friedenseiche","MunicipalityCode":"03157007","Municipality":"Vechelde","DistrictCode":"","District":"","Description":"","Authority":"HannIT","DelfiName":"-","THID":"D90C55002007","LastOperationDate":"2025-02-28T00:00:00","SEV":"nein","longitude":"10,386196","latitude":"52,233374","geojson_lng":10.386196,"geojson_lat":52.233374},"geometry":{"type":"Point","coordinates":[10.386196,52.233374]}},{"type":"Feature","properties":{"SeqNo":"717057","Type":"Q","DHID":"de:03157:8199:0:A","Parent":"de:03157:8199","Name":"A","MunicipalityCode":"00000000","Municipality":"-","DistrictCode":"-","District":"-","Description":"","Authority":"HannIT","DelfiName":"-","THID":"-","LastOperationDate":"","SEV":"nein","longitude":"10,386223","latitude":"52,233374","geojson_lng":10.386223,"geojson_lat":52.233374},"geometry":{"type":"Point","coordinates":[10.386223,52.233374]}}]}