{"type":"FeatureCollection","features":[{"type":"Feature","properties":{"SeqNo":"599405","Type":"S","DHID":"de:05513:5030","Parent":"de:05513:5030","Name":"Gelsenkirchen Hölscherstr.","MunicipalityCode":"05513000","Municipality":"Gelsenkirchen","DistrictCode":"-","District":"-","Description":"","Authority":"VRR","DelfiName":"-","THID":"D915890013A6","LastOperationDate":"2025-02-28T00:00:00","SEV":"nein","longitude":"7,05597","latitude":"51,576112","geojson_lng":7.05597,"geojson_lat":51.576112},"geometry":{"type":"Point","coordinates":[7.05597,51.576112]}},{"type":"Feature","properties":{"SeqNo":"599406","Type":"A","DHID":"de:05513:5030:1","Parent":"de:05513:5030","Name":"Hölscherstr.","MunicipalityCode":"00000000","Municipality":"-","DistrictCode":"-","District":"-","Description":"Hölscherstr.","Authority":"VRR","DelfiName":"-","THID":"-","LastOperationDate":"","SEV":"nein","longitude":"7,055997","latitude":"51,576079","geojson_lng":7.055997,"geojson_lat":51.576079},"geometry":{"type":"Point","coordinates":[7.055997,51.576079]}},{"type":"Feature","properties":{"SeqNo":"599407","Type":"Q","DHID":"de:05513:5030:1:02","Parent":"de:05513:5030:1","Name":"","MunicipalityCode":"00000000","Municipality":"-","DistrictCode":"-","District":"-","Description":"","Authority":"VRR","DelfiName":"-","THID":"-","LastOperationDate":"","SEV":"nein","longitude":"7,055997","latitude":"51,576118","geojson_lng":7.055997,"geojson_lat":51.576118},"geometry":{"type":"Point","coordinates":[7.055997,51.576118]}},{"type":"Feature","properties":{"SeqNo":"599539","Type":"S","DHID":"de:05513:5062","Parent":"de:05513:5062","Name":"GE Buer Bergmannsheil","MunicipalityCode":"05513000","Municipality":"Gelsenkirchen","DistrictCode":"05513","District":"","Description":"","Authority":"VRR","DelfiName":"-","THID":"D915890013C6","LastOperationDate":"2025-06-14T00:00:00","SEV":"nein","longitude":"7,056383","latitude":"51,571015","geojson_lng":7.056383,"geojson_lat":51.571015},"geometry":{"type":"Point","coordinates":[7.056383,51.571015]}},{"type":"Feature","properties":{"SeqNo":"599540","Type":"A","DHID":"de:05513:5062:1","Parent":"de:05513:5062","Name":"Strab Ri. Buer","MunicipalityCode":"00000000","Municipality":"-","DistrictCode":"-","District":"-","Description":"","Authority":"VRR","DelfiName":"-","THID":"-","LastOperationDate":"","SEV":"nein","longitude":"7,056401","latitude":"51,570669","geojson_lng":7.056401,"geojson_lat":51.570669},"geometry":{"type":"Point","coordinates":[7.056401,51.570669]}},{"type":"Feature","properties":{"SeqNo":"599541","Type":"A","DHID":"de:05513:5062:2","Parent":"de:05513:5062","Name":"Strab Ri. GE Hbf","MunicipalityCode":"00000000","Municipality":"-","DistrictCode":"-","District":"-","Description":"","Authority":"VRR","DelfiName":"-","THID":"-","LastOperationDate":"","SEV":"nein","longitude":"7,056258","latitude":"51,570557","geojson_lng":7.056258,"geojson_lat":51.570557},"geometry":{"type":"Point","coordinates":[7.056258,51.570557]}},{"type":"Feature","properties":{"SeqNo":"599542","Type":"A","DHID":"de:05513:5062:3","Parent":"de:05513:5062","Name":"NE10-Ri. Buer","MunicipalityCode":"00000000","Municipality":"-","DistrictCode":"-","District":"-","Description":"","Authority":"VRR","DelfiName":"-","THID":"-","LastOperationDate":"","SEV":"nein","longitude":"7,056761","latitude":"51,571165","geojson_lng":7.056761,"geojson_lat":51.571165},"geometry":{"type":"Point","coordinates":[7.056761,51.571165]}},{"type":"Feature","properties":{"SeqNo":"599543","Type":"A","DHID":"de:05513:5062:4","Parent":"de:05513:5062","Name":"NE10-Ri. GE Hbf","MunicipalityCode":"00000000","Municipality":"-","DistrictCode":"-","District":"-","Description":"","Authority":"VRR","DelfiName":"-","THID":"-","LastOperationDate":"","SEV":"nein","longitude":"7,056258","latitude":"51,571126","geojson_lng":7.056258,"geojson_lat":51.571126},"geometry":{"type":"Point","coordinates":[7.056258,51.571126]}},{"type":"Feature","properties":{"SeqNo":"599544","Type":"Q","DHID":"de:05513:5062:1:01","Parent":"de:05513:5062:1","Name":"Ri. Buer Rathaus","MunicipalityCode":"00000000","Municipality":"-","DistrictCode":"-","District":"-","Description":"","Authority":"VRR","DelfiName":"-","THID":"-","LastOperationDate":"","SEV":"nein","longitude":"7,056365","latitude":"51,570657","geojson_lng":7.056365,"geojson_lat":51.570657},"geometry":{"type":"Point","coordinates":[7.056365,51.570657]}},{"type":"Feature","properties":{"SeqNo":"599545","Type":"Q","DHID":"de:05513:5062:2:02","Parent":"de:05513:5062:2","Name":"Ri. Berger See","MunicipalityCode":"00000000","Municipality":"-","DistrictCode":"-","District":"-","Description":"","Authority":"VRR","DelfiName":"-","THID":"-","LastOperationDate":"","SEV":"nein","longitude":"7,056294","latitude":"51,570529","geojson_lng":7.056294,"geojson_lat":51.570529},"geometry":{"type":"Point","coordinates":[7.056294,51.570529]}},{"type":"Feature","properties":{"SeqNo":"599546","Type":"Q","DHID":"de:05513:5062:3:03","Parent":"de:05513:5062:3","Name":"NE10 Ri. Buer Rathaus","MunicipalityCode":"00000000","Municipality":"-","DistrictCode":"-","District":"-","Description":"","Authority":"VRR","DelfiName":"-","THID":"-","LastOperationDate":"","SEV":"nein","longitude":"7,056716","latitude":"51,571199","geojson_lng":7.056716,"geojson_lat":51.571199},"geometry":{"type":"Point","coordinates":[7.056716,51.571199]}},{"type":"Feature","properties":{"SeqNo":"599547","Type":"Q","DHID":"de:05513:5062:3:91","Parent":"de:05513:5062:3","Name":"SEV Ri. Buer Rathaus","MunicipalityCode":"00000000","Municipality":"-","DistrictCode":"-","District":"-","Description":"","Authority":"VRR","DelfiName":"-","THID":"-","LastOperationDate":"","SEV":"nein","longitude":"7,056698","latitude":"51,571188","geojson_lng":7.056698,"geojson_lat":51.571188},"geometry":{"type":"Point","coordinates":[7.056698,51.571188]}},{"type":"Feature","properties":{"SeqNo":"599548","Type":"Q","DHID":"de:05513:5062:4:04","Parent":"de:05513:5062:4","Name":"NE10 Ri. Stadthafen","MunicipalityCode":"00000000","Municipality":"-","DistrictCode":"-","District":"-","Description":"","Authority":"VRR","DelfiName":"-","THID":"-","LastOperationDate":"","SEV":"nein","longitude":"7,056311","latitude":"51,571143","geojson_lng":7.056311,"geojson_lat":51.571143},"geometry":{"type":"Point","coordinates":[7.056311,51.571143]}},{"type":"Feature","properties":{"SeqNo":"599549","Type":"Q","DHID":"de:05513:5062:4:92","Parent":"de:05513:5062:4","Name":"SEV Ri. Berger See","MunicipalityCode":"00000000","Municipality":"-","DistrictCode":"-","District":"-","Description":"","Authority":"VRR","DelfiName":"-","THID":"-","LastOperationDate":"","SEV":"nein","longitude":"7,056294","latitude":"51,571121","geojson_lng":7.056294,"geojson_lat":51.571121},"geometry":{"type":"Point","coordinates":[7.056294,51.571121]}},{"type":"Feature","properties":{"SeqNo":"599791","Type":"S","DHID":"de:05513:5162","Parent":"de:05513:5162","Name":"Gelsenkirchen Erlestr.","MunicipalityCode":"05513000","Municipality":"Gelsenkirchen","DistrictCode":"","District":"","Description":"","Authority":"VRR","DelfiName":"-","THID":"D9158900142A","LastOperationDate":"2025-06-14T00:00:00","SEV":"nein","longitude":"7,063543","latitude":"51,57504","geojson_lng":7.063543,"geojson_lat":51.57504},"geometry":{"type":"Point","coordinates":[7.063543,51.57504]}},{"type":"Feature","properties":{"SeqNo":"599792","Type":"A","DHID":"de:05513:5162:1","Parent":"de:05513:5162","Name":"Strab Ri. Buer","MunicipalityCode":"00000000","Municipality":"-","DistrictCode":"-","District":"-","Description":"","Authority":"VRR","DelfiName":"-","THID":"-","LastOperationDate":"","SEV":"nein","longitude":"7,062716","latitude":"51,575085","geojson_lng":7.062716,"geojson_lat":51.575085},"geometry":{"type":"Point","coordinates":[7.062716,51.575085]}},{"type":"Feature","properties":{"SeqNo":"599793","Type":"A","DHID":"de:05513:5162:2","Parent":"de:05513:5162","Name":"Strab Ri. H-Löns-Str","MunicipalityCode":"00000000","Municipality":"-","DistrictCode":"-","District":"-","Description":"","Authority":"VRR","DelfiName":"-","THID":"-","LastOperationDate":"","SEV":"nein","longitude":"7,062968","latitude":"51,574995","geojson_lng":7.062968,"geojson_lat":51.574995},"geometry":{"type":"Point","coordinates":[7.062968,51.574995]}},{"type":"Feature","properties":{"SeqNo":"599796","Type":"A","DHID":"de:05513:5162:93","Parent":"de:05513:5162","Name":"Ri. Buer Rathaus","MunicipalityCode":"00000000","Municipality":"-","DistrictCode":"-","District":"-","Description":"","Authority":"VRR","DelfiName":"-","THID":"-","LastOperationDate":"","SEV":"nein","longitude":"7,061522","latitude":"51,575375","geojson_lng":7.061522,"geojson_lat":51.575375},"geometry":{"type":"Point","coordinates":[7.061522,51.575375]}},{"type":"Feature","properties":{"SeqNo":"599797","Type":"A","DHID":"de:05513:5162:94","Parent":"de:05513:5162","Name":"Ri. Marktstr.","MunicipalityCode":"00000000","Municipality":"-","DistrictCode":"-","District":"-","Description":"","Authority":"VRR","DelfiName":"-","THID":"-","LastOperationDate":"","SEV":"nein","longitude":"7,059572","latitude":"51,574113","geojson_lng":7.059572,"geojson_lat":51.574113},"geometry":{"type":"Point","coordinates":[7.059572,51.574113]}},{"type":"Feature","properties":{"SeqNo":"599798","Type":"Q","DHID":"de:05513:5162:1:01","Parent":"de:05513:5162:1","Name":"301 Ri. Buer","MunicipalityCode":"00000000","Municipality":"-","DistrictCode":"-","District":"-","Description":"","Authority":"VRR","DelfiName":"-","THID":"-","LastOperationDate":"","SEV":"nein","longitude":"7,062672","latitude":"51,575062","geojson_lng":7.062672,"geojson_lat":51.575062},"geometry":{"type":"Point","coordinates":[7.062672,51.575062]}},{"type":"Feature","properties":{"SeqNo":"599799","Type":"Q","DHID":"de:05513:5162:2:02","Parent":"de:05513:5162:2","Name":"301 Ri. H-Löns-Str.","MunicipalityCode":"00000000","Municipality":"-","DistrictCode":"-","District":"-","Description":"","Authority":"VRR","DelfiName":"-","THID":"-","LastOperationDate":"","SEV":"nein","longitude":"7,063049","latitude":"51,575018","geojson_lng":7.063049,"geojson_lat":51.575018},"geometry":{"type":"Point","coordinates":[7.063049,51.575018]}},{"type":"Feature","properties":{"SeqNo":"599804","Type":"Q","DHID":"de:05513:5162:93:93","Parent":"de:05513:5162:93","Name":"SEV Ri. Buer Rathaus","MunicipalityCode":"00000000","Municipality":"-","DistrictCode":"-","District":"-","Description":"","Authority":"VRR","DelfiName":"-","THID":"-","LastOperationDate":"","SEV":"nein","longitude":"7,061459","latitude":"51,575353","geojson_lng":7.061459,"geojson_lat":51.575353},"geometry":{"type":"Point","coordinates":[7.061459,51.575353]}},{"type":"Feature","properties":{"SeqNo":"599805","Type":"Q","DHID":"de:05513:5162:94:94","Parent":"de:05513:5162:94","Name":"SEV Ri. Marktstr.","MunicipalityCode":"00000000","Municipality":"-","DistrictCode":"-","District":"-","Description":"","Authority":"VRR","DelfiName":"-","THID":"-","LastOperationDate":"","SEV":"nein","longitude":"7,059617","latitude":"51,574041","geojson_lng":7.059617,"geojson_lat":51.574041},"geometry":{"type":"Point","coordinates":[7.059617,51.574041]}},{"type":"Feature","properties":{"SeqNo":"601182","Type":"S","DHID":"de:05513:6690","Parent":"de:05513:6690","Name":"GE Buer Bergm./Scharenw.","MunicipalityCode":"05513000","Municipality":"Gelsenkirchen","DistrictCode":"-","District":"-","Description":"","Authority":"VRR","DelfiName":"-","THID":"D91589001A22","LastOperationDate":"2025-02-28T00:00:00","SEV":"nein","longitude":"7,060084","latitude":"51,571919","geojson_lng":7.060084,"geojson_lat":51.571919},"geometry":{"type":"Point","coordinates":[7.060084,51.571919]}},{"type":"Feature","properties":{"SeqNo":"601183","Type":"A","DHID":"de:05513:6690:1","Parent":"de:05513:6690","Name":"Ri. Buer Rathaus","MunicipalityCode":"00000000","Municipality":"-","DistrictCode":"-","District":"-","Description":"Ri. Buer Rathaus","Authority":"VRR","DelfiName":"-","THID":"-","LastOperationDate":"","SEV":"nein","longitude":"7,059887","latitude":"51,572025","geojson_lng":7.059887,"geojson_lat":51.572025},"geometry":{"type":"Point","coordinates":[7.059887,51.572025]}},{"type":"Feature","properties":{"SeqNo":"601184","Type":"A","DHID":"de:05513:6690:2","Parent":"de:05513:6690","Name":"Ri. Schloß Berge","MunicipalityCode":"00000000","Municipality":"-","DistrictCode":"-","District":"-","Description":"Ri. Schloß Berge","Authority":"VRR","DelfiName":"-","THID":"-","LastOperationDate":"","SEV":"nein","longitude":"7,060309","latitude":"51,57183","geojson_lng":7.060309,"geojson_lat":51.57183},"geometry":{"type":"Point","coordinates":[7.060309,51.57183]}},{"type":"Feature","properties":{"SeqNo":"601185","Type":"Q","DHID":"de:05513:6690:0:01","Parent":"de:05513:6690:1","Name":"Ri. Buer Rathaus","MunicipalityCode":"00000000","Municipality":"-","DistrictCode":"-","District":"-","Description":"Ri. Buer Rathaus","Authority":"VRR","DelfiName":"-","THID":"-","LastOperationDate":"","SEV":"nein","longitude":"7,059923","latitude":"51,571992","geojson_lng":7.059923,"geojson_lat":51.571992},"geometry":{"type":"Point","coordinates":[7.059923,51.571992]}},{"type":"Feature","properties":{"SeqNo":"601186","Type":"Q","DHID":"de:05513:6690:0:02","Parent":"de:05513:6690:2","Name":"Ri. Schloß Berge","MunicipalityCode":"00000000","Municipality":"-","DistrictCode":"-","District":"-","Description":"Ri. Schloß Berge","Authority":"VRR","DelfiName":"-","THID":"-","LastOperationDate":"","SEV":"nein","longitude":"7,060264","latitude":"51,571863","geojson_lng":7.060264,"geojson_lat":51.571863},"geometry":{"type":"Point","coordinates":[7.060264,51.571863]}}]}