{"type":"FeatureCollection","features":[{"type":"Feature","properties":{"SeqNo":"531531","Type":"S","DHID":"de:05124:11195","Parent":"de:05124:11195","Name":"Wuppertal HAKO Sportarena","MunicipalityCode":"05124000","Municipality":"Wuppertal","DistrictCode":"","District":"","Description":"","Authority":"VRR","DelfiName":"-","THID":"D91404002BBB","LastOperationDate":"1999-12-31T00:00:00","SEV":"nein","longitude":"7,059671","latitude":"51,22696","geojson_lng":7.059671,"geojson_lat":51.22696},"geometry":{"type":"Point","coordinates":[7.059671,51.22696]}},{"type":"Feature","properties":{"SeqNo":"531532","Type":"Q","DHID":"de:05124:11195:0:1","Parent":"de:05124:11195","Name":"1","MunicipalityCode":"00000000","Municipality":"-","DistrictCode":"-","District":"-","Description":"","Authority":"VRR","DelfiName":"-","THID":"-","LastOperationDate":"","SEV":"nein","longitude":"7,059761","latitude":"51,22696","geojson_lng":7.059761,"geojson_lat":51.22696},"geometry":{"type":"Point","coordinates":[7.059761,51.22696]}},{"type":"Feature","properties":{"SeqNo":"532199","Type":"S","DHID":"de:05124:11318","Parent":"de:05124:11318","Name":"Wuppertal Simonshöfchen","MunicipalityCode":"05124000","Municipality":"Wuppertal","DistrictCode":"","District":"","Description":"","Authority":"VRR","DelfiName":"-","THID":"D91404002C36","LastOperationDate":"2025-06-14T00:00:00","SEV":"nein","longitude":"7,053212","latitude":"51,227427","geojson_lng":7.053212,"geojson_lat":51.227427},"geometry":{"type":"Point","coordinates":[7.053212,51.227427]}},{"type":"Feature","properties":{"SeqNo":"532200","Type":"Q","DHID":"de:05124:11318:0:1","Parent":"de:05124:11318","Name":"-> Gruitener Str","MunicipalityCode":"00000000","Municipality":"-","DistrictCode":"-","District":"-","Description":"","Authority":"VRR","DelfiName":"-","THID":"-","LastOperationDate":"","SEV":"nein","longitude":"7,053203","latitude":"51,227506","geojson_lng":7.053203,"geojson_lat":51.227506},"geometry":{"type":"Point","coordinates":[7.053203,51.227506]}},{"type":"Feature","properties":{"SeqNo":"532201","Type":"Q","DHID":"de:05124:11318:0:2","Parent":"de:05124:11318","Name":"-> Simonshöfchen Mitte","MunicipalityCode":"00000000","Municipality":"-","DistrictCode":"-","District":"-","Description":"","Authority":"VRR","DelfiName":"-","THID":"-","LastOperationDate":"","SEV":"nein","longitude":"7,053239","latitude":"51,227343","geojson_lng":7.053239,"geojson_lat":51.227343},"geometry":{"type":"Point","coordinates":[7.053239,51.227343]}},{"type":"Feature","properties":{"SeqNo":"532374","Type":"S","DHID":"de:05124:11355","Parent":"de:05124:11355","Name":"Wuppertal Hildener Straße","MunicipalityCode":"05124000","Municipality":"Wuppertal","DistrictCode":"","District":"","Description":"","Authority":"VRR","DelfiName":"-","THID":"D91404002C5B","LastOperationDate":"2025-06-14T00:00:00","SEV":"nein","longitude":"7,062447","latitude":"51,224671","geojson_lng":7.062447,"geojson_lat":51.224671},"geometry":{"type":"Point","coordinates":[7.062447,51.224671]}},{"type":"Feature","properties":{"SeqNo":"532375","Type":"A","DHID":"de:05124:11355:1","Parent":"de:05124:11355","Name":"Westring","MunicipalityCode":"00000000","Municipality":"-","DistrictCode":"-","District":"-","Description":"","Authority":"VRR","DelfiName":"-","THID":"-","LastOperationDate":"","SEV":"nein","longitude":"7,062438","latitude":"51,224659","geojson_lng":7.062438,"geojson_lat":51.224659},"geometry":{"type":"Point","coordinates":[7.062438,51.224659]}},{"type":"Feature","properties":{"SeqNo":"532376","Type":"A","DHID":"de:05124:11355:2","Parent":"de:05124:11355","Name":"Haaner Straße","MunicipalityCode":"00000000","Municipality":"-","DistrictCode":"-","District":"-","Description":"","Authority":"VRR","DelfiName":"-","THID":"-","LastOperationDate":"","SEV":"nein","longitude":"7,061046","latitude":"51,224367","geojson_lng":7.061046,"geojson_lat":51.224367},"geometry":{"type":"Point","coordinates":[7.061046,51.224367]}},{"type":"Feature","properties":{"SeqNo":"532377","Type":"Q","DHID":"de:05124:11355:0:1","Parent":"de:05124:11355:1","Name":"iR Engelshöhe","MunicipalityCode":"00000000","Municipality":"-","DistrictCode":"-","District":"-","Description":"","Authority":"VRR","DelfiName":"-","THID":"-","LastOperationDate":"","SEV":"nein","longitude":"7,062438","latitude":"51,224693","geojson_lng":7.062438,"geojson_lat":51.224693},"geometry":{"type":"Point","coordinates":[7.062438,51.224693]}},{"type":"Feature","properties":{"SeqNo":"532378","Type":"Q","DHID":"de:05124:11355:0:2","Parent":"de:05124:11355:1","Name":"iR Vohwinkel","MunicipalityCode":"00000000","Municipality":"-","DistrictCode":"-","District":"-","Description":"","Authority":"VRR","DelfiName":"-","THID":"-","LastOperationDate":"","SEV":"nein","longitude":"7,062447","latitude":"51,224637","geojson_lng":7.062447,"geojson_lat":51.224637},"geometry":{"type":"Point","coordinates":[7.062447,51.224637]}},{"type":"Feature","properties":{"SeqNo":"532379","Type":"Q","DHID":"de:05124:11355:2:E2","Parent":"de:05124:11355:2","Name":"Ersatzhalt in der Haaner Straße","MunicipalityCode":"00000000","Municipality":"-","DistrictCode":"-","District":"-","Description":"","Authority":"VRR","DelfiName":"-","THID":"-","LastOperationDate":"","SEV":"nein","longitude":"7,061037","latitude":"51,224412","geojson_lng":7.061037,"geojson_lat":51.224412},"geometry":{"type":"Point","coordinates":[7.061037,51.224412]}},{"type":"Feature","properties":{"SeqNo":"532384","Type":"S","DHID":"de:05124:11357","Parent":"de:05124:11357","Name":"Wuppertal Siedlung Bremkamp","MunicipalityCode":"05124000","Municipality":"Wuppertal","DistrictCode":"","District":"","Description":"","Authority":"VRR","DelfiName":"-","THID":"D91404002C5D","LastOperationDate":"2025-06-14T00:00:00","SEV":"nein","longitude":"7,053958","latitude":"51,222302","geojson_lng":7.053958,"geojson_lat":51.222302},"geometry":{"type":"Point","coordinates":[7.053958,51.222302]}},{"type":"Feature","properties":{"SeqNo":"532385","Type":"Q","DHID":"de:05124:11357:0:1","Parent":"de:05124:11357","Name":"iR Vohwinkel Schwebebahn","MunicipalityCode":"00000000","Municipality":"-","DistrictCode":"-","District":"-","Description":"","Authority":"VRR","DelfiName":"-","THID":"-","LastOperationDate":"","SEV":"nein","longitude":"7,054057","latitude":"51,222308","geojson_lng":7.054057,"geojson_lat":51.222308},"geometry":{"type":"Point","coordinates":[7.054057,51.222308]}},{"type":"Feature","properties":{"SeqNo":"532386","Type":"Q","DHID":"de:05124:11357:0:2","Parent":"de:05124:11357","Name":"iR Haan","MunicipalityCode":"00000000","Municipality":"-","DistrictCode":"-","District":"-","Description":"","Authority":"VRR","DelfiName":"-","THID":"-","LastOperationDate":"","SEV":"nein","longitude":"7,053877","latitude":"51,222302","geojson_lng":7.053877,"geojson_lat":51.222302},"geometry":{"type":"Point","coordinates":[7.053877,51.222302]}},{"type":"Feature","properties":{"SeqNo":"532583","Type":"S","DHID":"de:05124:11393","Parent":"de:05124:11393","Name":"Wuppertal Haaner Straße","MunicipalityCode":"05124000","Municipality":"Wuppertal","DistrictCode":"-","District":"-","Description":"","Authority":"VRR","DelfiName":"-","THID":"D91404002C81","LastOperationDate":"2025-06-14T00:00:00","SEV":"nein","longitude":"7,055566","latitude":"51,223726","geojson_lng":7.055566,"geojson_lat":51.223726},"geometry":{"type":"Point","coordinates":[7.055566,51.223726]}},{"type":"Feature","properties":{"SeqNo":"532584","Type":"Q","DHID":"de:05124:11393:0:1","Parent":"de:05124:11393","Name":"1","MunicipalityCode":"00000000","Municipality":"-","DistrictCode":"-","District":"-","Description":"iR Vohwinkel Schwebebahn","Authority":"VRR","DelfiName":"-","THID":"-","LastOperationDate":"","SEV":"nein","longitude":"7,055862","latitude":"51,223906","geojson_lng":7.055862,"geojson_lat":51.223906},"geometry":{"type":"Point","coordinates":[7.055862,51.223906]}},{"type":"Feature","properties":{"SeqNo":"532585","Type":"Q","DHID":"de:05124:11393:0:2","Parent":"de:05124:11393","Name":"2","MunicipalityCode":"00000000","Municipality":"-","DistrictCode":"-","District":"-","Description":"iR Haan","Authority":"VRR","DelfiName":"-","THID":"-","LastOperationDate":"","SEV":"nein","longitude":"7,055278","latitude":"51,223529","geojson_lng":7.055278,"geojson_lat":51.223529},"geometry":{"type":"Point","coordinates":[7.055278,51.223529]}},{"type":"Feature","properties":{"SeqNo":"534038","Type":"S","DHID":"de:05124:11959","Parent":"de:05124:11959","Name":"Wuppertal Vohwinkeler Straße","MunicipalityCode":"05124000","Municipality":"Wuppertal","DistrictCode":"","District":"","Description":"","Authority":"VRR","DelfiName":"-","THID":"D91404002EB7","LastOperationDate":"2025-06-14T00:00:00","SEV":"nein","longitude":"7,059249","latitude":"51,226673","geojson_lng":7.059249,"geojson_lat":51.226673},"geometry":{"type":"Point","coordinates":[7.059249,51.226673]}},{"type":"Feature","properties":{"SeqNo":"534039","Type":"Q","DHID":"de:05124:11959:0:1","Parent":"de:05124:11959","Name":"iR Vohwinkel Schwebebahn","MunicipalityCode":"00000000","Municipality":"-","DistrictCode":"-","District":"-","Description":"","Authority":"VRR","DelfiName":"-","THID":"-","LastOperationDate":"","SEV":"nein","longitude":"7,059186","latitude":"51,22655","geojson_lng":7.059186,"geojson_lat":51.22655},"geometry":{"type":"Point","coordinates":[7.059186,51.22655]}},{"type":"Feature","properties":{"SeqNo":"534040","Type":"Q","DHID":"de:05124:11959:0:2","Parent":"de:05124:11959","Name":"iR Haan","MunicipalityCode":"00000000","Municipality":"-","DistrictCode":"-","District":"-","Description":"","Authority":"VRR","DelfiName":"-","THID":"-","LastOperationDate":"","SEV":"nein","longitude":"7,05924","latitude":"51,22678","geojson_lng":7.05924,"geojson_lat":51.22678},"geometry":{"type":"Point","coordinates":[7.05924,51.22678]}}]}