{"type":"FeatureCollection","features":[{"type":"Feature","properties":{"SeqNo":"787387","Type":"S","DHID":"de:10041:17800","Parent":"de:10041:17800","Name":"Bahnhof, Sulzbach","MunicipalityCode":"10041518","Municipality":"Sulzbach/Saar","DistrictCode":"","District":"","Description":"","Authority":"ZPS","DelfiName":"-","THID":"D92739004588","LastOperationDate":"2025-02-28T00:00:00","SEV":"nein","longitude":"7,055592","latitude":"49,299226","geojson_lng":7.055592,"geojson_lat":49.299226},"geometry":{"type":"Point","coordinates":[7.055592,49.299226]}},{"type":"Feature","properties":{"SeqNo":"787388","Type":"Q","DHID":"de:10041:17800::1780006","Parent":"de:10041:17800","Name":"Bahnhof, Sulzbach","MunicipalityCode":"00000000","Municipality":"-","DistrictCode":"-","District":"-","Description":"","Authority":"ZPS","DelfiName":"-","THID":"-","LastOperationDate":"","SEV":"nein","longitude":"7,055649","latitude":"49,299164","geojson_lng":7.055649,"geojson_lat":49.299164},"geometry":{"type":"Point","coordinates":[7.055649,49.299164]}},{"type":"Feature","properties":{"SeqNo":"787389","Type":"Q","DHID":"de:10041:17800::178001","Parent":"de:10041:17800","Name":"Bahnhof, Sulzbach","MunicipalityCode":"00000000","Municipality":"-","DistrictCode":"-","District":"-","Description":"","Authority":"ZPS","DelfiName":"-","THID":"-","LastOperationDate":"","SEV":"nein","longitude":"7,055549","latitude":"49,299252","geojson_lng":7.055549,"geojson_lat":49.299252},"geometry":{"type":"Point","coordinates":[7.055549,49.299252]}},{"type":"Feature","properties":{"SeqNo":"787390","Type":"S","DHID":"de:10041:17801","Parent":"de:10041:17801","Name":"Bahnhofstr., Sulzbach","MunicipalityCode":"10041518","Municipality":"Sulzbach/Saar","DistrictCode":"","District":"","Description":"","Authority":"ZPS","DelfiName":"-","THID":"D92739004589","LastOperationDate":"2025-02-21T00:00:00","SEV":"nein","longitude":"7,057336","latitude":"49,297546","geojson_lng":7.057336,"geojson_lat":49.297546},"geometry":{"type":"Point","coordinates":[7.057336,49.297546]}},{"type":"Feature","properties":{"SeqNo":"787391","Type":"Q","DHID":"de:10041:17801::1780101","Parent":"de:10041:17801","Name":"Bahnhofstr., Sulzbach","MunicipalityCode":"00000000","Municipality":"-","DistrictCode":"-","District":"-","Description":"","Authority":"ZPS","DelfiName":"-","THID":"-","LastOperationDate":"","SEV":"nein","longitude":"7,057839","latitude":"49,297699","geojson_lng":7.057839,"geojson_lat":49.297699},"geometry":{"type":"Point","coordinates":[7.057839,49.297699]}},{"type":"Feature","properties":{"SeqNo":"787392","Type":"Q","DHID":"de:10041:17801::1780102","Parent":"de:10041:17801","Name":"Bahnhofstr., Sulzbach","MunicipalityCode":"00000000","Municipality":"-","DistrictCode":"-","District":"-","Description":"","Authority":"ZPS","DelfiName":"-","THID":"-","LastOperationDate":"","SEV":"nein","longitude":"7,057231","latitude":"49,297778","geojson_lng":7.057231,"geojson_lat":49.297778},"geometry":{"type":"Point","coordinates":[7.057231,49.297778]}},{"type":"Feature","properties":{"SeqNo":"787393","Type":"Q","DHID":"de:10041:17801::1780106","Parent":"de:10041:17801","Name":"Bahnhofstr., Sulzbach","MunicipalityCode":"00000000","Municipality":"-","DistrictCode":"-","District":"-","Description":"","Authority":"ZPS","DelfiName":"-","THID":"-","LastOperationDate":"","SEV":"nein","longitude":"7,057683","latitude":"49,297813","geojson_lng":7.057683,"geojson_lat":49.297813},"geometry":{"type":"Point","coordinates":[7.057683,49.297813]}},{"type":"Feature","properties":{"SeqNo":"787394","Type":"Q","DHID":"de:10041:17801::1780108","Parent":"de:10041:17801","Name":"Bahnhofstr., Sulzbach","MunicipalityCode":"00000000","Municipality":"-","DistrictCode":"-","District":"-","Description":"","Authority":"ZPS","DelfiName":"-","THID":"-","LastOperationDate":"","SEV":"nein","longitude":"7,05758","latitude":"49,297281","geojson_lng":7.05758,"geojson_lat":49.297281},"geometry":{"type":"Point","coordinates":[7.05758,49.297281]}},{"type":"Feature","properties":{"SeqNo":"787409","Type":"S","DHID":"de:10041:17807","Parent":"de:10041:17807","Name":"Rathaus, Sulzbach","MunicipalityCode":"10041518","Municipality":"Sulzbach/Saar","DistrictCode":"","District":"","Description":"","Authority":"ZPS","DelfiName":"-","THID":"D9273900458F","LastOperationDate":"2025-02-28T00:00:00","SEV":"nein","longitude":"7,061439","latitude":"49,299208","geojson_lng":7.061439,"geojson_lat":49.299208},"geometry":{"type":"Point","coordinates":[7.061439,49.299208]}},{"type":"Feature","properties":{"SeqNo":"787410","Type":"Q","DHID":"de:10041:17807::1780701","Parent":"de:10041:17807","Name":"Rathaus, Sulzbach","MunicipalityCode":"00000000","Municipality":"-","DistrictCode":"-","District":"-","Description":"","Authority":"ZPS","DelfiName":"-","THID":"-","LastOperationDate":"","SEV":"nein","longitude":"7,062123","latitude":"49,299282","geojson_lng":7.062123,"geojson_lat":49.299282},"geometry":{"type":"Point","coordinates":[7.062123,49.299282]}},{"type":"Feature","properties":{"SeqNo":"787411","Type":"Q","DHID":"de:10041:17807::1780706","Parent":"de:10041:17807","Name":"Rathaus, Sulzbach","MunicipalityCode":"00000000","Municipality":"-","DistrictCode":"-","District":"-","Description":"","Authority":"ZPS","DelfiName":"-","THID":"-","LastOperationDate":"","SEV":"nein","longitude":"7,061873","latitude":"49,299368","geojson_lng":7.061873,"geojson_lat":49.299368},"geometry":{"type":"Point","coordinates":[7.061873,49.299368]}},{"type":"Feature","properties":{"SeqNo":"787422","Type":"Q","DHID":"de:10041:17817::1781706","Parent":"de:10041:17817","Name":"Sportzentrum, Sulzbach","MunicipalityCode":"00000000","Municipality":"-","DistrictCode":"-","District":"-","Description":"","Authority":"ZPS","DelfiName":"-","THID":"-","LastOperationDate":"","SEV":"nein","longitude":"7,057409","latitude":"49,303737","geojson_lng":7.057409,"geojson_lat":49.303737},"geometry":{"type":"Point","coordinates":[7.057409,49.303737]}},{"type":"Feature","properties":{"SeqNo":"787433","Type":"S","DHID":"de:10041:17827","Parent":"de:10041:17827","Name":"Einkaufszentrum EKZ, Sulzbach","MunicipalityCode":"10041518","Municipality":"Sulzbach/Saar","DistrictCode":"","District":"","Description":"","Authority":"ZPS","DelfiName":"-","THID":"D927390045A3","LastOperationDate":"2025-02-28T00:00:00","SEV":"nein","longitude":"7,056807","latitude":"49,301891","geojson_lng":7.056807,"geojson_lat":49.301891},"geometry":{"type":"Point","coordinates":[7.056807,49.301891]}},{"type":"Feature","properties":{"SeqNo":"787434","Type":"Q","DHID":"de:10041:17827::1782701","Parent":"de:10041:17827","Name":"Einkaufszentrum EKZ, Sulzbach","MunicipalityCode":"00000000","Municipality":"-","DistrictCode":"-","District":"-","Description":"","Authority":"ZPS","DelfiName":"-","THID":"-","LastOperationDate":"","SEV":"nein","longitude":"7,05681","latitude":"49,30182","geojson_lng":7.05681,"geojson_lat":49.30182},"geometry":{"type":"Point","coordinates":[7.05681,49.30182]}},{"type":"Feature","properties":{"SeqNo":"787435","Type":"Q","DHID":"de:10041:17827::1782702","Parent":"de:10041:17827","Name":"Einkaufszentrum EKZ, Sulzbach","MunicipalityCode":"00000000","Municipality":"-","DistrictCode":"-","District":"-","Description":"","Authority":"ZPS","DelfiName":"-","THID":"-","LastOperationDate":"","SEV":"nein","longitude":"7,056736","latitude":"49,301962","geojson_lng":7.056736,"geojson_lat":49.301962},"geometry":{"type":"Point","coordinates":[7.056736,49.301962]}},{"type":"Feature","properties":{"SeqNo":"787438","Type":"S","DHID":"de:10041:17829","Parent":"de:10041:17829","Name":"Aula, Sulzbach","MunicipalityCode":"10041518","Municipality":"Sulzbach/Saar","DistrictCode":"-","District":"-","Description":"","Authority":"ZPS","DelfiName":"-","THID":"D927390045A5","LastOperationDate":"1999-12-31T00:00:00","SEV":"nein","longitude":"7,05817","latitude":"49,300835","geojson_lng":7.05817,"geojson_lat":49.300835},"geometry":{"type":"Point","coordinates":[7.05817,49.300835]}},{"type":"Feature","properties":{"SeqNo":"787439","Type":"Q","DHID":"de:10041:17829::178291","Parent":"de:10041:17829","Name":"Aula, Sulzbach","MunicipalityCode":"00000000","Municipality":"-","DistrictCode":"-","District":"-","Description":"","Authority":"ZPS","DelfiName":"-","THID":"-","LastOperationDate":"","SEV":"nein","longitude":"7,058104","latitude":"49,300762","geojson_lng":7.058104,"geojson_lat":49.300762},"geometry":{"type":"Point","coordinates":[7.058104,49.300762]}},{"type":"Feature","properties":{"SeqNo":"787440","Type":"S","DHID":"de:10041:17830","Parent":"de:10041:17830","Name":"Salzbrunnenhaus, Sulzbach","MunicipalityCode":"10041518","Municipality":"Sulzbach/Saar","DistrictCode":"-","District":"-","Description":"","Authority":"ZPS","DelfiName":"-","THID":"D927390045A6","LastOperationDate":"1999-12-31T00:00:00","SEV":"nein","longitude":"7,060532","latitude":"49,298473","geojson_lng":7.060532,"geojson_lat":49.298473},"geometry":{"type":"Point","coordinates":[7.060532,49.298473]}},{"type":"Feature","properties":{"SeqNo":"787441","Type":"Q","DHID":"de:10041:17830::178301","Parent":"de:10041:17830","Name":"Salzbrunnenhaus, Sulzbach","MunicipalityCode":"00000000","Municipality":"-","DistrictCode":"-","District":"-","Description":"","Authority":"ZPS","DelfiName":"-","THID":"-","LastOperationDate":"","SEV":"nein","longitude":"7,060534","latitude":"49,298419","geojson_lng":7.060534,"geojson_lat":49.298419},"geometry":{"type":"Point","coordinates":[7.060534,49.298419]}},{"type":"Feature","properties":{"SeqNo":"787448","Type":"S","DHID":"de:10041:17834","Parent":"de:10041:17834","Name":"Bauamt, Sulzbach","MunicipalityCode":"10041518","Municipality":"Sulzbach/Saar","DistrictCode":"-","District":"-","Description":"","Authority":"ZPS","DelfiName":"-","THID":"D927390045AA","LastOperationDate":"1999-12-31T00:00:00","SEV":"nein","longitude":"7,060821","latitude":"49,299863","geojson_lng":7.060821,"geojson_lat":49.299863},"geometry":{"type":"Point","coordinates":[7.060821,49.299863]}},{"type":"Feature","properties":{"SeqNo":"787449","Type":"Q","DHID":"de:10041:17834::178341","Parent":"de:10041:17834","Name":"Bauamt, Sulzbach","MunicipalityCode":"00000000","Municipality":"-","DistrictCode":"-","District":"-","Description":"","Authority":"ZPS","DelfiName":"-","THID":"-","LastOperationDate":"","SEV":"nein","longitude":"7,060723","latitude":"49,299573","geojson_lng":7.060723,"geojson_lat":49.299573},"geometry":{"type":"Point","coordinates":[7.060723,49.299573]}},{"type":"Feature","properties":{"SeqNo":"787450","Type":"S","DHID":"de:10041:17835","Parent":"de:10041:17835","Name":"EKZ Parkplatz, Sulzbach ","MunicipalityCode":"10041518","Municipality":"Sulzbach/Saar","DistrictCode":"-","District":"-","Description":"","Authority":"ZPS","DelfiName":"-","THID":"D927390045AB","LastOperationDate":"2025-02-28T00:00:00","SEV":"nein","longitude":"7,058204","latitude":"49,302059","geojson_lng":7.058204,"geojson_lat":49.302059},"geometry":{"type":"Point","coordinates":[7.058204,49.302059]}},{"type":"Feature","properties":{"SeqNo":"787451","Type":"Q","DHID":"de:10041:17835::178351","Parent":"de:10041:17835","Name":"EKZ Parkplatz, Sulzbach ","MunicipalityCode":"00000000","Municipality":"-","DistrictCode":"-","District":"-","Description":"","Authority":"ZPS","DelfiName":"-","THID":"-","LastOperationDate":"","SEV":"nein","longitude":"7,058206","latitude":"49,302014","geojson_lng":7.058206,"geojson_lat":49.302014},"geometry":{"type":"Point","coordinates":[7.058206,49.302014]}},{"type":"Feature","properties":{"SeqNo":"788063","Type":"S","DHID":"de:10041:8005796","Parent":"de:10041:8005796","Name":"Sulzbach (Saar)","MunicipalityCode":"10041518","Municipality":"Sulzbach/Saar","DistrictCode":"","District":"","Description":"","Authority":"ZPS","DelfiName":"-","THID":"D927397A28A4","LastOperationDate":"2025-06-13T00:00:00","SEV":"nein","longitude":"7,054733","latitude":"49,299365","geojson_lng":7.054733,"geojson_lat":49.299365},"geometry":{"type":"Point","coordinates":[7.054733,49.299365]}},{"type":"Feature","properties":{"SeqNo":"788064","Type":"A","DHID":"de:10041:8005796:1","Parent":"de:10041:8005796","Name":"Bahnsteig Gleis 1+2","MunicipalityCode":"00000000","Municipality":"-","DistrictCode":"-","District":"-","Description":"","Authority":"ZPS","DelfiName":"-","THID":"-","LastOperationDate":"","SEV":"nein","longitude":"7,05441","latitude":"49,299188","geojson_lng":7.05441,"geojson_lat":49.299188},"geometry":{"type":"Point","coordinates":[7.05441,49.299188]}},{"type":"Feature","properties":{"SeqNo":"788065","Type":"Q","DHID":"de:10041:8005796:1:800579601","Parent":"de:10041:8005796:1","Name":"Gleis 1","MunicipalityCode":"00000000","Municipality":"-","DistrictCode":"-","District":"-","Description":"","Authority":"ZPS","DelfiName":"-","THID":"-","LastOperationDate":"","SEV":"nein","longitude":"7,054505","latitude":"49,299226","geojson_lng":7.054505,"geojson_lat":49.299226},"geometry":{"type":"Point","coordinates":[7.054505,49.299226]}},{"type":"Feature","properties":{"SeqNo":"788066","Type":"Q","DHID":"de:10041:8005796:1:800579602","Parent":"de:10041:8005796:1","Name":"Gleis 2","MunicipalityCode":"00000000","Municipality":"-","DistrictCode":"-","District":"-","Description":"","Authority":"ZPS","DelfiName":"-","THID":"-","LastOperationDate":"","SEV":"nein","longitude":"7,054462","latitude":"49,299261","geojson_lng":7.054462,"geojson_lat":49.299261},"geometry":{"type":"Point","coordinates":[7.054462,49.299261]}}]}