{"type":"FeatureCollection","features":[{"type":"Feature","properties":{"SeqNo":"455874","Type":"S","DHID":"de:06531:14946","Parent":"de:06531:14946","Name":"Biebertal-Fellingshausen Am Weidenborn","MunicipalityCode":"06531002","Municipality":"Biebertal","DistrictCode":"-","District":"-","Description":"","Authority":"rms","DelfiName":"-","THID":"D91983003A62","LastOperationDate":"2025-02-28T00:00:00","SEV":"nein","longitude":"8,597385","latitude":"50,638559","geojson_lng":8.597385,"geojson_lat":50.638559},"geometry":{"type":"Point","coordinates":[8.597385,50.638559]}},{"type":"Feature","properties":{"SeqNo":"455875","Type":"A","DHID":"de:06531:14946:1","Parent":"de:06531:14946","Name":"Fellingshausen Am Weidenborn | NKrumbach","MunicipalityCode":"00000000","Municipality":"-","DistrictCode":"-","District":"-","Description":"","Authority":"rms","DelfiName":"-","THID":"-","LastOperationDate":"","SEV":"nein","longitude":"8,597539","latitude":"50,63873","geojson_lng":8.597539,"geojson_lat":50.63873},"geometry":{"type":"Point","coordinates":[8.597539,50.63873]}},{"type":"Feature","properties":{"SeqNo":"455876","Type":"Q","DHID":"de:06531:14946:1:1","Parent":"de:06531:14946:1","Name":"NKrumbach","MunicipalityCode":"00000000","Municipality":"-","DistrictCode":"-","District":"-","Description":"","Authority":"rms","DelfiName":"-","THID":"-","LastOperationDate":"","SEV":"nein","longitude":"8,597539","latitude":"50,63873","geojson_lng":8.597539,"geojson_lat":50.63873},"geometry":{"type":"Point","coordinates":[8.597539,50.63873]}},{"type":"Feature","properties":{"SeqNo":"457332","Type":"S","DHID":"de:06531:20579","Parent":"de:06531:20579","Name":"Biebertal-Fellingshausen Schule","MunicipalityCode":"06531002","Municipality":"Biebertal","DistrictCode":"-","District":"-","Description":"","Authority":"rms","DelfiName":"-","THID":"D91983005063","LastOperationDate":"2025-02-28T00:00:00","SEV":"nein","longitude":"8,598288","latitude":"50,638751","geojson_lng":8.598288,"geojson_lat":50.638751},"geometry":{"type":"Point","coordinates":[8.598288,50.638751]}},{"type":"Feature","properties":{"SeqNo":"457333","Type":"A","DHID":"de:06531:20579:1","Parent":"de:06531:20579","Name":"Fellingshausen Schule | VGießenBf","MunicipalityCode":"00000000","Municipality":"-","DistrictCode":"-","District":"-","Description":"","Authority":"rms","DelfiName":"-","THID":"-","LastOperationDate":"","SEV":"nein","longitude":"8,59847","latitude":"50,63894","geojson_lng":8.59847,"geojson_lat":50.63894},"geometry":{"type":"Point","coordinates":[8.59847,50.63894]}},{"type":"Feature","properties":{"SeqNo":"457334","Type":"A","DHID":"de:06531:20579:2","Parent":"de:06531:20579","Name":"Fellingshausen Schule | NGießenBf","MunicipalityCode":"00000000","Municipality":"-","DistrictCode":"-","District":"-","Description":"","Authority":"rms","DelfiName":"-","THID":"-","LastOperationDate":"","SEV":"nein","longitude":"8,598163","latitude":"50,638481","geojson_lng":8.598163,"geojson_lat":50.638481},"geometry":{"type":"Point","coordinates":[8.598163,50.638481]}},{"type":"Feature","properties":{"SeqNo":"457335","Type":"Q","DHID":"de:06531:20579:1:1","Parent":"de:06531:20579:1","Name":"VGießenBf","MunicipalityCode":"00000000","Municipality":"-","DistrictCode":"-","District":"-","Description":"","Authority":"rms","DelfiName":"-","THID":"-","LastOperationDate":"","SEV":"nein","longitude":"8,59847","latitude":"50,63894","geojson_lng":8.59847,"geojson_lat":50.63894},"geometry":{"type":"Point","coordinates":[8.59847,50.63894]}},{"type":"Feature","properties":{"SeqNo":"457336","Type":"Q","DHID":"de:06531:20579:2:2","Parent":"de:06531:20579:2","Name":"NGießenBf","MunicipalityCode":"00000000","Municipality":"-","DistrictCode":"-","District":"-","Description":"","Authority":"rms","DelfiName":"-","THID":"-","LastOperationDate":"","SEV":"nein","longitude":"8,598163","latitude":"50,638481","geojson_lng":8.598163,"geojson_lat":50.638481},"geometry":{"type":"Point","coordinates":[8.598163,50.638481]}}]}