{"type":"FeatureCollection","features":[{"type":"Feature","properties":{"SeqNo":"203713","Type":"S","DHID":"de:09477:6658","Parent":"de:09477:6658","Name":"Kulmbach MGF-Gymnasium","MunicipalityCode":"09477128","Municipality":"Kulmbach","DistrictCode":"","District":"","Description":"","Authority":"BEG","DelfiName":"-","THID":"D92505001A02","LastOperationDate":"2025-02-28T00:00:00","SEV":"nein","longitude":"11,460976","latitude":"50,105727","geojson_lng":11.460976,"geojson_lat":50.105727},"geometry":{"type":"Point","coordinates":[11.460976,50.105727]}},{"type":"Feature","properties":{"SeqNo":"203714","Type":"Q","DHID":"de:09477:6658:0:1","Parent":"de:09477:6658","Name":"Kulmbach MGF-Gymnasium, Mast 1","MunicipalityCode":"00000000","Municipality":"-","DistrictCode":"-","District":"-","Description":"","Authority":"BEG","DelfiName":"-","THID":"-","LastOperationDate":"","SEV":"nein","longitude":"11,460976","latitude":"50,105727","geojson_lng":11.460976,"geojson_lat":50.105727},"geometry":{"type":"Point","coordinates":[11.460976,50.105727]}},{"type":"Feature","properties":{"SeqNo":"203972","Type":"S","DHID":"de:09477:75670","Parent":"de:09477:75670","Name":"Kulmbach Röhrenplatz","MunicipalityCode":"09477128","Municipality":"Kulmbach","DistrictCode":"","District":"","Description":"","Authority":"BEG","DelfiName":"-","THID":"D92505012796","LastOperationDate":"2025-02-28T00:00:00","SEV":"nein","longitude":"11,463347","latitude":"50,105623","geojson_lng":11.463347,"geojson_lat":50.105623},"geometry":{"type":"Point","coordinates":[11.463347,50.105623]}},{"type":"Feature","properties":{"SeqNo":"203973","Type":"Q","DHID":"de:09477:75670:0:1","Parent":"de:09477:75670","Name":"Röhrenplatz","MunicipalityCode":"00000000","Municipality":"-","DistrictCode":"-","District":"-","Description":"","Authority":"BEG","DelfiName":"-","THID":"-","LastOperationDate":"","SEV":"nein","longitude":"11,463347","latitude":"50,105623","geojson_lng":11.463347,"geojson_lat":50.105623},"geometry":{"type":"Point","coordinates":[11.463347,50.105623]}},{"type":"Feature","properties":{"SeqNo":"203974","Type":"Q","DHID":"de:09477:75670:0:2","Parent":"de:09477:75670","Name":"Röhrenplatz","MunicipalityCode":"00000000","Municipality":"-","DistrictCode":"-","District":"-","Description":"","Authority":"BEG","DelfiName":"-","THID":"-","LastOperationDate":"","SEV":"nein","longitude":"11,46315","latitude":"50,105681","geojson_lng":11.46315,"geojson_lat":50.105681},"geometry":{"type":"Point","coordinates":[11.46315,50.105681]}},{"type":"Feature","properties":{"SeqNo":"203975","Type":"S","DHID":"de:09477:75671","Parent":"de:09477:75671","Name":"Kulmbach Beethovenstr.","MunicipalityCode":"09477128","Municipality":"Kulmbach","DistrictCode":"","District":"","Description":"","Authority":"BEG","DelfiName":"-","THID":"D92505012797","LastOperationDate":"2025-02-28T00:00:00","SEV":"nein","longitude":"11,469061","latitude":"50,105139","geojson_lng":11.469061,"geojson_lat":50.105139},"geometry":{"type":"Point","coordinates":[11.469061,50.105139]}},{"type":"Feature","properties":{"SeqNo":"203976","Type":"Q","DHID":"de:09477:75671:0:1","Parent":"de:09477:75671","Name":"Beethovenstr.","MunicipalityCode":"00000000","Municipality":"-","DistrictCode":"-","District":"-","Description":"","Authority":"BEG","DelfiName":"-","THID":"-","LastOperationDate":"","SEV":"nein","longitude":"11,469061","latitude":"50,105139","geojson_lng":11.469061,"geojson_lat":50.105139},"geometry":{"type":"Point","coordinates":[11.469061,50.105139]}},{"type":"Feature","properties":{"SeqNo":"203977","Type":"Q","DHID":"de:09477:75671:0:2","Parent":"de:09477:75671","Name":"Beethovenstr.","MunicipalityCode":"00000000","Municipality":"-","DistrictCode":"-","District":"-","Description":"","Authority":"BEG","DelfiName":"-","THID":"-","LastOperationDate":"","SEV":"nein","longitude":"11,469142","latitude":"50,105179","geojson_lng":11.469142,"geojson_lat":50.105179},"geometry":{"type":"Point","coordinates":[11.469142,50.105179]}}]}