{"type":"FeatureCollection","features":[{"type":"Feature","properties":{"SeqNo":"178942","Type":"S","DHID":"de:09373:17044","Parent":"de:09373:17044","Name":"Neumarkt Hasenheide Kirche","MunicipalityCode":"09373147","Municipality":"Neumarkt i.d. OPf.","DistrictCode":"","District":"","Description":"","Authority":"BEG","DelfiName":"-","THID":"D9249D004294","LastOperationDate":"2025-02-28T00:00:00","SEV":"nein","longitude":"11,461147","latitude":"49,257592","geojson_lng":11.461147,"geojson_lat":49.257592},"geometry":{"type":"Point","coordinates":[11.461147,49.257592]}},{"type":"Feature","properties":{"SeqNo":"178943","Type":"Q","DHID":"de:09373:17044:0:1","Parent":"de:09373:17044","Name":"1","MunicipalityCode":"00000000","Municipality":"-","DistrictCode":"-","District":"-","Description":"","Authority":"BEG","DelfiName":"-","THID":"-","LastOperationDate":"","SEV":"nein","longitude":"11,461165","latitude":"49,257592","geojson_lng":11.461165,"geojson_lat":49.257592},"geometry":{"type":"Point","coordinates":[11.461165,49.257592]}},{"type":"Feature","properties":{"SeqNo":"178944","Type":"Q","DHID":"de:09373:17044:0:2","Parent":"de:09373:17044","Name":"2","MunicipalityCode":"00000000","Municipality":"-","DistrictCode":"-","District":"-","Description":"","Authority":"BEG","DelfiName":"-","THID":"-","LastOperationDate":"","SEV":"nein","longitude":"11,461147","latitude":"49,257592","geojson_lng":11.461147,"geojson_lat":49.257592},"geometry":{"type":"Point","coordinates":[11.461147,49.257592]}},{"type":"Feature","properties":{"SeqNo":"178945","Type":"S","DHID":"de:09373:17046","Parent":"de:09373:17046","Name":"Neumarkt Hasenheide Schule","MunicipalityCode":"09373147","Municipality":"Neumarkt i.d. OPf.","DistrictCode":"","District":"","Description":"","Authority":"BEG","DelfiName":"-","THID":"D9249D004296","LastOperationDate":"2025-02-28T00:00:00","SEV":"nein","longitude":"11,461281","latitude":"49,254291","geojson_lng":11.461281,"geojson_lat":49.254291},"geometry":{"type":"Point","coordinates":[11.461281,49.254291]}},{"type":"Feature","properties":{"SeqNo":"178946","Type":"Q","DHID":"de:09373:17046:0:1","Parent":"de:09373:17046","Name":"1","MunicipalityCode":"00000000","Municipality":"-","DistrictCode":"-","District":"-","Description":"","Authority":"BEG","DelfiName":"-","THID":"-","LastOperationDate":"","SEV":"nein","longitude":"11,46129","latitude":"49,254239","geojson_lng":11.46129,"geojson_lat":49.254239},"geometry":{"type":"Point","coordinates":[11.46129,49.254239]}},{"type":"Feature","properties":{"SeqNo":"178947","Type":"Q","DHID":"de:09373:17046:0:2","Parent":"de:09373:17046","Name":"2","MunicipalityCode":"00000000","Municipality":"-","DistrictCode":"-","District":"-","Description":"","Authority":"BEG","DelfiName":"-","THID":"-","LastOperationDate":"","SEV":"nein","longitude":"11,461281","latitude":"49,254291","geojson_lng":11.461281,"geojson_lat":49.254291},"geometry":{"type":"Point","coordinates":[11.461281,49.254291]}},{"type":"Feature","properties":{"SeqNo":"178954","Type":"S","DHID":"de:09373:17050","Parent":"de:09373:17050","Name":"Neumarkt Ingolstädter Str.","MunicipalityCode":"09373147","Municipality":"Neumarkt i.d. OPf.","DistrictCode":"","District":"","Description":"","Authority":"BEG","DelfiName":"-","THID":"D9249D00429A","LastOperationDate":"2025-02-28T00:00:00","SEV":"nein","longitude":"11,459323","latitude":"49,259791","geojson_lng":11.459323,"geojson_lat":49.259791},"geometry":{"type":"Point","coordinates":[11.459323,49.259791]}},{"type":"Feature","properties":{"SeqNo":"178955","Type":"Q","DHID":"de:09373:17050:0:1","Parent":"de:09373:17050","Name":"1","MunicipalityCode":"00000000","Municipality":"-","DistrictCode":"-","District":"-","Description":"","Authority":"BEG","DelfiName":"-","THID":"-","LastOperationDate":"","SEV":"nein","longitude":"11,459242","latitude":"49,259908","geojson_lng":11.459242,"geojson_lat":49.259908},"geometry":{"type":"Point","coordinates":[11.459242,49.259908]}},{"type":"Feature","properties":{"SeqNo":"178956","Type":"Q","DHID":"de:09373:17050:0:2","Parent":"de:09373:17050","Name":"2","MunicipalityCode":"00000000","Municipality":"-","DistrictCode":"-","District":"-","Description":"","Authority":"BEG","DelfiName":"-","THID":"-","LastOperationDate":"","SEV":"nein","longitude":"11,459422","latitude":"49,259855","geojson_lng":11.459422,"geojson_lat":49.259855},"geometry":{"type":"Point","coordinates":[11.459422,49.259855]}},{"type":"Feature","properties":{"SeqNo":"179104","Type":"S","DHID":"de:09373:17110","Parent":"de:09373:17110","Name":"Neumarkt Hasenheide Försterst.","MunicipalityCode":"09373147","Municipality":"Neumarkt i.d. OPf.","DistrictCode":"","District":"","Description":"","Authority":"BEG","DelfiName":"-","THID":"D9249D0042D6","LastOperationDate":"2025-02-28T00:00:00","SEV":"nein","longitude":"11,463608","latitude":"49,256109","geojson_lng":11.463608,"geojson_lat":49.256109},"geometry":{"type":"Point","coordinates":[11.463608,49.256109]}},{"type":"Feature","properties":{"SeqNo":"179105","Type":"Q","DHID":"de:09373:17110:0:1","Parent":"de:09373:17110","Name":"1","MunicipalityCode":"00000000","Municipality":"-","DistrictCode":"-","District":"-","Description":"","Authority":"BEG","DelfiName":"-","THID":"-","LastOperationDate":"","SEV":"nein","longitude":"11,463563","latitude":"49,256115","geojson_lng":11.463563,"geojson_lat":49.256115},"geometry":{"type":"Point","coordinates":[11.463563,49.256115]}},{"type":"Feature","properties":{"SeqNo":"179106","Type":"Q","DHID":"de:09373:17110:0:2","Parent":"de:09373:17110","Name":"2","MunicipalityCode":"00000000","Municipality":"-","DistrictCode":"-","District":"-","Description":"","Authority":"BEG","DelfiName":"-","THID":"-","LastOperationDate":"","SEV":"nein","longitude":"11,463608","latitude":"49,256109","geojson_lng":11.463608,"geojson_lat":49.256109},"geometry":{"type":"Point","coordinates":[11.463608,49.256109]}}]}