{"type":"FeatureCollection","features":[{"type":"Feature","properties":{"SeqNo":"93234","Type":"S","DHID":"de:08436:8270","Parent":"de:08436:8270","Name":"Wangen Leupolz Ort","MunicipalityCode":"08436081","Municipality":"Wangen im Allgäu","DistrictCode":"","District":"","Description":"","Authority":"NVBW","DelfiName":"-","THID":"D920F400204E","LastOperationDate":"2025-06-14T00:00:00","SEV":"nein","longitude":"9,824506","latitude":"47,749088","geojson_lng":9.824506,"geojson_lat":47.749088},"geometry":{"type":"Point","coordinates":[9.824506,47.749088]}},{"type":"Feature","properties":{"SeqNo":"93235","Type":"A","DHID":"de:08436:8270:1","Parent":"de:08436:8270","Name":"Bus","MunicipalityCode":"00000000","Municipality":"-","DistrictCode":"-","District":"-","Description":"","Authority":"NVBW","DelfiName":"-","THID":"-","LastOperationDate":"","SEV":"nein","longitude":"9,824497","latitude":"47,749088","geojson_lng":9.824497,"geojson_lat":47.749088},"geometry":{"type":"Point","coordinates":[9.824497,47.749088]}},{"type":"Feature","properties":{"SeqNo":"93236","Type":"A","DHID":"de:08436:8270:3","Parent":"de:08436:8270","Name":"B&R","MunicipalityCode":"00000000","Municipality":"-","DistrictCode":"-","District":"-","Description":"","Authority":"NVBW","DelfiName":"-","THID":"-","LastOperationDate":"","SEV":"nein","longitude":"9,824551","latitude":"47,749069","geojson_lng":9.824551,"geojson_lat":47.749069},"geometry":{"type":"Point","coordinates":[9.824551,47.749069]}},{"type":"Feature","properties":{"SeqNo":"93237","Type":"Q","DHID":"de:08436:8270:0:1","Parent":"de:08436:8270:1","Name":"Steig 1","MunicipalityCode":"00000000","Municipality":"-","DistrictCode":"-","District":"-","Description":"","Authority":"NVBW","DelfiName":"-","THID":"-","LastOperationDate":"","SEV":"nein","longitude":"9,824497","latitude":"47,749094","geojson_lng":9.824497,"geojson_lat":47.749094},"geometry":{"type":"Point","coordinates":[9.824497,47.749094]}},{"type":"Feature","properties":{"SeqNo":"93292","Type":"S","DHID":"de:08436:8286","Parent":"de:08436:8286","Name":"Wangen Leupolz, Schule","MunicipalityCode":"08436081","Municipality":"Wangen im Allgäu","DistrictCode":"-","District":"-","Description":"","Authority":"NVBW","DelfiName":"-","THID":"D920F400205E","LastOperationDate":"1999-12-31T00:00:00","SEV":"nein","longitude":"9,82668","latitude":"47,750332","geojson_lng":9.82668,"geojson_lat":47.750332},"geometry":{"type":"Point","coordinates":[9.82668,47.750332]}},{"type":"Feature","properties":{"SeqNo":"93293","Type":"Q","DHID":"de:08436:8286:0:1","Parent":"de:08436:8286","Name":"1","MunicipalityCode":"00000000","Municipality":"-","DistrictCode":"-","District":"-","Description":"Steig 1","Authority":"NVBW","DelfiName":"-","THID":"-","LastOperationDate":"","SEV":"nein","longitude":"9,826842","latitude":"47,750453","geojson_lng":9.826842,"geojson_lat":47.750453},"geometry":{"type":"Point","coordinates":[9.826842,47.750453]}}]}