{"type":"FeatureCollection","features":[{"type":"Feature","properties":{"SeqNo":"193394","Type":"S","DHID":"de:09464:124","Parent":"de:09464:124","Name":"Ottostraße","MunicipalityCode":"09464000","Municipality":"Hof","DistrictCode":"","District":"","Description":"","Authority":"BEG","DelfiName":"-","THID":"D924F800007C","LastOperationDate":"2025-06-14T00:00:00","SEV":"nein","longitude":"11,921443","latitude":"50,316416","geojson_lng":11.921443,"geojson_lat":50.316416},"geometry":{"type":"Point","coordinates":[11.921443,50.316416]}},{"type":"Feature","properties":{"SeqNo":"193395","Type":"Q","DHID":"de:09464:124:0:1","Parent":"de:09464:124","Name":"Ottostraße","MunicipalityCode":"00000000","Municipality":"-","DistrictCode":"-","District":"-","Description":"","Authority":"BEG","DelfiName":"-","THID":"-","LastOperationDate":"","SEV":"nein","longitude":"11,921353","latitude":"50,316416","geojson_lng":11.921353,"geojson_lat":50.316416},"geometry":{"type":"Point","coordinates":[11.921353,50.316416]}},{"type":"Feature","properties":{"SeqNo":"193396","Type":"Q","DHID":"de:09464:124:0:2","Parent":"de:09464:124","Name":"Ottostraße","MunicipalityCode":"00000000","Municipality":"-","DistrictCode":"-","District":"-","Description":"","Authority":"BEG","DelfiName":"-","THID":"-","LastOperationDate":"","SEV":"nein","longitude":"11,921524","latitude":"50,316422","geojson_lng":11.921524,"geojson_lat":50.316422},"geometry":{"type":"Point","coordinates":[11.921524,50.316422]}},{"type":"Feature","properties":{"SeqNo":"193577","Type":"S","DHID":"de:09464:33","Parent":"de:09464:33","Name":"HofBad","MunicipalityCode":"09464000","Municipality":"Hof","DistrictCode":"","District":"","Description":"","Authority":"BEG","DelfiName":"-","THID":"D924F8000021","LastOperationDate":"2025-06-14T00:00:00","SEV":"nein","longitude":"11,920078","latitude":"50,314248","geojson_lng":11.920078,"geojson_lat":50.314248},"geometry":{"type":"Point","coordinates":[11.920078,50.314248]}},{"type":"Feature","properties":{"SeqNo":"193578","Type":"Q","DHID":"de:09464:33:0:1","Parent":"de:09464:33","Name":"HofBad","MunicipalityCode":"00000000","Municipality":"-","DistrictCode":"-","District":"-","Description":"","Authority":"BEG","DelfiName":"-","THID":"-","LastOperationDate":"","SEV":"nein","longitude":"11,920015","latitude":"50,314317","geojson_lng":11.920015,"geojson_lat":50.314317},"geometry":{"type":"Point","coordinates":[11.920015,50.314317]}},{"type":"Feature","properties":{"SeqNo":"193579","Type":"Q","DHID":"de:09464:33:0:2","Parent":"de:09464:33","Name":"HofBad","MunicipalityCode":"00000000","Municipality":"-","DistrictCode":"-","District":"-","Description":"","Authority":"BEG","DelfiName":"-","THID":"-","LastOperationDate":"","SEV":"nein","longitude":"11,920132","latitude":"50,314185","geojson_lng":11.920132,"geojson_lat":50.314185},"geometry":{"type":"Point","coordinates":[11.920132,50.314185]}},{"type":"Feature","properties":{"SeqNo":"193580","Type":"S","DHID":"de:09464:34","Parent":"de:09464:34","Name":"Gaertla","MunicipalityCode":"09464000","Municipality":"Hof","DistrictCode":"","District":"","Description":"","Authority":"BEG","DelfiName":"-","THID":"D924F8000022","LastOperationDate":"2025-06-14T00:00:00","SEV":"nein","longitude":"11,925001","latitude":"50,315889","geojson_lng":11.925001,"geojson_lat":50.315889},"geometry":{"type":"Point","coordinates":[11.925001,50.315889]}},{"type":"Feature","properties":{"SeqNo":"193581","Type":"Q","DHID":"de:09464:34:0:1","Parent":"de:09464:34","Name":"Gaertla","MunicipalityCode":"00000000","Municipality":"-","DistrictCode":"-","District":"-","Description":"","Authority":"BEG","DelfiName":"-","THID":"-","LastOperationDate":"","SEV":"nein","longitude":"11,925001","latitude":"50,315889","geojson_lng":11.925001,"geojson_lat":50.315889},"geometry":{"type":"Point","coordinates":[11.925001,50.315889]}},{"type":"Feature","properties":{"SeqNo":"193582","Type":"Q","DHID":"de:09464:34:0:2","Parent":"de:09464:34","Name":"Gaertla Pos. 2","MunicipalityCode":"00000000","Municipality":"-","DistrictCode":"-","District":"-","Description":"","Authority":"BEG","DelfiName":"-","THID":"-","LastOperationDate":"","SEV":"nein","longitude":"11,925234","latitude":"50,315849","geojson_lng":11.925234,"geojson_lat":50.315849},"geometry":{"type":"Point","coordinates":[11.925234,50.315849]}},{"type":"Feature","properties":{"SeqNo":"193583","Type":"S","DHID":"de:09464:35","Parent":"de:09464:35","Name":"Jaegerzeile","MunicipalityCode":"09464000","Municipality":"Hof","DistrictCode":"","District":"","Description":"","Authority":"BEG","DelfiName":"-","THID":"D924F8000023","LastOperationDate":"2025-06-14T00:00:00","SEV":"nein","longitude":"11,927354","latitude":"50,316365","geojson_lng":11.927354,"geojson_lat":50.316365},"geometry":{"type":"Point","coordinates":[11.927354,50.316365]}},{"type":"Feature","properties":{"SeqNo":"193584","Type":"Q","DHID":"de:09464:35:0:1","Parent":"de:09464:35","Name":"Jaegerzeile","MunicipalityCode":"00000000","Municipality":"-","DistrictCode":"-","District":"-","Description":"","Authority":"BEG","DelfiName":"-","THID":"-","LastOperationDate":"","SEV":"nein","longitude":"11,927336","latitude":"50,316399","geojson_lng":11.927336,"geojson_lat":50.316399},"geometry":{"type":"Point","coordinates":[11.927336,50.316399]}},{"type":"Feature","properties":{"SeqNo":"193585","Type":"Q","DHID":"de:09464:35:0:2","Parent":"de:09464:35","Name":"Jaegerzeile","MunicipalityCode":"00000000","Municipality":"-","DistrictCode":"-","District":"-","Description":"","Authority":"BEG","DelfiName":"-","THID":"-","LastOperationDate":"","SEV":"nein","longitude":"11,927372","latitude":"50,316325","geojson_lng":11.927372,"geojson_lat":50.316325},"geometry":{"type":"Point","coordinates":[11.927372,50.316325]}},{"type":"Feature","properties":{"SeqNo":"193586","Type":"S","DHID":"de:09464:36","Parent":"de:09464:36","Name":"Christoph-Klauss-Str.","MunicipalityCode":"09464000","Municipality":"Hof","DistrictCode":"","District":"","Description":"","Authority":"BEG","DelfiName":"-","THID":"D924F8000024","LastOperationDate":"2025-06-14T00:00:00","SEV":"nein","longitude":"11,929663","latitude":"50,316967","geojson_lng":11.929663,"geojson_lat":50.316967},"geometry":{"type":"Point","coordinates":[11.929663,50.316967]}},{"type":"Feature","properties":{"SeqNo":"193587","Type":"Q","DHID":"de:09464:36:0:1","Parent":"de:09464:36","Name":"Christoph-Klaus-Str.","MunicipalityCode":"00000000","Municipality":"-","DistrictCode":"-","District":"-","Description":"","Authority":"BEG","DelfiName":"-","THID":"-","LastOperationDate":"","SEV":"nein","longitude":"11,929277","latitude":"50,317082","geojson_lng":11.929277,"geojson_lat":50.317082},"geometry":{"type":"Point","coordinates":[11.929277,50.317082]}},{"type":"Feature","properties":{"SeqNo":"193588","Type":"Q","DHID":"de:09464:36:0:2","Parent":"de:09464:36","Name":"Christoph-Klaus-Str.","MunicipalityCode":"00000000","Municipality":"-","DistrictCode":"-","District":"-","Description":"","Authority":"BEG","DelfiName":"-","THID":"-","LastOperationDate":"","SEV":"nein","longitude":"11,93004","latitude":"50,316847","geojson_lng":11.93004,"geojson_lat":50.316847},"geometry":{"type":"Point","coordinates":[11.93004,50.316847]}},{"type":"Feature","properties":{"SeqNo":"193607","Type":"S","DHID":"de:09464:43","Parent":"de:09464:43","Name":"Rekkenzeplatz","MunicipalityCode":"09464000","Municipality":"Hof","DistrictCode":"","District":"","Description":"","Authority":"BEG","DelfiName":"-","THID":"D924F800002B","LastOperationDate":"2025-06-14T00:00:00","SEV":"nein","longitude":"11,921632","latitude":"50,3106","geojson_lng":11.921632,"geojson_lat":50.3106},"geometry":{"type":"Point","coordinates":[11.921632,50.3106]}},{"type":"Feature","properties":{"SeqNo":"193608","Type":"Q","DHID":"de:09464:43:0:1","Parent":"de:09464:43","Name":"Rekkenzeplatz","MunicipalityCode":"00000000","Municipality":"-","DistrictCode":"-","District":"-","Description":"","Authority":"BEG","DelfiName":"-","THID":"-","LastOperationDate":"","SEV":"nein","longitude":"11,921946","latitude":"50,310531","geojson_lng":11.921946,"geojson_lat":50.310531},"geometry":{"type":"Point","coordinates":[11.921946,50.310531]}},{"type":"Feature","properties":{"SeqNo":"193609","Type":"Q","DHID":"de:09464:43:0:2","Parent":"de:09464:43","Name":"Rekkenzeplatz","MunicipalityCode":"00000000","Municipality":"-","DistrictCode":"-","District":"-","Description":"","Authority":"BEG","DelfiName":"-","THID":"-","LastOperationDate":"","SEV":"nein","longitude":"11,921318","latitude":"50,310668","geojson_lng":11.921318,"geojson_lat":50.310668},"geometry":{"type":"Point","coordinates":[11.921318,50.310668]}},{"type":"Feature","properties":{"SeqNo":"193759","Type":"S","DHID":"de:09464:92","Parent":"de:09464:92","Name":"Oelsnitzer Str.","MunicipalityCode":"09464000","Municipality":"Hof","DistrictCode":"","District":"","Description":"","Authority":"BEG","DelfiName":"-","THID":"D924F800005C","LastOperationDate":"2025-06-14T00:00:00","SEV":"nein","longitude":"11,928648","latitude":"50,313938","geojson_lng":11.928648,"geojson_lat":50.313938},"geometry":{"type":"Point","coordinates":[11.928648,50.313938]}},{"type":"Feature","properties":{"SeqNo":"193760","Type":"Q","DHID":"de:09464:92:0:1","Parent":"de:09464:92","Name":"Oelsnitzer Straße","MunicipalityCode":"00000000","Municipality":"-","DistrictCode":"-","District":"-","Description":"","Authority":"BEG","DelfiName":"-","THID":"-","LastOperationDate":"","SEV":"nein","longitude":"11,928639","latitude":"50,31399","geojson_lng":11.928639,"geojson_lat":50.31399},"geometry":{"type":"Point","coordinates":[11.928639,50.31399]}},{"type":"Feature","properties":{"SeqNo":"193761","Type":"Q","DHID":"de:09464:92:0:2","Parent":"de:09464:92","Name":"Oelsnitzer Straße","MunicipalityCode":"00000000","Municipality":"-","DistrictCode":"-","District":"-","Description":"","Authority":"BEG","DelfiName":"-","THID":"-","LastOperationDate":"","SEV":"nein","longitude":"11,928666","latitude":"50,313887","geojson_lng":11.928666,"geojson_lat":50.313887},"geometry":{"type":"Point","coordinates":[11.928666,50.313887]}}]}