{"type":"FeatureCollection","features":[{"type":"Feature","properties":{"SeqNo":"193318","Type":"S","DHID":"de:09464:1007","Parent":"de:09464:1007","Name":"Schneebergstr.","MunicipalityCode":"09464000","Municipality":"Hof","DistrictCode":"","District":"","Description":"","Authority":"BEG","DelfiName":"-","THID":"D924F80003EF","LastOperationDate":"2025-06-14T00:00:00","SEV":"nein","longitude":"11,924803","latitude":"50,291107","geojson_lng":11.924803,"geojson_lat":50.291107},"geometry":{"type":"Point","coordinates":[11.924803,50.291107]}},{"type":"Feature","properties":{"SeqNo":"193319","Type":"Q","DHID":"de:09464:1007:0:2","Parent":"de:09464:1007","Name":"Schneebergstraße","MunicipalityCode":"00000000","Municipality":"-","DistrictCode":"-","District":"-","Description":"","Authority":"BEG","DelfiName":"-","THID":"-","LastOperationDate":"","SEV":"nein","longitude":"11,924803","latitude":"50,291107","geojson_lng":11.924803,"geojson_lat":50.291107},"geometry":{"type":"Point","coordinates":[11.924803,50.291107]}},{"type":"Feature","properties":{"SeqNo":"193327","Type":"S","DHID":"de:09464:1050","Parent":"de:09464:1050","Name":"Hof (Saale), Krötenbrucker Str. Tankstelle","MunicipalityCode":"09464000","Municipality":"Hof","DistrictCode":"","District":"","Description":"","Authority":"BEG","DelfiName":"-","THID":"D924F800041A","LastOperationDate":"1999-12-31T00:00:00","SEV":"nein","longitude":"11,92483","latitude":"50,289363","geojson_lng":11.92483,"geojson_lat":50.289363},"geometry":{"type":"Point","coordinates":[11.92483,50.289363]}},{"type":"Feature","properties":{"SeqNo":"193328","Type":"Q","DHID":"de:09464:1050:0:1","Parent":"de:09464:1050","Name":"Kroetenbrucker Str. Tankst.","MunicipalityCode":"00000000","Municipality":"-","DistrictCode":"-","District":"-","Description":"","Authority":"BEG","DelfiName":"-","THID":"-","LastOperationDate":"","SEV":"nein","longitude":"11,92483","latitude":"50,289363","geojson_lng":11.92483,"geojson_lat":50.289363},"geometry":{"type":"Point","coordinates":[11.92483,50.289363]}},{"type":"Feature","properties":{"SeqNo":"193418","Type":"S","DHID":"de:09464:133","Parent":"de:09464:133","Name":"Ostpreussenstr.","MunicipalityCode":"09464000","Municipality":"Hof","DistrictCode":"","District":"","Description":"","Authority":"BEG","DelfiName":"-","THID":"D924F8000085","LastOperationDate":"2025-06-14T00:00:00","SEV":"nein","longitude":"11,928711","latitude":"50,293386","geojson_lng":11.928711,"geojson_lat":50.293386},"geometry":{"type":"Point","coordinates":[11.928711,50.293386]}},{"type":"Feature","properties":{"SeqNo":"193419","Type":"Q","DHID":"de:09464:133:0:1","Parent":"de:09464:133","Name":"Ostpreussenstr.","MunicipalityCode":"00000000","Municipality":"-","DistrictCode":"-","District":"-","Description":"","Authority":"BEG","DelfiName":"-","THID":"-","LastOperationDate":"","SEV":"nein","longitude":"11,92881","latitude":"50,293369","geojson_lng":11.92881,"geojson_lat":50.293369},"geometry":{"type":"Point","coordinates":[11.92881,50.293369]}},{"type":"Feature","properties":{"SeqNo":"193420","Type":"Q","DHID":"de:09464:133:0:2","Parent":"de:09464:133","Name":"Ostpreussenstr.","MunicipalityCode":"00000000","Municipality":"-","DistrictCode":"-","District":"-","Description":"","Authority":"BEG","DelfiName":"-","THID":"-","LastOperationDate":"","SEV":"nein","longitude":"11,928612","latitude":"50,293403","geojson_lng":11.928612,"geojson_lat":50.293403},"geometry":{"type":"Point","coordinates":[11.928612,50.293403]}},{"type":"Feature","properties":{"SeqNo":"193421","Type":"S","DHID":"de:09464:134","Parent":"de:09464:134","Name":"Huegelstr.","MunicipalityCode":"09464000","Municipality":"Hof","DistrictCode":"","District":"","Description":"","Authority":"BEG","DelfiName":"-","THID":"D924F8000086","LastOperationDate":"2025-06-14T00:00:00","SEV":"nein","longitude":"11,929133","latitude":"50,296123","geojson_lng":11.929133,"geojson_lat":50.296123},"geometry":{"type":"Point","coordinates":[11.929133,50.296123]}},{"type":"Feature","properties":{"SeqNo":"193422","Type":"Q","DHID":"de:09464:134:0:1","Parent":"de:09464:134","Name":"Huegelstraße","MunicipalityCode":"00000000","Municipality":"-","DistrictCode":"-","District":"-","Description":"","Authority":"BEG","DelfiName":"-","THID":"-","LastOperationDate":"","SEV":"nein","longitude":"11,929241","latitude":"50,296318","geojson_lng":11.929241,"geojson_lat":50.296318},"geometry":{"type":"Point","coordinates":[11.929241,50.296318]}},{"type":"Feature","properties":{"SeqNo":"193423","Type":"Q","DHID":"de:09464:134:0:2","Parent":"de:09464:134","Name":"Huegelstraße","MunicipalityCode":"00000000","Municipality":"-","DistrictCode":"-","District":"-","Description":"","Authority":"BEG","DelfiName":"-","THID":"-","LastOperationDate":"","SEV":"nein","longitude":"11,929016","latitude":"50,295928","geojson_lng":11.929016,"geojson_lat":50.295928},"geometry":{"type":"Point","coordinates":[11.929016,50.295928]}},{"type":"Feature","properties":{"SeqNo":"193554","Type":"S","DHID":"de:09464:26","Parent":"de:09464:26","Name":"Koesseinestr.","MunicipalityCode":"09464000","Municipality":"Hof","DistrictCode":"","District":"","Description":"","Authority":"BEG","DelfiName":"-","THID":"D924F800001A","LastOperationDate":"2025-06-14T00:00:00","SEV":"nein","longitude":"11,921587","latitude":"50,293219","geojson_lng":11.921587,"geojson_lat":50.293219},"geometry":{"type":"Point","coordinates":[11.921587,50.293219]}},{"type":"Feature","properties":{"SeqNo":"193555","Type":"Q","DHID":"de:09464:26:0:1","Parent":"de:09464:26","Name":"Koesseinestr.","MunicipalityCode":"00000000","Municipality":"-","DistrictCode":"-","District":"-","Description":"","Authority":"BEG","DelfiName":"-","THID":"-","LastOperationDate":"","SEV":"nein","longitude":"11,923222","latitude":"50,292353","geojson_lng":11.923222,"geojson_lat":50.292353},"geometry":{"type":"Point","coordinates":[11.923222,50.292353]}},{"type":"Feature","properties":{"SeqNo":"193556","Type":"Q","DHID":"de:09464:26:0:2","Parent":"de:09464:26","Name":"Koesseinestr.","MunicipalityCode":"00000000","Municipality":"-","DistrictCode":"-","District":"-","Description":"","Authority":"BEG","DelfiName":"-","THID":"-","LastOperationDate":"","SEV":"nein","longitude":"11,920734","latitude":"50,29377","geojson_lng":11.920734,"geojson_lat":50.29377},"geometry":{"type":"Point","coordinates":[11.920734,50.29377]}},{"type":"Feature","properties":{"SeqNo":"193557","Type":"Q","DHID":"de:09464:26:0:3","Parent":"de:09464:26","Name":"Koesseinestr.","MunicipalityCode":"00000000","Municipality":"-","DistrictCode":"-","District":"-","Description":"","Authority":"BEG","DelfiName":"-","THID":"-","LastOperationDate":"","SEV":"nein","longitude":"11,920797","latitude":"50,293535","geojson_lng":11.920797,"geojson_lat":50.293535},"geometry":{"type":"Point","coordinates":[11.920797,50.293535]}},{"type":"Feature","properties":{"SeqNo":"193558","Type":"S","DHID":"de:09464:27","Parent":"de:09464:27","Name":"Epprechtsteinstr.","MunicipalityCode":"09464000","Municipality":"Hof","DistrictCode":"","District":"","Description":"","Authority":"BEG","DelfiName":"-","THID":"D924F800001B","LastOperationDate":"2025-06-14T00:00:00","SEV":"nein","longitude":"11,921228","latitude":"50,290206","geojson_lng":11.921228,"geojson_lat":50.290206},"geometry":{"type":"Point","coordinates":[11.921228,50.290206]}},{"type":"Feature","properties":{"SeqNo":"193559","Type":"Q","DHID":"de:09464:27:0:2","Parent":"de:09464:27","Name":"Epprechtsteinstraße","MunicipalityCode":"00000000","Municipality":"-","DistrictCode":"-","District":"-","Description":"","Authority":"BEG","DelfiName":"-","THID":"-","LastOperationDate":"","SEV":"nein","longitude":"11,921228","latitude":"50,290206","geojson_lng":11.921228,"geojson_lat":50.290206},"geometry":{"type":"Point","coordinates":[11.921228,50.290206]}},{"type":"Feature","properties":{"SeqNo":"193762","Type":"S","DHID":"de:09464:920","Parent":"de:09464:920","Name":"Luisenburgstr.","MunicipalityCode":"09464000","Municipality":"Hof","DistrictCode":"","District":"","Description":"","Authority":"BEG","DelfiName":"-","THID":"D924F8000398","LastOperationDate":"2025-06-14T00:00:00","SEV":"nein","longitude":"11,920383","latitude":"50,292663","geojson_lng":11.920383,"geojson_lat":50.292663},"geometry":{"type":"Point","coordinates":[11.920383,50.292663]}},{"type":"Feature","properties":{"SeqNo":"193763","Type":"Q","DHID":"de:09464:920:0:1","Parent":"de:09464:920","Name":"Luisenburgstraße","MunicipalityCode":"00000000","Municipality":"-","DistrictCode":"-","District":"-","Description":"","Authority":"BEG","DelfiName":"-","THID":"-","LastOperationDate":"","SEV":"nein","longitude":"11,920383","latitude":"50,292663","geojson_lng":11.920383,"geojson_lat":50.292663},"geometry":{"type":"Point","coordinates":[11.920383,50.292663]}}]}