{"type":"FeatureCollection","features":[{"type":"Feature","properties":{"SeqNo":"698770","Type":"S","DHID":"de:05974:12716","Parent":"de:05974:12716","Name":"Heintrop","MunicipalityCode":"05974024","Municipality":"Lippetal","DistrictCode":"-","District":"-","Description":"","Authority":"VRR","DelfiName":"-","THID":"D917560031AC","LastOperationDate":"2025-06-14T00:00:00","SEV":"nein","longitude":"8,04126","latitude":"51,652827","geojson_lng":8.04126,"geojson_lat":51.652827},"geometry":{"type":"Point","coordinates":[8.04126,51.652827]}},{"type":"Feature","properties":{"SeqNo":"698771","Type":"Q","DHID":"de:05974:12716:0:1","Parent":"de:05974:12716","Name":"1","MunicipalityCode":"00000000","Municipality":"-","DistrictCode":"-","District":"-","Description":"1","Authority":"VRR","DelfiName":"-","THID":"-","LastOperationDate":"","SEV":"nein","longitude":"8,041629","latitude":"51,652655","geojson_lng":8.041629,"geojson_lat":51.652655},"geometry":{"type":"Point","coordinates":[8.041629,51.652655]}},{"type":"Feature","properties":{"SeqNo":"698772","Type":"Q","DHID":"de:05974:12716:0:2","Parent":"de:05974:12716","Name":"2","MunicipalityCode":"00000000","Municipality":"-","DistrictCode":"-","District":"-","Description":"2","Authority":"VRR","DelfiName":"-","THID":"-","LastOperationDate":"","SEV":"nein","longitude":"8,040874","latitude":"51,653011","geojson_lng":8.040874,"geojson_lat":51.653011},"geometry":{"type":"Point","coordinates":[8.040874,51.653011]}},{"type":"Feature","properties":{"SeqNo":"698773","Type":"S","DHID":"de:05974:12717","Parent":"de:05974:12717","Name":"Lippborg, Museumsbahnhof","MunicipalityCode":"05974024","Municipality":"Lippetal","DistrictCode":"-","District":"-","Description":"","Authority":"VRR","DelfiName":"-","THID":"D917560031AD","LastOperationDate":"2025-06-14T00:00:00","SEV":"nein","longitude":"8,033113","latitude":"51,658796","geojson_lng":8.033113,"geojson_lat":51.658796},"geometry":{"type":"Point","coordinates":[8.033113,51.658796]}},{"type":"Feature","properties":{"SeqNo":"698775","Type":"Q","DHID":"de:05974:12717:0:2","Parent":"de:05974:12717","Name":"2","MunicipalityCode":"00000000","Municipality":"-","DistrictCode":"-","District":"-","Description":"49432","Authority":"VRR","DelfiName":"-","THID":"-","LastOperationDate":"","SEV":"nein","longitude":"8,032852","latitude":"51,658518","geojson_lng":8.032852,"geojson_lat":51.658518},"geometry":{"type":"Point","coordinates":[8.032852,51.658518]}},{"type":"Feature","properties":{"SeqNo":"700676","Type":"A","DHID":"de:05974:35863:1","Parent":"de:05974:35863","Name":"Zugang","MunicipalityCode":"00000000","Municipality":"-","DistrictCode":"-","District":"-","Description":"Zugang","Authority":"VRR","DelfiName":"-","THID":"-","LastOperationDate":"","SEV":"nein","longitude":"8,032592","latitude":"51,658133","geojson_lng":8.032592,"geojson_lat":51.658133},"geometry":{"type":"Point","coordinates":[8.032592,51.658133]}},{"type":"Feature","properties":{"SeqNo":"700678","Type":"Q","DHID":"de:05974:35863:1:1","Parent":"de:05974:35863:1","Name":"Zugang","MunicipalityCode":"00000000","Municipality":"-","DistrictCode":"-","District":"-","Description":"Zugang","Authority":"VRR","DelfiName":"-","THID":"-","LastOperationDate":"","SEV":"nein","longitude":"8,032583","latitude":"51,658061","geojson_lng":8.032583,"geojson_lat":51.658061},"geometry":{"type":"Point","coordinates":[8.032583,51.658061]}},{"type":"Feature","properties":{"SeqNo":"700679","Type":"Q","DHID":"de:05974:35863:90:90","Parent":"de:05974:35863:90","Name":"Bahn","MunicipalityCode":"00000000","Municipality":"-","DistrictCode":"-","District":"-","Description":"Bahn","Authority":"VRR","DelfiName":"-","THID":"-","LastOperationDate":"","SEV":"nein","longitude":"8,032241","latitude":"51,658233","geojson_lng":8.032241,"geojson_lat":51.658233},"geometry":{"type":"Point","coordinates":[8.032241,51.658233]}}]}