{"type":"FeatureCollection","features":[{"type":"Feature","properties":{"highway":"bus_stop","public_transport":"platform","name":"Banstraat","ref:IFOPT":"NL:Q:32001117","_quaycode":"NL:Q:32001117","_town":"Den Haag","_status":"available","_mode":"bus","_direction":94,"_visuallyAccessible":true,"_disabledAccessible":true,"geojson_lng":4.287022337300795,"geojson_lat":52.08519836726261},"geometry":{"type":"Point","coordinates":[4.287022337300795,52.08519836726261]}},{"type":"Feature","properties":{"highway":"bus_stop","public_transport":"platform","name":"Laan van Meerdervoort","ref:IFOPT":"NL:Q:32001124","_quaycode":"NL:Q:32001124","_town":"Den Haag","_status":"available","_mode":"bus","_direction":90,"_visuallyAccessible":true,"_disabledAccessible":false,"geojson_lng":4.291990905333209,"geojson_lat":52.08488510135018},"geometry":{"type":"Point","coordinates":[4.291990905333209,52.08488510135018]}},{"type":"Feature","properties":{"highway":"bus_stop","public_transport":"platform","name":"Prins Hendrikstraat","ref:IFOPT":"NL:Q:32002220","_quaycode":"NL:Q:32002220","_town":"Den Haag","_status":"available","_mode":"bus","_direction":306,"_visuallyAccessible":false,"_disabledAccessible":false,"geojson_lng":4.289989712822755,"geojson_lat":52.08021930088696},"geometry":{"type":"Point","coordinates":[4.289989712822755,52.08021930088696]}},{"type":"Feature","properties":{"highway":"bus_stop","public_transport":"platform","name":"Van Speijkstraat","ref:IFOPT":"NL:Q:32011122","_quaycode":"NL:Q:32011122","_town":"Den Haag","_status":"available","_mode":"bus","_direction":320,"_visuallyAccessible":null,"_disabledAccessible":null,"geojson_lng":4.28842810396841,"geojson_lat":52.081427220550744},"geometry":{"type":"Point","coordinates":[4.28842810396841,52.081427220550744]}},{"type":"Feature","properties":{"highway":"bus_stop","public_transport":"platform","name":"Van Speijkstraat","ref:IFOPT":"NL:Q:32011121","_quaycode":"NL:Q:32011121","_town":"Den Haag","_status":"available","_mode":"bus","_direction":140,"_visuallyAccessible":null,"_disabledAccessible":null,"geojson_lng":4.288274499488941,"geojson_lat":52.081147136707465},"geometry":{"type":"Point","coordinates":[4.288274499488941,52.081147136707465]}},{"type":"Feature","properties":{"highway":"bus_stop","public_transport":"platform","name":"Banstraat","ref:IFOPT":"NL:Q:32001118","_quaycode":"NL:Q:32001118","_town":"Den Haag","_status":"available","_mode":"bus","_direction":273,"_visuallyAccessible":true,"_disabledAccessible":true,"geojson_lng":4.287647170559431,"geojson_lat":52.085303075554364},"geometry":{"type":"Point","coordinates":[4.287647170559431,52.085303075554364]}},{"type":"Feature","properties":{"highway":"bus_stop","public_transport":"platform","name":"Laan van Meerdervoort","ref:IFOPT":"NL:Q:32001123","_quaycode":"NL:Q:32001123","_town":"Den Haag","_status":"available","_mode":"bus","_direction":270,"_visuallyAccessible":true,"_disabledAccessible":true,"geojson_lng":4.292117791302173,"geojson_lat":52.08506605547446},"geometry":{"type":"Point","coordinates":[4.292117791302173,52.08506605547446]}}]}