{"type":"FeatureCollection","features":[{"type":"Feature","properties":{"SeqNo":"605220","Type":"S","DHID":"de:05554:16870","Parent":"de:05554:16870","Name":"Gronau, Bahnhof","MunicipalityCode":"05554020","Municipality":"Gronau (Westf.)","DistrictCode":"","District":"","Description":"","Authority":"VRR","DelfiName":"-","THID":"D915B20041E6","LastOperationDate":"2025-06-13T00:00:00","SEV":"nein","longitude":"7,022436","latitude":"52,21511","geojson_lng":7.022436,"geojson_lat":52.21511},"geometry":{"type":"Point","coordinates":[7.022436,52.21511]}},{"type":"Feature","properties":{"SeqNo":"605221","Type":"A","DHID":"de:05554:16870:1","Parent":"de:05554:16870","Name":"DB","MunicipalityCode":"00000000","Municipality":"-","DistrictCode":"-","District":"-","Description":"","Authority":"VRR","DelfiName":"-","THID":"-","LastOperationDate":"","SEV":"nein","longitude":"7,021601","latitude":"52,215242","geojson_lng":7.021601,"geojson_lat":52.215242},"geometry":{"type":"Point","coordinates":[7.021601,52.215242]}},{"type":"Feature","properties":{"SeqNo":"605222","Type":"A","DHID":"de:05554:16870:2","Parent":"de:05554:16870","Name":"Bus","MunicipalityCode":"00000000","Municipality":"-","DistrictCode":"-","District":"-","Description":"","Authority":"VRR","DelfiName":"-","THID":"-","LastOperationDate":"","SEV":"nein","longitude":"7,022445","latitude":"52,214428","geojson_lng":7.022445,"geojson_lat":52.214428},"geometry":{"type":"Point","coordinates":[7.022445,52.214428]}},{"type":"Feature","properties":{"SeqNo":"605223","Type":"A","DHID":"de:05554:16870:20","Parent":"de:05554:16870","Name":"Zugang vorne","MunicipalityCode":"00000000","Municipality":"-","DistrictCode":"-","District":"-","Description":"","Authority":"VRR","DelfiName":"-","THID":"-","LastOperationDate":"","SEV":"nein","longitude":"7,022607","latitude":"52,214863","geojson_lng":7.022607,"geojson_lat":52.214863},"geometry":{"type":"Point","coordinates":[7.022607,52.214863]}},{"type":"Feature","properties":{"SeqNo":"605224","Type":"A","DHID":"de:05554:16870:21","Parent":"de:05554:16870","Name":"Zugang hinten","MunicipalityCode":"00000000","Municipality":"-","DistrictCode":"-","District":"-","Description":"","Authority":"VRR","DelfiName":"-","THID":"-","LastOperationDate":"","SEV":"nein","longitude":"7,022732","latitude":"52,215308","geojson_lng":7.022732,"geojson_lat":52.215308},"geometry":{"type":"Point","coordinates":[7.022732,52.215308]}},{"type":"Feature","properties":{"SeqNo":"605225","Type":"A","DHID":"de:05554:16870:70","Parent":"de:05554:16870","Name":"Tunnel","MunicipalityCode":"00000000","Municipality":"-","DistrictCode":"-","District":"-","Description":"","Authority":"VRR","DelfiName":"-","THID":"-","LastOperationDate":"","SEV":"nein","longitude":"7,022643","latitude":"52,214901","geojson_lng":7.022643,"geojson_lat":52.214901},"geometry":{"type":"Point","coordinates":[7.022643,52.214901]}},{"type":"Feature","properties":{"SeqNo":"605226","Type":"A","DHID":"de:05554:16870:89","Parent":"de:05554:16870","Name":"Schienenersatzv.","MunicipalityCode":"00000000","Municipality":"-","DistrictCode":"-","District":"-","Description":"","Authority":"VRR","DelfiName":"-","THID":"-","LastOperationDate":"","SEV":"nein","longitude":"7,022184","latitude":"52,214362","geojson_lng":7.022184,"geojson_lat":52.214362},"geometry":{"type":"Point","coordinates":[7.022184,52.214362]}},{"type":"Feature","properties":{"SeqNo":"605227","Type":"A","DHID":"de:05554:16870:91","Parent":"de:05554:16870","Name":"Bahn 1/2","MunicipalityCode":"00000000","Municipality":"-","DistrictCode":"-","District":"-","Description":"","Authority":"VRR","DelfiName":"-","THID":"-","LastOperationDate":"","SEV":"nein","longitude":"7,022167","latitude":"52,215132","geojson_lng":7.022167,"geojson_lat":52.215132},"geometry":{"type":"Point","coordinates":[7.022167,52.215132]}},{"type":"Feature","properties":{"SeqNo":"605228","Type":"A","DHID":"de:05554:16870:92","Parent":"de:05554:16870","Name":"Bahn 3","MunicipalityCode":"00000000","Municipality":"-","DistrictCode":"-","District":"-","Description":"","Authority":"VRR","DelfiName":"-","THID":"-","LastOperationDate":"","SEV":"nein","longitude":"7,022211","latitude":"52,215314","geojson_lng":7.022211,"geojson_lat":52.215314},"geometry":{"type":"Point","coordinates":[7.022211,52.215314]}},{"type":"Feature","properties":{"SeqNo":"605229","Type":"Q","DHID":"de:05554:16870:1:1","Parent":"de:05554:16870:1","Name":"","MunicipalityCode":"00000000","Municipality":"-","DistrictCode":"-","District":"-","Description":"","Authority":"VRR","DelfiName":"-","THID":"-","LastOperationDate":"","SEV":"nein","longitude":"7,022238","latitude":"52,215127","geojson_lng":7.022238,"geojson_lat":52.215127},"geometry":{"type":"Point","coordinates":[7.022238,52.215127]}},{"type":"Feature","properties":{"SeqNo":"605230","Type":"Q","DHID":"de:05554:16870:2:.","Parent":"de:05554:16870:2","Name":"","MunicipalityCode":"00000000","Municipality":"-","DistrictCode":"-","District":"-","Description":"","Authority":"VRR","DelfiName":"-","THID":"-","LastOperationDate":"","SEV":"nein","longitude":"7,022499","latitude":"52,214318","geojson_lng":7.022499,"geojson_lat":52.214318},"geometry":{"type":"Point","coordinates":[7.022499,52.214318]}},{"type":"Feature","properties":{"SeqNo":"605231","Type":"Q","DHID":"de:05554:16870:2:A","Parent":"de:05554:16870:2","Name":"A","MunicipalityCode":"00000000","Municipality":"-","DistrictCode":"-","District":"-","Description":"","Authority":"VRR","DelfiName":"-","THID":"-","LastOperationDate":"","SEV":"nein","longitude":"7,022445","latitude":"52,21434","geojson_lng":7.022445,"geojson_lat":52.21434},"geometry":{"type":"Point","coordinates":[7.022445,52.21434]}},{"type":"Feature","properties":{"SeqNo":"605232","Type":"Q","DHID":"de:05554:16870:2:B","Parent":"de:05554:16870:2","Name":"B","MunicipalityCode":"00000000","Municipality":"-","DistrictCode":"-","District":"-","Description":"","Authority":"VRR","DelfiName":"-","THID":"-","LastOperationDate":"","SEV":"nein","longitude":"7,022175","latitude":"52,214406","geojson_lng":7.022175,"geojson_lat":52.214406},"geometry":{"type":"Point","coordinates":[7.022175,52.214406]}},{"type":"Feature","properties":{"SeqNo":"605233","Type":"Q","DHID":"de:05554:16870:2:C","Parent":"de:05554:16870:2","Name":"C","MunicipalityCode":"00000000","Municipality":"-","DistrictCode":"-","District":"-","Description":"","Authority":"VRR","DelfiName":"-","THID":"-","LastOperationDate":"","SEV":"nein","longitude":"7,022625","latitude":"52,214521","geojson_lng":7.022625,"geojson_lat":52.214521},"geometry":{"type":"Point","coordinates":[7.022625,52.214521]}},{"type":"Feature","properties":{"SeqNo":"605234","Type":"Q","DHID":"de:05554:16870:2:D","Parent":"de:05554:16870:2","Name":"D","MunicipalityCode":"00000000","Municipality":"-","DistrictCode":"-","District":"-","Description":"","Authority":"VRR","DelfiName":"-","THID":"-","LastOperationDate":"","SEV":"nein","longitude":"7,022777","latitude":"52,214488","geojson_lng":7.022777,"geojson_lat":52.214488},"geometry":{"type":"Point","coordinates":[7.022777,52.214488]}},{"type":"Feature","properties":{"SeqNo":"605235","Type":"Q","DHID":"de:05554:16870:89:89","Parent":"de:05554:16870:89","Name":"SEV","MunicipalityCode":"00000000","Municipality":"-","DistrictCode":"-","District":"-","Description":"","Authority":"VRR","DelfiName":"-","THID":"-","LastOperationDate":"","SEV":"nein","longitude":"7,02222","latitude":"52,214356","geojson_lng":7.02222,"geojson_lat":52.214356},"geometry":{"type":"Point","coordinates":[7.02222,52.214356]}},{"type":"Feature","properties":{"SeqNo":"605236","Type":"Q","DHID":"de:05554:16870:91:1","Parent":"de:05554:16870:91","Name":"Gleis 1 - Do Enschede","MunicipalityCode":"00000000","Municipality":"-","DistrictCode":"-","District":"-","Description":"","Authority":"VRR","DelfiName":"-","THID":"-","LastOperationDate":"","SEV":"nein","longitude":"7,021879","latitude":"52,215083","geojson_lng":7.021879,"geojson_lat":52.215083},"geometry":{"type":"Point","coordinates":[7.021879,52.215083]}},{"type":"Feature","properties":{"SeqNo":"605237","Type":"Q","DHID":"de:05554:16870:91:2","Parent":"de:05554:16870:91","Name":"Gleis 2 - MS Enschede","MunicipalityCode":"00000000","Municipality":"-","DistrictCode":"-","District":"-","Description":"","Authority":"VRR","DelfiName":"-","THID":"-","LastOperationDate":"","SEV":"nein","longitude":"7,021915","latitude":"52,215215","geojson_lng":7.021915,"geojson_lat":52.215215},"geometry":{"type":"Point","coordinates":[7.021915,52.215215]}},{"type":"Feature","properties":{"SeqNo":"605238","Type":"Q","DHID":"de:05554:16870:92:3","Parent":"de:05554:16870:92","Name":"Gleis 3 - alle Ri","MunicipalityCode":"00000000","Municipality":"-","DistrictCode":"-","District":"-","Description":"","Authority":"VRR","DelfiName":"-","THID":"-","LastOperationDate":"","SEV":"nein","longitude":"7,021933","latitude":"52,215297","geojson_lng":7.021933,"geojson_lat":52.215297},"geometry":{"type":"Point","coordinates":[7.021933,52.215297]}},{"type":"Feature","properties":{"SeqNo":"607632","Type":"S","DHID":"de:05554:60719","Parent":"de:05554:60719","Name":"Gronau, Bethesda-Altenheim","MunicipalityCode":"05554020","Municipality":"Gronau (Westf.)","DistrictCode":"-","District":"-","Description":"","Authority":"VRR","DelfiName":"-","THID":"D915B200ED2F","LastOperationDate":"1999-12-31T00:00:00","SEV":"nein","longitude":"7,02938","latitude":"52,217609","geojson_lng":7.02938,"geojson_lat":52.217609},"geometry":{"type":"Point","coordinates":[7.02938,52.217609]}},{"type":"Feature","properties":{"SeqNo":"607633","Type":"Q","DHID":"de:05554:60719:0:1","Parent":"de:05554:60719","Name":"1","MunicipalityCode":"00000000","Municipality":"-","DistrictCode":"-","District":"-","Description":"1","Authority":"VRR","DelfiName":"-","THID":"-","LastOperationDate":"","SEV":"nein","longitude":"7,029353","latitude":"52,217604","geojson_lng":7.029353,"geojson_lat":52.217604},"geometry":{"type":"Point","coordinates":[7.029353,52.217604]}},{"type":"Feature","properties":{"SeqNo":"608588","Type":"S","DHID":"de:05554:69317","Parent":"de:05554:69317","Name":"Gronau, Lukas-Krankenhaus","MunicipalityCode":"05554020","Municipality":"Gronau (Westf.)","DistrictCode":"-","District":"-","Description":"","Authority":"VRR","DelfiName":"-","THID":"D915B2010EC5","LastOperationDate":"2025-06-13T00:00:00","SEV":"nein","longitude":"7,031015","latitude":"52,216651","geojson_lng":7.031015,"geojson_lat":52.216651},"geometry":{"type":"Point","coordinates":[7.031015,52.216651]}},{"type":"Feature","properties":{"SeqNo":"608589","Type":"Q","DHID":"de:05554:69317:0:1","Parent":"de:05554:69317","Name":"1","MunicipalityCode":"00000000","Municipality":"-","DistrictCode":"-","District":"-","Description":"1","Authority":"VRR","DelfiName":"-","THID":"-","LastOperationDate":"","SEV":"nein","longitude":"7,031015","latitude":"52,216651","geojson_lng":7.031015,"geojson_lat":52.216651},"geometry":{"type":"Point","coordinates":[7.031015,52.216651]}}]}