{"type":"FeatureCollection","features":[{"type":"Feature","properties":{"SeqNo":"553229","Type":"S","DHID":"de:05314:63758","Parent":"de:05314:63758","Name":"Bonn Medinghoven Tüv","MunicipalityCode":"05314000","Municipality":"Bonn","DistrictCode":"","District":"","Description":"","Authority":"VRR","DelfiName":"-","THID":"D914C200F90E","LastOperationDate":"2025-01-06T00:00:00","SEV":"nein","longitude":"7,030952","latitude":"50,712261","geojson_lng":7.030952,"geojson_lat":50.712261},"geometry":{"type":"Point","coordinates":[7.030952,50.712261]}},{"type":"Feature","properties":{"SeqNo":"553230","Type":"A","DHID":"de:05314:63758:2","Parent":"de:05314:63758","Name":"Medinghoven TÜV","MunicipalityCode":"00000000","Municipality":"-","DistrictCode":"-","District":"-","Description":"","Authority":"VRR","DelfiName":"-","THID":"-","LastOperationDate":"","SEV":"nein","longitude":"7,030943","latitude":"50,712267","geojson_lng":7.030943,"geojson_lat":50.712267},"geometry":{"type":"Point","coordinates":[7.030943,50.712267]}},{"type":"Feature","properties":{"SeqNo":"553231","Type":"Q","DHID":"de:05314:63758:2:21","Parent":"de:05314:63758:2","Name":"","MunicipalityCode":"00000000","Municipality":"-","DistrictCode":"-","District":"-","Description":"","Authority":"VRR","DelfiName":"-","THID":"-","LastOperationDate":"","SEV":"nein","longitude":"7,030871","latitude":"50,712267","geojson_lng":7.030871,"geojson_lat":50.712267},"geometry":{"type":"Point","coordinates":[7.030871,50.712267]}},{"type":"Feature","properties":{"SeqNo":"553232","Type":"S","DHID":"de:05314:63759","Parent":"de:05314:63759","Name":"Bonn Medinghoven Briandstr.","MunicipalityCode":"05314000","Municipality":"Bonn","DistrictCode":"","District":"","Description":"","Authority":"VRR","DelfiName":"-","THID":"D914C200F90F","LastOperationDate":"2025-01-06T00:00:00","SEV":"nein","longitude":"7,030683","latitude":"50,710958","geojson_lng":7.030683,"geojson_lat":50.710958},"geometry":{"type":"Point","coordinates":[7.030683,50.710958]}},{"type":"Feature","properties":{"SeqNo":"553233","Type":"A","DHID":"de:05314:63759:2","Parent":"de:05314:63759","Name":"Briandstr.","MunicipalityCode":"00000000","Municipality":"-","DistrictCode":"-","District":"-","Description":"","Authority":"VRR","DelfiName":"-","THID":"-","LastOperationDate":"","SEV":"nein","longitude":"7,030683","latitude":"50,710958","geojson_lng":7.030683,"geojson_lat":50.710958},"geometry":{"type":"Point","coordinates":[7.030683,50.710958]}},{"type":"Feature","properties":{"SeqNo":"553234","Type":"Q","DHID":"de:05314:63759:2:21","Parent":"de:05314:63759:2","Name":"","MunicipalityCode":"00000000","Municipality":"-","DistrictCode":"-","District":"-","Description":"","Authority":"VRR","DelfiName":"-","THID":"-","LastOperationDate":"","SEV":"nein","longitude":"7,030701","latitude":"50,711049","geojson_lng":7.030701,"geojson_lat":50.711049},"geometry":{"type":"Point","coordinates":[7.030701,50.711049]}},{"type":"Feature","properties":{"SeqNo":"553235","Type":"Q","DHID":"de:05314:63759:2:22","Parent":"de:05314:63759:2","Name":"","MunicipalityCode":"00000000","Municipality":"-","DistrictCode":"-","District":"-","Description":"","Authority":"VRR","DelfiName":"-","THID":"-","LastOperationDate":"","SEV":"nein","longitude":"7,031302","latitude":"50,710771","geojson_lng":7.031302,"geojson_lat":50.710771},"geometry":{"type":"Point","coordinates":[7.031302,50.710771]}},{"type":"Feature","properties":{"SeqNo":"553256","Type":"S","DHID":"de:05314:63765","Parent":"de:05314:63765","Name":"Bonn Medinghoven Henri-Spaak-Str.","MunicipalityCode":"05314000","Municipality":"Bonn","DistrictCode":"","District":"","Description":"","Authority":"VRR","DelfiName":"-","THID":"D914C200F915","LastOperationDate":"2025-01-06T00:00:00","SEV":"nein","longitude":"7,029802","latitude":"50,71209","geojson_lng":7.029802,"geojson_lat":50.71209},"geometry":{"type":"Point","coordinates":[7.029802,50.71209]}},{"type":"Feature","properties":{"SeqNo":"553257","Type":"A","DHID":"de:05314:63765:2","Parent":"de:05314:63765","Name":"Henri-Spaak-Str.","MunicipalityCode":"00000000","Municipality":"-","DistrictCode":"-","District":"-","Description":"","Authority":"VRR","DelfiName":"-","THID":"-","LastOperationDate":"","SEV":"nein","longitude":"7,029802","latitude":"50,712102","geojson_lng":7.029802,"geojson_lat":50.712102},"geometry":{"type":"Point","coordinates":[7.029802,50.712102]}},{"type":"Feature","properties":{"SeqNo":"553258","Type":"Q","DHID":"de:05314:63765:2:21","Parent":"de:05314:63765:2","Name":"","MunicipalityCode":"00000000","Municipality":"-","DistrictCode":"-","District":"-","Description":"","Authority":"VRR","DelfiName":"-","THID":"-","LastOperationDate":"","SEV":"nein","longitude":"7,029838","latitude":"50,712204","geojson_lng":7.029838,"geojson_lat":50.712204},"geometry":{"type":"Point","coordinates":[7.029838,50.712204]}},{"type":"Feature","properties":{"SeqNo":"553259","Type":"Q","DHID":"de:05314:63765:2:22","Parent":"de:05314:63765:2","Name":"","MunicipalityCode":"00000000","Municipality":"-","DistrictCode":"-","District":"-","Description":"","Authority":"VRR","DelfiName":"-","THID":"-","LastOperationDate":"","SEV":"nein","longitude":"7,030009","latitude":"50,712341","geojson_lng":7.030009,"geojson_lat":50.712341},"geometry":{"type":"Point","coordinates":[7.030009,50.712341]}},{"type":"Feature","properties":{"SeqNo":"593374","Type":"A","DHID":"de:05382:53801:71","Parent":"de:05382:53801","Name":"Bahnsteig Gleis 1","MunicipalityCode":"00000000","Municipality":"-","DistrictCode":"-","District":"-","Description":"","Authority":"VRR","DelfiName":"-","THID":"-","LastOperationDate":"","SEV":"nein","longitude":"7,020163","latitude":"50,711277","geojson_lng":7.020163,"geojson_lat":50.711277},"geometry":{"type":"Point","coordinates":[7.020163,50.711277]}},{"type":"Feature","properties":{"SeqNo":"593380","Type":"Q","DHID":"de:05382:53801:7:71","Parent":"de:05382:53801:71","Name":"","MunicipalityCode":"00000000","Municipality":"-","DistrictCode":"-","District":"-","Description":"","Authority":"VRR","DelfiName":"-","THID":"-","LastOperationDate":"","SEV":"nein","longitude":"7,020226","latitude":"50,711396","geojson_lng":7.020226,"geojson_lat":50.711396},"geometry":{"type":"Point","coordinates":[7.020226,50.711396]}},{"type":"Feature","properties":{"SeqNo":"593381","Type":"Q","DHID":"de:05382:53801:7:72","Parent":"de:05382:53801:72","Name":"","MunicipalityCode":"00000000","Municipality":"-","DistrictCode":"-","District":"-","Description":"","Authority":"VRR","DelfiName":"-","THID":"-","LastOperationDate":"","SEV":"nein","longitude":"7,020172","latitude":"50,711414","geojson_lng":7.020172,"geojson_lat":50.711414},"geometry":{"type":"Point","coordinates":[7.020172,50.711414]}},{"type":"Feature","properties":{"SeqNo":"593414","Type":"S","DHID":"de:05382:53847","Parent":"de:05382:53847","Name":"Alfter Oedekoven Kramersbruch","MunicipalityCode":"05382004","Municipality":"Alfter","DistrictCode":"","District":"","Description":"","Authority":"VRR","DelfiName":"-","THID":"D9150600D257","LastOperationDate":"2025-01-06T00:00:00","SEV":"nein","longitude":"7,020729","latitude":"50,714644","geojson_lng":7.020729,"geojson_lat":50.714644},"geometry":{"type":"Point","coordinates":[7.020729,50.714644]}},{"type":"Feature","properties":{"SeqNo":"593415","Type":"A","DHID":"de:05382:53847:2","Parent":"de:05382:53847","Name":"Kramersbruch","MunicipalityCode":"00000000","Municipality":"-","DistrictCode":"-","District":"-","Description":"","Authority":"VRR","DelfiName":"-","THID":"-","LastOperationDate":"","SEV":"nein","longitude":"7,020729","latitude":"50,714644","geojson_lng":7.020729,"geojson_lat":50.714644},"geometry":{"type":"Point","coordinates":[7.020729,50.714644]}},{"type":"Feature","properties":{"SeqNo":"593416","Type":"Q","DHID":"de:05382:53847:2:21","Parent":"de:05382:53847:2","Name":"","MunicipalityCode":"00000000","Municipality":"-","DistrictCode":"-","District":"-","Description":"","Authority":"VRR","DelfiName":"-","THID":"-","LastOperationDate":"","SEV":"nein","longitude":"7,021259","latitude":"50,715048","geojson_lng":7.021259,"geojson_lat":50.715048},"geometry":{"type":"Point","coordinates":[7.021259,50.715048]}},{"type":"Feature","properties":{"SeqNo":"593417","Type":"Q","DHID":"de:05382:53847:2:22","Parent":"de:05382:53847:2","Name":"","MunicipalityCode":"00000000","Municipality":"-","DistrictCode":"-","District":"-","Description":"","Authority":"VRR","DelfiName":"-","THID":"-","LastOperationDate":"","SEV":"nein","longitude":"7,020334","latitude":"50,714241","geojson_lng":7.020334,"geojson_lat":50.714241},"geometry":{"type":"Point","coordinates":[7.020334,50.714241]}}]}