{"type":"FeatureCollection","features":[{"type":"Feature","properties":{"SeqNo":"579996","Type":"S","DHID":"de:05366:78840","Parent":"de:05366:78840","Name":"Hellenthal Wolfert Wittscheid Ort","MunicipalityCode":"05366020","Municipality":"Hellenthal","DistrictCode":"","District":"","Description":"","Authority":"VRR","DelfiName":"-","THID":"D914F60133F8","LastOperationDate":"2024-12-20T00:00:00","SEV":"nein","longitude":"6,46169","latitude":"50,44221","geojson_lng":6.46169,"geojson_lat":50.44221},"geometry":{"type":"Point","coordinates":[6.46169,50.44221]}},{"type":"Feature","properties":{"SeqNo":"579997","Type":"A","DHID":"de:05366:78840:2","Parent":"de:05366:78840","Name":"Wittscheid Ort","MunicipalityCode":"00000000","Municipality":"-","DistrictCode":"-","District":"-","Description":"","Authority":"VRR","DelfiName":"-","THID":"-","LastOperationDate":"","SEV":"nein","longitude":"6,46169","latitude":"50,44221","geojson_lng":6.46169,"geojson_lat":50.44221},"geometry":{"type":"Point","coordinates":[6.46169,50.44221]}},{"type":"Feature","properties":{"SeqNo":"579998","Type":"Q","DHID":"de:05366:78840:2:21","Parent":"de:05366:78840:2","Name":"","MunicipalityCode":"00000000","Municipality":"-","DistrictCode":"-","District":"-","Description":"","Authority":"VRR","DelfiName":"-","THID":"-","LastOperationDate":"","SEV":"nein","longitude":"6,46169","latitude":"50,44221","geojson_lng":6.46169,"geojson_lat":50.44221},"geometry":{"type":"Point","coordinates":[6.46169,50.44221]}},{"type":"Feature","properties":{"SeqNo":"580007","Type":"S","DHID":"de:05366:78843","Parent":"de:05366:78843","Name":"Hellenthal Wolfert Wittscheid","MunicipalityCode":"05366020","Municipality":"Hellenthal","DistrictCode":"","District":"","Description":"","Authority":"VRR","DelfiName":"-","THID":"D914F60133FB","LastOperationDate":"2025-01-06T00:00:00","SEV":"nein","longitude":"6,459821","latitude":"50,441472","geojson_lng":6.459821,"geojson_lat":50.441472},"geometry":{"type":"Point","coordinates":[6.459821,50.441472]}},{"type":"Feature","properties":{"SeqNo":"580008","Type":"A","DHID":"de:05366:78843:2","Parent":"de:05366:78843","Name":"Wittscheid","MunicipalityCode":"00000000","Municipality":"-","DistrictCode":"-","District":"-","Description":"","Authority":"VRR","DelfiName":"-","THID":"-","LastOperationDate":"","SEV":"nein","longitude":"6,459821","latitude":"50,441472","geojson_lng":6.459821,"geojson_lat":50.441472},"geometry":{"type":"Point","coordinates":[6.459821,50.441472]}},{"type":"Feature","properties":{"SeqNo":"580009","Type":"Q","DHID":"de:05366:78843:2:21","Parent":"de:05366:78843:2","Name":"","MunicipalityCode":"00000000","Municipality":"-","DistrictCode":"-","District":"-","Description":"","Authority":"VRR","DelfiName":"-","THID":"-","LastOperationDate":"","SEV":"nein","longitude":"6,459839","latitude":"50,441541","geojson_lng":6.459839,"geojson_lat":50.441541},"geometry":{"type":"Point","coordinates":[6.459839,50.441541]}},{"type":"Feature","properties":{"SeqNo":"580010","Type":"Q","DHID":"de:05366:78843:2:22","Parent":"de:05366:78843:2","Name":"","MunicipalityCode":"00000000","Municipality":"-","DistrictCode":"-","District":"-","Description":"","Authority":"VRR","DelfiName":"-","THID":"-","LastOperationDate":"","SEV":"nein","longitude":"6,460136","latitude":"50,441615","geojson_lng":6.460136,"geojson_lat":50.441615},"geometry":{"type":"Point","coordinates":[6.460136,50.441615]}},{"type":"Feature","properties":{"SeqNo":"580011","Type":"S","DHID":"de:05366:78844","Parent":"de:05366:78844","Name":"Hellenthal Wolfert Unterwolfert","MunicipalityCode":"05366020","Municipality":"Hellenthal","DistrictCode":"","District":"","Description":"","Authority":"VRR","DelfiName":"-","THID":"D914F60133FC","LastOperationDate":"2025-01-06T00:00:00","SEV":"nein","longitude":"6,46663","latitude":"50,443217","geojson_lng":6.46663,"geojson_lat":50.443217},"geometry":{"type":"Point","coordinates":[6.46663,50.443217]}},{"type":"Feature","properties":{"SeqNo":"580012","Type":"A","DHID":"de:05366:78844:2","Parent":"de:05366:78844","Name":"Unterwolfert","MunicipalityCode":"00000000","Municipality":"-","DistrictCode":"-","District":"-","Description":"","Authority":"VRR","DelfiName":"-","THID":"-","LastOperationDate":"","SEV":"nein","longitude":"6,46663","latitude":"50,443217","geojson_lng":6.46663,"geojson_lat":50.443217},"geometry":{"type":"Point","coordinates":[6.46663,50.443217]}},{"type":"Feature","properties":{"SeqNo":"580013","Type":"Q","DHID":"de:05366:78844:2:21","Parent":"de:05366:78844:2","Name":"","MunicipalityCode":"00000000","Municipality":"-","DistrictCode":"-","District":"-","Description":"","Authority":"VRR","DelfiName":"-","THID":"-","LastOperationDate":"","SEV":"nein","longitude":"6,466289","latitude":"50,443143","geojson_lng":6.466289,"geojson_lat":50.443143},"geometry":{"type":"Point","coordinates":[6.466289,50.443143]}},{"type":"Feature","properties":{"SeqNo":"580014","Type":"Q","DHID":"de:05366:78844:2:22","Parent":"de:05366:78844:2","Name":"","MunicipalityCode":"00000000","Municipality":"-","DistrictCode":"-","District":"-","Description":"","Authority":"VRR","DelfiName":"-","THID":"-","LastOperationDate":"","SEV":"nein","longitude":"6,466289","latitude":"50,443143","geojson_lng":6.466289,"geojson_lat":50.443143},"geometry":{"type":"Point","coordinates":[6.466289,50.443143]}},{"type":"Feature","properties":{"SeqNo":"580023","Type":"S","DHID":"de:05366:78847","Parent":"de:05366:78847","Name":"Hellenthal Wolfert Oberwolfert Kirche","MunicipalityCode":"05366020","Municipality":"Hellenthal","DistrictCode":"","District":"","Description":"","Authority":"VRR","DelfiName":"-","THID":"D914F60133FF","LastOperationDate":"2025-01-06T00:00:00","SEV":"nein","longitude":"6,464735","latitude":"50,439767","geojson_lng":6.464735,"geojson_lat":50.439767},"geometry":{"type":"Point","coordinates":[6.464735,50.439767]}},{"type":"Feature","properties":{"SeqNo":"580024","Type":"A","DHID":"de:05366:78847:2","Parent":"de:05366:78847","Name":"Oberwolfert Kirch","MunicipalityCode":"00000000","Municipality":"-","DistrictCode":"-","District":"-","Description":"","Authority":"VRR","DelfiName":"-","THID":"-","LastOperationDate":"","SEV":"nein","longitude":"6,463612","latitude":"50,438955","geojson_lng":6.463612,"geojson_lat":50.438955},"geometry":{"type":"Point","coordinates":[6.463612,50.438955]}},{"type":"Feature","properties":{"SeqNo":"580025","Type":"Q","DHID":"de:05366:78847:2:21","Parent":"de:05366:78847:2","Name":"","MunicipalityCode":"00000000","Municipality":"-","DistrictCode":"-","District":"-","Description":"","Authority":"VRR","DelfiName":"-","THID":"-","LastOperationDate":"","SEV":"nein","longitude":"6,463603","latitude":"50,438955","geojson_lng":6.463603,"geojson_lat":50.438955},"geometry":{"type":"Point","coordinates":[6.463603,50.438955]}},{"type":"Feature","properties":{"SeqNo":"580026","Type":"Q","DHID":"de:05366:78847:2:22","Parent":"de:05366:78847:2","Name":"","MunicipalityCode":"00000000","Municipality":"-","DistrictCode":"-","District":"-","Description":"","Authority":"VRR","DelfiName":"-","THID":"-","LastOperationDate":"","SEV":"nein","longitude":"6,463603","latitude":"50,438955","geojson_lng":6.463603,"geojson_lat":50.438955},"geometry":{"type":"Point","coordinates":[6.463603,50.438955]}},{"type":"Feature","properties":{"SeqNo":"580027","Type":"S","DHID":"de:05366:78848","Parent":"de:05366:78848","Name":"Hellenthal Wolfert Oberwolfert","MunicipalityCode":"05366020","Municipality":"Hellenthal","DistrictCode":"","District":"","Description":"","Authority":"VRR","DelfiName":"-","THID":"D914F6013400","LastOperationDate":"2025-01-06T00:00:00","SEV":"nein","longitude":"6,467601","latitude":"50,44205","geojson_lng":6.467601,"geojson_lat":50.44205},"geometry":{"type":"Point","coordinates":[6.467601,50.44205]}},{"type":"Feature","properties":{"SeqNo":"580028","Type":"A","DHID":"de:05366:78848:2","Parent":"de:05366:78848","Name":"Oberwolfert","MunicipalityCode":"00000000","Municipality":"-","DistrictCode":"-","District":"-","Description":"","Authority":"VRR","DelfiName":"-","THID":"-","LastOperationDate":"","SEV":"nein","longitude":"6,46761","latitude":"50,44205","geojson_lng":6.46761,"geojson_lat":50.44205},"geometry":{"type":"Point","coordinates":[6.46761,50.44205]}},{"type":"Feature","properties":{"SeqNo":"580029","Type":"Q","DHID":"de:05366:78848:2:21","Parent":"de:05366:78848:2","Name":"","MunicipalityCode":"00000000","Municipality":"-","DistrictCode":"-","District":"-","Description":"","Authority":"VRR","DelfiName":"-","THID":"-","LastOperationDate":"","SEV":"nein","longitude":"6,467843","latitude":"50,442124","geojson_lng":6.467843,"geojson_lat":50.442124},"geometry":{"type":"Point","coordinates":[6.467843,50.442124]}},{"type":"Feature","properties":{"SeqNo":"580030","Type":"Q","DHID":"de:05366:78848:2:22","Parent":"de:05366:78848:2","Name":"","MunicipalityCode":"00000000","Municipality":"-","DistrictCode":"-","District":"-","Description":"","Authority":"VRR","DelfiName":"-","THID":"-","LastOperationDate":"","SEV":"nein","longitude":"6,467843","latitude":"50,442124","geojson_lng":6.467843,"geojson_lat":50.442124},"geometry":{"type":"Point","coordinates":[6.467843,50.442124]}},{"type":"Feature","properties":{"SeqNo":"580031","Type":"Q","DHID":"de:05366:78848:2:23","Parent":"de:05366:78848:2","Name":"","MunicipalityCode":"00000000","Municipality":"-","DistrictCode":"-","District":"-","Description":"","Authority":"VRR","DelfiName":"-","THID":"-","LastOperationDate":"","SEV":"nein","longitude":"6,467448","latitude":"50,441953","geojson_lng":6.467448,"geojson_lat":50.441953},"geometry":{"type":"Point","coordinates":[6.467448,50.441953]}},{"type":"Feature","properties":{"SeqNo":"580032","Type":"Q","DHID":"de:05366:78848:2:24","Parent":"de:05366:78848:2","Name":"","MunicipalityCode":"00000000","Municipality":"-","DistrictCode":"-","District":"-","Description":"","Authority":"VRR","DelfiName":"-","THID":"-","LastOperationDate":"","SEV":"nein","longitude":"6,467304","latitude":"50,442027","geojson_lng":6.467304,"geojson_lat":50.442027},"geometry":{"type":"Point","coordinates":[6.467304,50.442027]}}]}