{"type":"FeatureCollection","features":[{"type":"Feature","properties":{"SeqNo":"804256","Type":"S","DHID":"de:15002:5184","Parent":"de:15002:5184","Name":"Halle (Saale), Schwimmhalle","MunicipalityCode":"15002000","Municipality":"Halle (Saale)","DistrictCode":"","District":"","Description":"","Authority":"NASA","DelfiName":"Halle (Saale), Schwimmhalle","THID":"D93A9A001440","LastOperationDate":"2025-06-14T00:00:00","SEV":"nein","longitude":"11,915398","latitude":"51,478957","geojson_lng":11.915398,"geojson_lat":51.478957},"geometry":{"type":"Point","coordinates":[11.915398,51.478957]}},{"type":"Feature","properties":{"SeqNo":"804257","Type":"Q","DHID":"de:15002:5184::01","Parent":"de:15002:5184","Name":"Steig A","MunicipalityCode":"00000000","Municipality":"-","DistrictCode":"-","District":"-","Description":"","Authority":"NASA","DelfiName":"-","THID":"-","LastOperationDate":"","SEV":"nein","longitude":"11,915382","latitude":"51,47893","geojson_lng":11.915382,"geojson_lat":51.47893},"geometry":{"type":"Point","coordinates":[11.915382,51.47893]}},{"type":"Feature","properties":{"SeqNo":"804258","Type":"Q","DHID":"de:15002:5184::02","Parent":"de:15002:5184","Name":"Steig B","MunicipalityCode":"00000000","Municipality":"-","DistrictCode":"-","District":"-","Description":"","Authority":"NASA","DelfiName":"-","THID":"-","LastOperationDate":"","SEV":"nein","longitude":"11,915025","latitude":"51,478975","geojson_lng":11.915025,"geojson_lat":51.478975},"geometry":{"type":"Point","coordinates":[11.915025,51.478975]}},{"type":"Feature","properties":{"SeqNo":"804259","Type":"Q","DHID":"de:15002:5184::03","Parent":"de:15002:5184","Name":"Steig C","MunicipalityCode":"00000000","Municipality":"-","DistrictCode":"-","District":"-","Description":"","Authority":"NASA","DelfiName":"-","THID":"-","LastOperationDate":"","SEV":"nein","longitude":"11,915086","latitude":"51,478812","geojson_lng":11.915086,"geojson_lat":51.478812},"geometry":{"type":"Point","coordinates":[11.915086,51.478812]}},{"type":"Feature","properties":{"SeqNo":"804260","Type":"Q","DHID":"de:15002:5184::04","Parent":"de:15002:5184","Name":"Steig D","MunicipalityCode":"00000000","Municipality":"-","DistrictCode":"-","District":"-","Description":"","Authority":"NASA","DelfiName":"-","THID":"-","LastOperationDate":"","SEV":"nein","longitude":"11,916142","latitude":"51,479118","geojson_lng":11.916142,"geojson_lat":51.479118},"geometry":{"type":"Point","coordinates":[11.916142,51.479118]}},{"type":"Feature","properties":{"SeqNo":"804368","Type":"Q","DHID":"de:15002:5218::02","Parent":"de:15002:5218","Name":"Steig B","MunicipalityCode":"00000000","Municipality":"-","DistrictCode":"-","District":"-","Description":"","Authority":"NASA","DelfiName":"-","THID":"-","LastOperationDate":"","SEV":"nein","longitude":"11,920317","latitude":"51,481352","geojson_lng":11.920317,"geojson_lat":51.481352},"geometry":{"type":"Point","coordinates":[11.920317,51.481352]}},{"type":"Feature","properties":{"SeqNo":"804491","Type":"S","DHID":"de:15002:5265","Parent":"de:15002:5265","Name":"Halle (Saale), Am Stadion","MunicipalityCode":"15002000","Municipality":"Halle (Saale)","DistrictCode":"","District":"","Description":"","Authority":"NASA","DelfiName":"Halle (Saale), Am Stadion","THID":"D93A9A001491","LastOperationDate":"2025-06-14T00:00:00","SEV":"nein","longitude":"11,911513","latitude":"51,481256","geojson_lng":11.911513,"geojson_lat":51.481256},"geometry":{"type":"Point","coordinates":[11.911513,51.481256]}},{"type":"Feature","properties":{"SeqNo":"804492","Type":"Q","DHID":"de:15002:5265::01","Parent":"de:15002:5265","Name":"Steig A","MunicipalityCode":"00000000","Municipality":"-","DistrictCode":"-","District":"-","Description":"","Authority":"NASA","DelfiName":"-","THID":"-","LastOperationDate":"","SEV":"nein","longitude":"11,91141","latitude":"51,481232","geojson_lng":11.91141,"geojson_lat":51.481232},"geometry":{"type":"Point","coordinates":[11.91141,51.481232]}},{"type":"Feature","properties":{"SeqNo":"804493","Type":"Q","DHID":"de:15002:5265::02","Parent":"de:15002:5265","Name":"Steig B","MunicipalityCode":"00000000","Municipality":"-","DistrictCode":"-","District":"-","Description":"","Authority":"NASA","DelfiName":"-","THID":"-","LastOperationDate":"","SEV":"nein","longitude":"11,911626","latitude":"51,481226","geojson_lng":11.911626,"geojson_lat":51.481226},"geometry":{"type":"Point","coordinates":[11.911626,51.481226]}}]}