{"type":"FeatureCollection","features":[{"type":"Feature","properties":{"SeqNo":"193453","Type":"S","DHID":"de:09464:143","Parent":"de:09464:143","Name":"Untreusee","MunicipalityCode":"09464000","Municipality":"Hof","DistrictCode":"","District":"","Description":"","Authority":"BEG","DelfiName":"-","THID":"D924F800008F","LastOperationDate":"2025-06-14T00:00:00","SEV":"nein","longitude":"11,913008","latitude":"50,287044","geojson_lng":11.913008,"geojson_lat":50.287044},"geometry":{"type":"Point","coordinates":[11.913008,50.287044]}},{"type":"Feature","properties":{"SeqNo":"193454","Type":"Q","DHID":"de:09464:143:0:2","Parent":"de:09464:143","Name":"Untreusee","MunicipalityCode":"00000000","Municipality":"-","DistrictCode":"-","District":"-","Description":"","Authority":"BEG","DelfiName":"-","THID":"-","LastOperationDate":"","SEV":"nein","longitude":"11,913008","latitude":"50,287044","geojson_lng":11.913008,"geojson_lat":50.287044},"geometry":{"type":"Point","coordinates":[11.913008,50.287044]}},{"type":"Feature","properties":{"SeqNo":"193534","Type":"S","DHID":"de:09464:200","Parent":"de:09464:200","Name":"Frankenbergweg","MunicipalityCode":"09464000","Municipality":"Hof","DistrictCode":"","District":"","Description":"","Authority":"BEG","DelfiName":"-","THID":"D924F80000C8","LastOperationDate":"2025-06-14T00:00:00","SEV":"nein","longitude":"11,915874","latitude":"50,288347","geojson_lng":11.915874,"geojson_lat":50.288347},"geometry":{"type":"Point","coordinates":[11.915874,50.288347]}},{"type":"Feature","properties":{"SeqNo":"193535","Type":"Q","DHID":"de:09464:200:0:1","Parent":"de:09464:200","Name":"Frankenbergweg","MunicipalityCode":"00000000","Municipality":"-","DistrictCode":"-","District":"-","Description":"","Authority":"BEG","DelfiName":"-","THID":"-","LastOperationDate":"","SEV":"nein","longitude":"11,915874","latitude":"50,288347","geojson_lng":11.915874,"geojson_lat":50.288347},"geometry":{"type":"Point","coordinates":[11.915874,50.288347]}},{"type":"Feature","properties":{"SeqNo":"193744","Type":"S","DHID":"de:09464:880","Parent":"de:09464:880","Name":"Schaumbergstr.","MunicipalityCode":"09464000","Municipality":"Hof","DistrictCode":"","District":"","Description":"","Authority":"BEG","DelfiName":"-","THID":"D924F8000370","LastOperationDate":"2024-12-14T00:00:00","SEV":"nein","longitude":"11,91732","latitude":"50,287222","geojson_lng":11.91732,"geojson_lat":50.287222},"geometry":{"type":"Point","coordinates":[11.91732,50.287222]}},{"type":"Feature","properties":{"SeqNo":"193745","Type":"Q","DHID":"de:09464:880:0:1","Parent":"de:09464:880","Name":"Schaumbergstr.","MunicipalityCode":"00000000","Municipality":"-","DistrictCode":"-","District":"-","Description":"","Authority":"BEG","DelfiName":"-","THID":"-","LastOperationDate":"","SEV":"nein","longitude":"11,91732","latitude":"50,287222","geojson_lng":11.91732,"geojson_lat":50.287222},"geometry":{"type":"Point","coordinates":[11.91732,50.287222]}},{"type":"Feature","properties":{"SeqNo":"193785","Type":"S","DHID":"de:09464:9800","Parent":"de:09464:9800","Name":"Hof (Saale), Am Lindenbühl","MunicipalityCode":"09464000","Municipality":"Hof","DistrictCode":"-","District":"-","Description":"","Authority":"BEG","DelfiName":"-","THID":"D924F8002648","LastOperationDate":"1999-12-31T00:00:00","SEV":"nein","longitude":"11,916224","latitude":"50,286011","geojson_lng":11.916224,"geojson_lat":50.286011},"geometry":{"type":"Point","coordinates":[11.916224,50.286011]}},{"type":"Feature","properties":{"SeqNo":"193786","Type":"Q","DHID":"de:09464:9800:0:1","Parent":"de:09464:9800","Name":"Am Lindenbühl","MunicipalityCode":"00000000","Municipality":"-","DistrictCode":"-","District":"-","Description":"Am Lindenbühl","Authority":"BEG","DelfiName":"-","THID":"-","LastOperationDate":"","SEV":"nein","longitude":"11,916314","latitude":"50,286011","geojson_lng":11.916314,"geojson_lat":50.286011},"geometry":{"type":"Point","coordinates":[11.916314,50.286011]}}]}