{"type":"FeatureCollection","features":[{"type":"Feature","properties":{"highway":"bus_stop","public_transport":"platform","name":"Ploossche Hof","ref:IFOPT":"NL:Q:63007120","_quaycode":"NL:Q:63007120","_town":"'s-Hertogenbosch","_status":"available","_mode":"bus","_direction":69,"_visuallyAccessible":true,"_disabledAccessible":true,"geojson_lng":5.325745467567152,"geojson_lat":51.71654013241536},"geometry":{"type":"Point","coordinates":[5.325745467567152,51.71654013241536]}},{"type":"Feature","properties":{"highway":"bus_stop","public_transport":"platform","name":"Vierde Reit","ref:IFOPT":"NL:Q:63007140","_quaycode":"NL:Q:63007140","_town":"'s-Hertogenbosch","_status":"available","_mode":"bus","_direction":95,"_visuallyAccessible":true,"_disabledAccessible":true,"geojson_lng":5.32917512897314,"geojson_lat":51.71643401488066},"geometry":{"type":"Point","coordinates":[5.32917512897314,51.71643401488066]}},{"type":"Feature","properties":{"highway":"bus_stop","public_transport":"platform","name":"De Reit","ref:IFOPT":"NL:Q:63007810","_quaycode":"NL:Q:63007810","_town":"'s-Hertogenbosch","_status":"available","_mode":"bus","_direction":250,"_visuallyAccessible":false,"_disabledAccessible":false,"geojson_lng":5.332779930726701,"geojson_lat":51.71506949222408},"geometry":{"type":"Point","coordinates":[5.332779930726701,51.71506949222408]}},{"type":"Feature","properties":{"highway":"bus_stop","public_transport":"platform","name":"De Harendonkweg","ref:IFOPT":"NL:Q:63001680","_quaycode":"NL:Q:63001680","_town":"'s-Hertogenbosch","_status":"available","_mode":"bus","_direction":69,"_visuallyAccessible":false,"_disabledAccessible":false,"geojson_lng":5.321725521757249,"geojson_lat":51.71455150797109},"geometry":{"type":"Point","coordinates":[5.321725521757249,51.71455150797109]}},{"type":"Feature","properties":{"highway":"bus_stop","public_transport":"platform","name":"Eerste Reitse Dreef","ref:IFOPT":"NL:Q:63007160","_quaycode":"NL:Q:63007160","_town":"'s-Hertogenbosch","_status":"available","_mode":"bus","_direction":100,"_visuallyAccessible":true,"_disabledAccessible":true,"geojson_lng":5.330884035996047,"geojson_lat":51.71532027602524},"geometry":{"type":"Point","coordinates":[5.330884035996047,51.71532027602524]}},{"type":"Feature","properties":{"highway":"bus_stop","public_transport":"platform","name":"De Harendonkweg","ref:IFOPT":"NL:Q:63005810","_quaycode":"NL:Q:63005810","_town":"'s-Hertogenbosch","_status":"available","_mode":"bus","_direction":310,"_visuallyAccessible":false,"_disabledAccessible":false,"geojson_lng":5.320350825921923,"geojson_lat":51.714586687397684},"geometry":{"type":"Point","coordinates":[5.320350825921923,51.714586687397684]}},{"type":"Feature","properties":{"highway":"bus_stop","public_transport":"platform","name":"Vierde Reit","ref:IFOPT":"NL:Q:63007150","_quaycode":"NL:Q:63007150","_town":"'s-Hertogenbosch","_status":"available","_mode":"bus","_direction":310,"_visuallyAccessible":false,"_disabledAccessible":false,"geojson_lng":5.329623692531751,"geojson_lat":51.71645221250962},"geometry":{"type":"Point","coordinates":[5.329623692531751,51.71645221250962]}},{"type":"Feature","properties":{"highway":"bus_stop","public_transport":"platform","name":"Eerste Reitse Dreef","ref:IFOPT":"NL:Q:63007130","_quaycode":"NL:Q:63007130","_town":"'s-Hertogenbosch","_status":"available","_mode":"bus","_direction":315,"_visuallyAccessible":true,"_disabledAccessible":true,"geojson_lng":5.331376154680166,"geojson_lat":51.7152126492152},"geometry":{"type":"Point","coordinates":[5.331376154680166,51.7152126492152]}},{"type":"Feature","properties":{"highway":"bus_stop","public_transport":"platform","name":"Ploossche Hof","ref:IFOPT":"NL:Q:63007110","_quaycode":"NL:Q:63007110","_town":"'s-Hertogenbosch","_status":"available","_mode":"bus","_direction":248,"_visuallyAccessible":true,"_disabledAccessible":true,"geojson_lng":5.325441610264519,"geojson_lat":51.71652199610887},"geometry":{"type":"Point","coordinates":[5.325441610264519,51.71652199610887]}},{"type":"Feature","properties":{"highway":"bus_stop","public_transport":"platform","name":"De Harendonkweg","ref:IFOPT":"NL:Q:63001690","_quaycode":"NL:Q:63001690","_town":"'s-Hertogenbosch","_status":"available","_mode":"bus","_direction":249,"_visuallyAccessible":true,"_disabledAccessible":true,"geojson_lng":5.319671864140645,"geojson_lat":51.713831267161595},"geometry":{"type":"Point","coordinates":[5.319671864140645,51.713831267161595]}},{"type":"Feature","properties":{"highway":"bus_stop","public_transport":"platform","name":"De Morgen","ref:IFOPT":"NL:Q:63005840","_quaycode":"NL:Q:63005840","_town":"'s-Hertogenbosch","_status":"available","_mode":"bus","_direction":135,"_visuallyAccessible":true,"_disabledAccessible":true,"geojson_lng":5.317250416081863,"geojson_lat":51.717074688298545},"geometry":{"type":"Point","coordinates":[5.317250416081863,51.717074688298545]}},{"type":"Feature","properties":{"highway":"bus_stop","public_transport":"platform","name":"De Reit","ref:IFOPT":"NL:Q:63007820","_quaycode":"NL:Q:63007820","_town":"'s-Hertogenbosch","_status":"available","_mode":"bus","_direction":68,"_visuallyAccessible":false,"_disabledAccessible":false,"geojson_lng":5.333821766826358,"geojson_lat":51.71507895858125},"geometry":{"type":"Point","coordinates":[5.333821766826358,51.71507895858125]}}]}