{"type":"FeatureCollection","features":[{"type":"Feature","properties":{"SeqNo":"830960","Type":"S","DHID":"de:14523:1333","Parent":"de:14523:1333","Name":"Foschenroda, Unterdorf","MunicipalityCode":"14523260","Municipality":"Netzschkau","DistrictCode":"","District":"","Description":"","Authority":"VVO","DelfiName":"-","THID":"D938BB000535","LastOperationDate":"2025-06-13T00:00:00","SEV":"nein","longitude":"12,252796","latitude":"50,601676","geojson_lng":12.252796,"geojson_lat":50.601676},"geometry":{"type":"Point","coordinates":[12.252796,50.601676]}},{"type":"Feature","properties":{"SeqNo":"830961","Type":"A","DHID":"de:14523:1333:2","Parent":"de:14523:1333","Name":"Bus","MunicipalityCode":"00000000","Municipality":"-","DistrictCode":"-","District":"-","Description":"","Authority":"VVO","DelfiName":"-","THID":"-","LastOperationDate":"","SEV":"nein","longitude":"12,252796","latitude":"50,601676","geojson_lng":12.252796,"geojson_lat":50.601676},"geometry":{"type":"Point","coordinates":[12.252796,50.601676]}},{"type":"Feature","properties":{"SeqNo":"830962","Type":"Q","DHID":"de:14523:1333:2:1","Parent":"de:14523:1333:2","Name":"A R Wende","MunicipalityCode":"00000000","Municipality":"-","DistrictCode":"-","District":"-","Description":"","Authority":"VVO","DelfiName":"-","THID":"-","LastOperationDate":"","SEV":"nein","longitude":"12,252787","latitude":"50,601699","geojson_lng":12.252787,"geojson_lat":50.601699},"geometry":{"type":"Point","coordinates":[12.252787,50.601699]}},{"type":"Feature","properties":{"SeqNo":"830963","Type":"Q","DHID":"de:14523:1333:2:2","Parent":"de:14523:1333:2","Name":"B R Netzschkau/Lauschgrün","MunicipalityCode":"00000000","Municipality":"-","DistrictCode":"-","District":"-","Description":"","Authority":"VVO","DelfiName":"-","THID":"-","LastOperationDate":"","SEV":"nein","longitude":"12,252868","latitude":"50,601676","geojson_lng":12.252868,"geojson_lat":50.601676},"geometry":{"type":"Point","coordinates":[12.252868,50.601676]}},{"type":"Feature","properties":{"SeqNo":"831954","Type":"S","DHID":"de:14523:1909","Parent":"de:14523:1909","Name":"Lauschgrün, Am Berg","MunicipalityCode":"14523190","Municipality":"Limbach","DistrictCode":"","District":"","Description":"","Authority":"VVO","DelfiName":"-","THID":"D938BB000775","LastOperationDate":"2025-06-14T00:00:00","SEV":"nein","longitude":"12,258851","latitude":"50,597799","geojson_lng":12.258851,"geojson_lat":50.597799},"geometry":{"type":"Point","coordinates":[12.258851,50.597799]}},{"type":"Feature","properties":{"SeqNo":"831955","Type":"A","DHID":"de:14523:1909:2","Parent":"de:14523:1909","Name":"Bus","MunicipalityCode":"00000000","Municipality":"-","DistrictCode":"-","District":"-","Description":"","Authority":"VVO","DelfiName":"-","THID":"-","LastOperationDate":"","SEV":"nein","longitude":"12,25886","latitude":"50,597793","geojson_lng":12.25886,"geojson_lat":50.597793},"geometry":{"type":"Point","coordinates":[12.25886,50.597793]}},{"type":"Feature","properties":{"SeqNo":"831956","Type":"Q","DHID":"de:14523:1909:2:1","Parent":"de:14523:1909:2","Name":"A R Netzschkau","MunicipalityCode":"00000000","Municipality":"-","DistrictCode":"-","District":"-","Description":"","Authority":"VVO","DelfiName":"-","THID":"-","LastOperationDate":"","SEV":"nein","longitude":"12,258931","latitude":"50,597719","geojson_lng":12.258931,"geojson_lat":50.597719},"geometry":{"type":"Point","coordinates":[12.258931,50.597719]}},{"type":"Feature","properties":{"SeqNo":"831957","Type":"Q","DHID":"de:14523:1909:2:2","Parent":"de:14523:1909:2","Name":"B R Limbach","MunicipalityCode":"00000000","Municipality":"-","DistrictCode":"-","District":"-","Description":"","Authority":"VVO","DelfiName":"-","THID":"-","LastOperationDate":"","SEV":"nein","longitude":"12,258761","latitude":"50,597747","geojson_lng":12.258761,"geojson_lat":50.597747},"geometry":{"type":"Point","coordinates":[12.258761,50.597747]}}]}