{"type":"FeatureCollection","features":[{"type":"Feature","properties":{"SeqNo":"850413","Type":"S","DHID":"de:14626:8386","Parent":"de:14626:8386","Name":"Daubitz Schloss","MunicipalityCode":"14626460","Municipality":"Rietschen","DistrictCode":"","District":"","Description":"","Authority":"VVO","DelfiName":"-","THID":"D939220020C2","LastOperationDate":"2025-06-14T00:00:00","SEV":"nein","longitude":"14,821385","latitude":"51,396949","geojson_lng":14.821385,"geojson_lat":51.396949},"geometry":{"type":"Point","coordinates":[14.821385,51.396949]}},{"type":"Feature","properties":{"SeqNo":"850414","Type":"Q","DHID":"de:14626:8386:0:1","Parent":"de:14626:8386","Name":"1 - Ri. Hähnichen","MunicipalityCode":"00000000","Municipality":"-","DistrictCode":"-","District":"-","Description":"","Authority":"VVO","DelfiName":"-","THID":"-","LastOperationDate":"","SEV":"nein","longitude":"14,821385","latitude":"51,396921","geojson_lng":14.821385,"geojson_lat":51.396921},"geometry":{"type":"Point","coordinates":[14.821385,51.396921]}},{"type":"Feature","properties":{"SeqNo":"850415","Type":"Q","DHID":"de:14626:8386:0:2","Parent":"de:14626:8386","Name":"2 - Ri. Rietschen","MunicipalityCode":"00000000","Municipality":"-","DistrictCode":"-","District":"-","Description":"","Authority":"VVO","DelfiName":"-","THID":"-","LastOperationDate":"","SEV":"nein","longitude":"14,821403","latitude":"51,396988","geojson_lng":14.821403,"geojson_lat":51.396988},"geometry":{"type":"Point","coordinates":[14.821403,51.396988]}},{"type":"Feature","properties":{"SeqNo":"850416","Type":"S","DHID":"de:14626:8387","Parent":"de:14626:8387","Name":"Daubitz Markt","MunicipalityCode":"14626460","Municipality":"Rietschen","DistrictCode":"","District":"","Description":"","Authority":"VVO","DelfiName":"-","THID":"D939220020C3","LastOperationDate":"2025-06-14T00:00:00","SEV":"nein","longitude":"14,829209","latitude":"51,396534","geojson_lng":14.829209,"geojson_lat":51.396534},"geometry":{"type":"Point","coordinates":[14.829209,51.396534]}},{"type":"Feature","properties":{"SeqNo":"850417","Type":"Q","DHID":"de:14626:8387:0:1","Parent":"de:14626:8387","Name":"1 - Ri. Hähnichen","MunicipalityCode":"00000000","Municipality":"-","DistrictCode":"-","District":"-","Description":"","Authority":"VVO","DelfiName":"-","THID":"-","LastOperationDate":"","SEV":"nein","longitude":"14,829281","latitude":"51,396495","geojson_lng":14.829281,"geojson_lat":51.396495},"geometry":{"type":"Point","coordinates":[14.829281,51.396495]}},{"type":"Feature","properties":{"SeqNo":"850418","Type":"Q","DHID":"de:14626:8387:0:2","Parent":"de:14626:8387","Name":"2 - Ri. Rietschen","MunicipalityCode":"00000000","Municipality":"-","DistrictCode":"-","District":"-","Description":"","Authority":"VVO","DelfiName":"-","THID":"-","LastOperationDate":"","SEV":"nein","longitude":"14,829146","latitude":"51,396573","geojson_lng":14.829146,"geojson_lat":51.396573},"geometry":{"type":"Point","coordinates":[14.829146,51.396573]}}]}