{"type":"FeatureCollection","features":[{"type":"Feature","properties":{"SeqNo":"658316","Type":"A","DHID":"de:05911:5133:15","Parent":"de:05911:5133","Name":"Verlegter Steig 5","MunicipalityCode":"00000000","Municipality":"-","DistrictCode":"-","District":"-","Description":"","Authority":"VRR","DelfiName":"-","THID":"-","LastOperationDate":"","SEV":"nein","longitude":"7,258352","latitude":"51,515621","geojson_lng":7.258352,"geojson_lat":51.515621},"geometry":{"type":"Point","coordinates":[7.258352,51.515621]}},{"type":"Feature","properties":{"SeqNo":"658322","Type":"Q","DHID":"de:05911:5133:15:15","Parent":"de:05911:5133:15","Name":"Ri. Herne","MunicipalityCode":"00000000","Municipality":"-","DistrictCode":"-","District":"-","Description":"","Authority":"VRR","DelfiName":"-","THID":"-","LastOperationDate":"","SEV":"nein","longitude":"7,258271","latitude":"51,515605","geojson_lng":7.258271,"geojson_lat":51.515605},"geometry":{"type":"Point","coordinates":[7.258271,51.515605]}},{"type":"Feature","properties":{"SeqNo":"661589","Type":"S","DHID":"de:05911:7904","Parent":"de:05911:7904","Name":"BO Wiekskamp","MunicipalityCode":"05911000","Municipality":"Bochum","DistrictCode":"","District":"","Description":"","Authority":"VRR","DelfiName":"-","THID":"D91717001EE0","LastOperationDate":"2025-06-14T00:00:00","SEV":"nein","longitude":"7,251039","latitude":"51,518975","geojson_lng":7.251039,"geojson_lat":51.518975},"geometry":{"type":"Point","coordinates":[7.251039,51.518975]}},{"type":"Feature","properties":{"SeqNo":"661590","Type":"A","DHID":"de:05911:7904:1","Parent":"de:05911:7904","Name":"Bus","MunicipalityCode":"00000000","Municipality":"-","DistrictCode":"-","District":"-","Description":"","Authority":"VRR","DelfiName":"-","THID":"-","LastOperationDate":"","SEV":"nein","longitude":"7,251039","latitude":"51,518975","geojson_lng":7.251039,"geojson_lat":51.518975},"geometry":{"type":"Point","coordinates":[7.251039,51.518975]}},{"type":"Feature","properties":{"SeqNo":"661591","Type":"Q","DHID":"de:05911:7904:1:1","Parent":"de:05911:7904:1","Name":"> Herne","MunicipalityCode":"00000000","Municipality":"-","DistrictCode":"-","District":"-","Description":"","Authority":"VRR","DelfiName":"-","THID":"-","LastOperationDate":"","SEV":"nein","longitude":"7,251102","latitude":"51,519003","geojson_lng":7.251102,"geojson_lat":51.519003},"geometry":{"type":"Point","coordinates":[7.251102,51.519003]}},{"type":"Feature","properties":{"SeqNo":"661592","Type":"Q","DHID":"de:05911:7904:1:2","Parent":"de:05911:7904:1","Name":"> BO-Hiltrop","MunicipalityCode":"00000000","Municipality":"-","DistrictCode":"-","District":"-","Description":"","Authority":"VRR","DelfiName":"-","THID":"-","LastOperationDate":"","SEV":"nein","longitude":"7,250976","latitude":"51,518947","geojson_lng":7.250976,"geojson_lat":51.518947},"geometry":{"type":"Point","coordinates":[7.250976,51.518947]}},{"type":"Feature","properties":{"SeqNo":"661593","Type":"S","DHID":"de:05911:7905","Parent":"de:05911:7905","Name":"BO Heiksfeld","MunicipalityCode":"05911000","Municipality":"Bochum","DistrictCode":"","District":"","Description":"","Authority":"VRR","DelfiName":"-","THID":"D91717001EE1","LastOperationDate":"2025-06-14T00:00:00","SEV":"nein","longitude":"7,254264","latitude":"51,516929","geojson_lng":7.254264,"geojson_lat":51.516929},"geometry":{"type":"Point","coordinates":[7.254264,51.516929]}},{"type":"Feature","properties":{"SeqNo":"661594","Type":"A","DHID":"de:05911:7905:1","Parent":"de:05911:7905","Name":"Bus","MunicipalityCode":"00000000","Municipality":"-","DistrictCode":"-","District":"-","Description":"","Authority":"VRR","DelfiName":"-","THID":"-","LastOperationDate":"","SEV":"nein","longitude":"7,254255","latitude":"51,516929","geojson_lng":7.254255,"geojson_lat":51.516929},"geometry":{"type":"Point","coordinates":[7.254255,51.516929]}},{"type":"Feature","properties":{"SeqNo":"661595","Type":"Q","DHID":"de:05911:7905:1:1","Parent":"de:05911:7905:1","Name":"> Herne","MunicipalityCode":"00000000","Municipality":"-","DistrictCode":"-","District":"-","Description":"","Authority":"VRR","DelfiName":"-","THID":"-","LastOperationDate":"","SEV":"nein","longitude":"7,254399","latitude":"51,516935","geojson_lng":7.254399,"geojson_lat":51.516935},"geometry":{"type":"Point","coordinates":[7.254399,51.516935]}},{"type":"Feature","properties":{"SeqNo":"661596","Type":"Q","DHID":"de:05911:7905:1:2","Parent":"de:05911:7905:1","Name":"> BO-Hiltrop","MunicipalityCode":"00000000","Municipality":"-","DistrictCode":"-","District":"-","Description":"","Authority":"VRR","DelfiName":"-","THID":"-","LastOperationDate":"","SEV":"nein","longitude":"7,254138","latitude":"51,516924","geojson_lng":7.254138,"geojson_lat":51.516924},"geometry":{"type":"Point","coordinates":[7.254138,51.516924]}}]}