{"type":"FeatureCollection","features":[{"type":"Feature","properties":{"SeqNo":"661577","Type":"S","DHID":"de:05911:7901","Parent":"de:05911:7901","Name":"BO Im Brennholt","MunicipalityCode":"05911000","Municipality":"Bochum","DistrictCode":"","District":"","Description":"","Authority":"VRR","DelfiName":"-","THID":"D91717001EDD","LastOperationDate":"2025-06-14T00:00:00","SEV":"nein","longitude":"7,257058","latitude":"51,526543","geojson_lng":7.257058,"geojson_lat":51.526543},"geometry":{"type":"Point","coordinates":[7.257058,51.526543]}},{"type":"Feature","properties":{"SeqNo":"661578","Type":"A","DHID":"de:05911:7901:1","Parent":"de:05911:7901","Name":"Bus","MunicipalityCode":"00000000","Municipality":"-","DistrictCode":"-","District":"-","Description":"","Authority":"VRR","DelfiName":"-","THID":"-","LastOperationDate":"","SEV":"nein","longitude":"7,257058","latitude":"51,526549","geojson_lng":7.257058,"geojson_lat":51.526549},"geometry":{"type":"Point","coordinates":[7.257058,51.526549]}},{"type":"Feature","properties":{"SeqNo":"661579","Type":"Q","DHID":"de:05911:7901:1:1","Parent":"de:05911:7901:1","Name":"> BO-Gerthe","MunicipalityCode":"00000000","Municipality":"-","DistrictCode":"-","District":"-","Description":"","Authority":"VRR","DelfiName":"-","THID":"-","LastOperationDate":"","SEV":"nein","longitude":"7,256824","latitude":"51,526627","geojson_lng":7.256824,"geojson_lat":51.526627},"geometry":{"type":"Point","coordinates":[7.256824,51.526627]}},{"type":"Feature","properties":{"SeqNo":"661580","Type":"Q","DHID":"de:05911:7901:1:2","Parent":"de:05911:7901:1","Name":"> Castrop-Rauxel","MunicipalityCode":"00000000","Municipality":"-","DistrictCode":"-","District":"-","Description":"","Authority":"VRR","DelfiName":"-","THID":"-","LastOperationDate":"","SEV":"nein","longitude":"7,256735","latitude":"51,526566","geojson_lng":7.256735,"geojson_lat":51.526566},"geometry":{"type":"Point","coordinates":[7.256735,51.526566]}},{"type":"Feature","properties":{"SeqNo":"672337","Type":"S","DHID":"de:05916:7528","Parent":"de:05916:7528","Name":"Herne Tierpark Gysenberg","MunicipalityCode":"05916000","Municipality":"Herne","DistrictCode":"","District":"","Description":"","Authority":"VRR","DelfiName":"-","THID":"D9171C001D68","LastOperationDate":"2025-06-14T00:00:00","SEV":"nein","longitude":"7,252513","latitude":"51,528186","geojson_lng":7.252513,"geojson_lat":51.528186},"geometry":{"type":"Point","coordinates":[7.252513,51.528186]}},{"type":"Feature","properties":{"SeqNo":"672338","Type":"A","DHID":"de:05916:7528:1","Parent":"de:05916:7528","Name":"Bus","MunicipalityCode":"00000000","Municipality":"-","DistrictCode":"-","District":"-","Description":"","Authority":"VRR","DelfiName":"-","THID":"-","LastOperationDate":"","SEV":"nein","longitude":"7,252513","latitude":"51,528142","geojson_lng":7.252513,"geojson_lat":51.528142},"geometry":{"type":"Point","coordinates":[7.252513,51.528142]}},{"type":"Feature","properties":{"SeqNo":"672339","Type":"Q","DHID":"de:05916:7528:1:1","Parent":"de:05916:7528:1","Name":"> Wiescherstr - HER","MunicipalityCode":"00000000","Municipality":"-","DistrictCode":"-","District":"-","Description":"","Authority":"VRR","DelfiName":"-","THID":"-","LastOperationDate":"","SEV":"nein","longitude":"7,251965","latitude":"51,528304","geojson_lng":7.251965,"geojson_lat":51.528304},"geometry":{"type":"Point","coordinates":[7.251965,51.528304]}},{"type":"Feature","properties":{"SeqNo":"672340","Type":"Q","DHID":"de:05916:7528:1:2","Parent":"de:05916:7528:1","Name":"> Constantin - Bochum","MunicipalityCode":"00000000","Municipality":"-","DistrictCode":"-","District":"-","Description":"","Authority":"VRR","DelfiName":"-","THID":"-","LastOperationDate":"","SEV":"nein","longitude":"7,252333","latitude":"51,527711","geojson_lng":7.252333,"geojson_lat":51.527711},"geometry":{"type":"Point","coordinates":[7.252333,51.527711]}},{"type":"Feature","properties":{"SeqNo":"672341","Type":"Q","DHID":"de:05916:7528:1:3","Parent":"de:05916:7528:1","Name":"> BO-Gerthe","MunicipalityCode":"00000000","Municipality":"-","DistrictCode":"-","District":"-","Description":"","Authority":"VRR","DelfiName":"-","THID":"-","LastOperationDate":"","SEV":"nein","longitude":"7,252953","latitude":"51,528019","geojson_lng":7.252953,"geojson_lat":51.528019},"geometry":{"type":"Point","coordinates":[7.252953,51.528019]}},{"type":"Feature","properties":{"SeqNo":"672342","Type":"Q","DHID":"de:05916:7528:1:5","Parent":"de:05916:7528:1","Name":"> Sodingen","MunicipalityCode":"00000000","Municipality":"-","DistrictCode":"-","District":"-","Description":"","Authority":"VRR","DelfiName":"-","THID":"-","LastOperationDate":"","SEV":"nein","longitude":"7,252755","latitude":"51,528538","geojson_lng":7.252755,"geojson_lat":51.528538},"geometry":{"type":"Point","coordinates":[7.252755,51.528538]}},{"type":"Feature","properties":{"SeqNo":"672343","Type":"S","DHID":"de:05916:7529","Parent":"de:05916:7529","Name":"Herne Siedlung Constantin","MunicipalityCode":"05916000","Municipality":"Herne","DistrictCode":"","District":"","Description":"","Authority":"VRR","DelfiName":"-","THID":"D9171C001D69","LastOperationDate":"2025-06-14T00:00:00","SEV":"nein","longitude":"7,251408","latitude":"51,526242","geojson_lng":7.251408,"geojson_lat":51.526242},"geometry":{"type":"Point","coordinates":[7.251408,51.526242]}},{"type":"Feature","properties":{"SeqNo":"672344","Type":"A","DHID":"de:05916:7529:1","Parent":"de:05916:7529","Name":"Bus","MunicipalityCode":"00000000","Municipality":"-","DistrictCode":"-","District":"-","Description":"","Authority":"VRR","DelfiName":"-","THID":"-","LastOperationDate":"","SEV":"nein","longitude":"7,251255","latitude":"51,526258","geojson_lng":7.251255,"geojson_lat":51.526258},"geometry":{"type":"Point","coordinates":[7.251255,51.526258]}},{"type":"Feature","properties":{"SeqNo":"672345","Type":"Q","DHID":"de:05916:7529:1:1","Parent":"de:05916:7529:1","Name":"> 323 Herne","MunicipalityCode":"00000000","Municipality":"-","DistrictCode":"-","District":"-","Description":"","Authority":"VRR","DelfiName":"-","THID":"-","LastOperationDate":"","SEV":"nein","longitude":"7,25112","latitude":"51,526113","geojson_lng":7.25112,"geojson_lat":51.526113},"geometry":{"type":"Point","coordinates":[7.25112,51.526113]}},{"type":"Feature","properties":{"SeqNo":"672346","Type":"Q","DHID":"de:05916:7529:1:2","Parent":"de:05916:7529:1","Name":"> 321/323  BO / 321 HER von BO","MunicipalityCode":"00000000","Municipality":"-","DistrictCode":"-","District":"-","Description":"","Authority":"VRR","DelfiName":"-","THID":"-","LastOperationDate":"","SEV":"nein","longitude":"7,25147","latitude":"51,526353","geojson_lng":7.25147,"geojson_lat":51.526353},"geometry":{"type":"Point","coordinates":[7.25147,51.526353]}},{"type":"Feature","properties":{"SeqNo":"672347","Type":"Q","DHID":"de:05916:7529:1:3","Parent":"de:05916:7529:1","Name":"> Endstelle","MunicipalityCode":"00000000","Municipality":"-","DistrictCode":"-","District":"-","Description":"","Authority":"VRR","DelfiName":"-","THID":"-","LastOperationDate":"","SEV":"nein","longitude":"7,251039","latitude":"51,52623","geojson_lng":7.251039,"geojson_lat":51.52623},"geometry":{"type":"Point","coordinates":[7.251039,51.52623]}}]}