{"type":"FeatureCollection","features":[{"type":"Feature","properties":{"SeqNo":"793733","Type":"S","DHID":"de:10045:51400","Parent":"de:10045:51400","Name":"Bahnhof, Bexbach","MunicipalityCode":"10045111","Municipality":"Bexbach","DistrictCode":"","District":"","Description":"","Authority":"ZPS","DelfiName":"-","THID":"D9273D00C8C8","LastOperationDate":"2025-02-28T00:00:00","SEV":"nein","longitude":"7,25424","latitude":"49,346199","geojson_lng":7.25424,"geojson_lat":49.346199},"geometry":{"type":"Point","coordinates":[7.25424,49.346199]}},{"type":"Feature","properties":{"SeqNo":"793734","Type":"Q","DHID":"de:10045:51400::514001","Parent":"de:10045:51400","Name":"Bahnhof, Bexbach","MunicipalityCode":"00000000","Municipality":"-","DistrictCode":"-","District":"-","Description":"","Authority":"ZPS","DelfiName":"-","THID":"-","LastOperationDate":"","SEV":"nein","longitude":"7,254461","latitude":"49,346193","geojson_lng":7.254461,"geojson_lat":49.346193},"geometry":{"type":"Point","coordinates":[7.254461,49.346193]}},{"type":"Feature","properties":{"SeqNo":"793735","Type":"Q","DHID":"de:10045:51400::514006","Parent":"de:10045:51400","Name":"Bahnhof, Bexbach","MunicipalityCode":"00000000","Municipality":"-","DistrictCode":"-","District":"-","Description":"","Authority":"ZPS","DelfiName":"-","THID":"-","LastOperationDate":"","SEV":"nein","longitude":"7,253938","latitude":"49,346186","geojson_lng":7.253938,"geojson_lat":49.346186},"geometry":{"type":"Point","coordinates":[7.253938,49.346186]}},{"type":"Feature","properties":{"SeqNo":"793756","Type":"S","DHID":"de:10045:51411","Parent":"de:10045:51411","Name":"Blumengarten, Bexbach","MunicipalityCode":"10045111","Municipality":"Bexbach","DistrictCode":"-","District":"-","Description":"","Authority":"ZPS","DelfiName":"-","THID":"D9273D00C8D3","LastOperationDate":"2025-02-28T00:00:00","SEV":"nein","longitude":"7,261859","latitude":"49,342554","geojson_lng":7.261859,"geojson_lat":49.342554},"geometry":{"type":"Point","coordinates":[7.261859,49.342554]}},{"type":"Feature","properties":{"SeqNo":"793757","Type":"Q","DHID":"de:10045:51411::514111","Parent":"de:10045:51411","Name":"Blumengarten, Bexbach","MunicipalityCode":"00000000","Municipality":"-","DistrictCode":"-","District":"-","Description":"","Authority":"ZPS","DelfiName":"-","THID":"-","LastOperationDate":"","SEV":"nein","longitude":"7,261938","latitude":"49,342267","geojson_lng":7.261938,"geojson_lat":49.342267},"geometry":{"type":"Point","coordinates":[7.261938,49.342267]}},{"type":"Feature","properties":{"SeqNo":"793758","Type":"Q","DHID":"de:10045:51411::514116","Parent":"de:10045:51411","Name":"Blumengarten, Bexbach","MunicipalityCode":"00000000","Municipality":"-","DistrictCode":"-","District":"-","Description":"","Authority":"ZPS","DelfiName":"-","THID":"-","LastOperationDate":"","SEV":"nein","longitude":"7,261834","latitude":"49,342859","geojson_lng":7.261834,"geojson_lat":49.342859},"geometry":{"type":"Point","coordinates":[7.261834,49.342859]}},{"type":"Feature","properties":{"SeqNo":"793801","Type":"S","DHID":"de:10045:51430","Parent":"de:10045:51430","Name":"Waldorfschule, Bexbach","MunicipalityCode":"10045111","Municipality":"Bexbach","DistrictCode":"-","District":"-","Description":"","Authority":"ZPS","DelfiName":"-","THID":"D9273D00C8E6","LastOperationDate":"2025-02-21T00:00:00","SEV":"nein","longitude":"7,253865","latitude":"49,345132","geojson_lng":7.253865,"geojson_lat":49.345132},"geometry":{"type":"Point","coordinates":[7.253865,49.345132]}},{"type":"Feature","properties":{"SeqNo":"793802","Type":"Q","DHID":"de:10045:51430::514301","Parent":"de:10045:51430","Name":"Waldorfschule, Bexbach","MunicipalityCode":"00000000","Municipality":"-","DistrictCode":"-","District":"-","Description":"","Authority":"ZPS","DelfiName":"-","THID":"-","LastOperationDate":"","SEV":"nein","longitude":"7,253866","latitude":"49,345096","geojson_lng":7.253866,"geojson_lat":49.345096},"geometry":{"type":"Point","coordinates":[7.253866,49.345096]}},{"type":"Feature","properties":{"SeqNo":"793814","Type":"S","DHID":"de:10045:51436","Parent":"de:10045:51436","Name":"Poststr., Bexbach","MunicipalityCode":"10045111","Municipality":"Bexbach","DistrictCode":"-","District":"-","Description":"","Authority":"ZPS","DelfiName":"-","THID":"D9273D00C8EC","LastOperationDate":"2024-12-30T00:00:00","SEV":"nein","longitude":"7,253507","latitude":"49,346305","geojson_lng":7.253507,"geojson_lat":49.346305},"geometry":{"type":"Point","coordinates":[7.253507,49.346305]}},{"type":"Feature","properties":{"SeqNo":"793815","Type":"Q","DHID":"de:10045:51436::514361","Parent":"de:10045:51436","Name":"Poststr., Bexbach","MunicipalityCode":"00000000","Municipality":"-","DistrictCode":"-","District":"-","Description":"","Authority":"ZPS","DelfiName":"-","THID":"-","LastOperationDate":"","SEV":"nein","longitude":"7,253508","latitude":"49,346278","geojson_lng":7.253508,"geojson_lat":49.346278},"geometry":{"type":"Point","coordinates":[7.253508,49.346278]}},{"type":"Feature","properties":{"SeqNo":"795108","Type":"S","DHID":"de:10045:8000941","Parent":"de:10045:8000941","Name":"Bexbach","MunicipalityCode":"10045111","Municipality":"Bexbach","DistrictCode":"","District":"","Description":"","Authority":"ZPS","DelfiName":"-","THID":"D9273D7A15AD","LastOperationDate":"2025-06-14T00:00:00","SEV":"nein","longitude":"7,254092","latitude":"49,345711","geojson_lng":7.254092,"geojson_lat":49.345711},"geometry":{"type":"Point","coordinates":[7.254092,49.345711]}},{"type":"Feature","properties":{"SeqNo":"795109","Type":"A","DHID":"de:10045:8000941:1","Parent":"de:10045:8000941","Name":"Bahnsteig Gleis 1+2","MunicipalityCode":"00000000","Municipality":"-","DistrictCode":"-","District":"-","Description":"","Authority":"ZPS","DelfiName":"-","THID":"-","LastOperationDate":"","SEV":"nein","longitude":"7,25412","latitude":"49,345703","geojson_lng":7.25412,"geojson_lat":49.345703},"geometry":{"type":"Point","coordinates":[7.25412,49.345703]}},{"type":"Feature","properties":{"SeqNo":"795110","Type":"Q","DHID":"de:10045:8000941:1:800094101","Parent":"de:10045:8000941:1","Name":"Gleis 1","MunicipalityCode":"00000000","Municipality":"-","DistrictCode":"-","District":"-","Description":"","Authority":"ZPS","DelfiName":"-","THID":"-","LastOperationDate":"","SEV":"nein","longitude":"7,254106","latitude":"49,34572","geojson_lng":7.254106,"geojson_lat":49.34572},"geometry":{"type":"Point","coordinates":[7.254106,49.34572]}},{"type":"Feature","properties":{"SeqNo":"795111","Type":"Q","DHID":"de:10045:8000941:1:800094102","Parent":"de:10045:8000941:1","Name":"Gleis 2","MunicipalityCode":"00000000","Municipality":"-","DistrictCode":"-","District":"-","Description":"","Authority":"ZPS","DelfiName":"-","THID":"-","LastOperationDate":"","SEV":"nein","longitude":"7,254121","latitude":"49,345685","geojson_lng":7.254121,"geojson_lat":49.345685},"geometry":{"type":"Point","coordinates":[7.254121,49.345685]}}]}