{"type":"FeatureCollection","features":[{"type":"Feature","properties":{"SeqNo":"105516","Type":"S","DHID":"de:09162:1009","Parent":"de:09162:1009","Name":"Corinthstraße","Latitude":"48,112486","Longitude":"11,649622","MunicipalityCode":"09162000","Municipality":"München","DistrictCode":"","District":"","Description":"","Authority":"BEG","DelfiName":"-","THID":"D923CA0003F1","TariffProvider":"-","LastOperationDate":"2025-12-13T00:00:00","SEV":"nein","geojson_lng":11.649622,"geojson_lat":48.112486},"geometry":{"type":"Point","coordinates":[11.649622,48.112486]}},{"type":"Feature","properties":{"SeqNo":"105517","Type":"A","DHID":"de:09162:1009:1","Parent":"de:09162:1009","Name":"Steig 1","Latitude":"48,112258","Longitude":"11,649496","MunicipalityCode":"00000000","Municipality":"-","DistrictCode":"-","District":"-","Description":"","Authority":"BEG","DelfiName":"-","THID":"-","TariffProvider":"-","LastOperationDate":"","SEV":"nein","geojson_lng":11.649496,"geojson_lat":48.112258},"geometry":{"type":"Point","coordinates":[11.649496,48.112258]}},{"type":"Feature","properties":{"SeqNo":"105518","Type":"A","DHID":"de:09162:1009:11","Parent":"de:09162:1009","Name":"Steig 11","Latitude":"48,11251","Longitude":"11,648248","MunicipalityCode":"00000000","Municipality":"-","DistrictCode":"-","District":"-","Description":"","Authority":"BEG","DelfiName":"-","THID":"-","TariffProvider":"-","LastOperationDate":"","SEV":"nein","geojson_lng":11.648248,"geojson_lat":48.11251},"geometry":{"type":"Point","coordinates":[11.648248,48.11251]}},{"type":"Feature","properties":{"SeqNo":"105519","Type":"A","DHID":"de:09162:1009:12","Parent":"de:09162:1009","Name":"Steig 12","Latitude":"48,112228","Longitude":"11,647727","MunicipalityCode":"00000000","Municipality":"-","DistrictCode":"-","District":"-","Description":"","Authority":"BEG","DelfiName":"-","THID":"-","TariffProvider":"-","LastOperationDate":"","SEV":"nein","geojson_lng":11.647727,"geojson_lat":48.112228},"geometry":{"type":"Point","coordinates":[11.647727,48.112228]}},{"type":"Feature","properties":{"SeqNo":"105520","Type":"A","DHID":"de:09162:1009:2","Parent":"de:09162:1009","Name":"Steig 2","Latitude":"48,112702","Longitude":"11,649829","MunicipalityCode":"00000000","Municipality":"-","DistrictCode":"-","District":"-","Description":"","Authority":"BEG","DelfiName":"-","THID":"-","TariffProvider":"-","LastOperationDate":"","SEV":"nein","geojson_lng":11.649829,"geojson_lat":48.112702},"geometry":{"type":"Point","coordinates":[11.649829,48.112702]}},{"type":"Feature","properties":{"SeqNo":"105521","Type":"Q","DHID":"de:09162:1009:1:1","Parent":"de:09162:1009:1","Name":"1","Latitude":"48,112258","Longitude":"11,649496","MunicipalityCode":"00000000","Municipality":"-","DistrictCode":"-","District":"-","Description":"","Authority":"BEG","DelfiName":"-","THID":"-","TariffProvider":"-","LastOperationDate":"","SEV":"nein","geojson_lng":11.649496,"geojson_lat":48.112258},"geometry":{"type":"Point","coordinates":[11.649496,48.112258]}},{"type":"Feature","properties":{"SeqNo":"105522","Type":"Q","DHID":"de:09162:1009:11:11","Parent":"de:09162:1009:11","Name":"11","Latitude":"48,11251","Longitude":"11,648248","MunicipalityCode":"00000000","Municipality":"-","DistrictCode":"-","District":"-","Description":"","Authority":"BEG","DelfiName":"-","THID":"-","TariffProvider":"-","LastOperationDate":"","SEV":"nein","geojson_lng":11.648248,"geojson_lat":48.11251},"geometry":{"type":"Point","coordinates":[11.648248,48.11251]}},{"type":"Feature","properties":{"SeqNo":"105523","Type":"Q","DHID":"de:09162:1009:12:12","Parent":"de:09162:1009:12","Name":"12","Latitude":"48,112228","Longitude":"11,647727","MunicipalityCode":"00000000","Municipality":"-","DistrictCode":"-","District":"-","Description":"","Authority":"BEG","DelfiName":"-","THID":"-","TariffProvider":"-","LastOperationDate":"","SEV":"nein","geojson_lng":11.647727,"geojson_lat":48.112228},"geometry":{"type":"Point","coordinates":[11.647727,48.112228]}},{"type":"Feature","properties":{"SeqNo":"105524","Type":"Q","DHID":"de:09162:1009:2:2","Parent":"de:09162:1009:2","Name":"2","Latitude":"48,112702","Longitude":"11,649829","MunicipalityCode":"00000000","Municipality":"-","DistrictCode":"-","District":"-","Description":"","Authority":"BEG","DelfiName":"-","THID":"-","TariffProvider":"-","LastOperationDate":"","SEV":"nein","geojson_lng":11.649829,"geojson_lat":48.112702},"geometry":{"type":"Point","coordinates":[11.649829,48.112702]}},{"type":"Feature","properties":{"SeqNo":"105581","Type":"S","DHID":"de:09162:1011","Parent":"de:09162:1011","Name":"Karl-Marx-Ring","Latitude":"48,109121","Longitude":"11,649928","MunicipalityCode":"09162000","Municipality":"München","DistrictCode":"","District":"","Description":"","Authority":"BEG","DelfiName":"-","THID":"D923CA0003F3","TariffProvider":"-","LastOperationDate":"2025-12-13T00:00:00","SEV":"nein","geojson_lng":11.649928,"geojson_lat":48.109121},"geometry":{"type":"Point","coordinates":[11.649928,48.109121]}},{"type":"Feature","properties":{"SeqNo":"105582","Type":"A","DHID":"de:09162:1011:1","Parent":"de:09162:1011","Name":"Steig 1","Latitude":"48,109026","Longitude":"11,650386","MunicipalityCode":"00000000","Municipality":"-","DistrictCode":"-","District":"-","Description":"","Authority":"BEG","DelfiName":"-","THID":"-","TariffProvider":"-","LastOperationDate":"","SEV":"nein","geojson_lng":11.650386,"geojson_lat":48.109026},"geometry":{"type":"Point","coordinates":[11.650386,48.109026]}},{"type":"Feature","properties":{"SeqNo":"105583","Type":"A","DHID":"de:09162:1011:2","Parent":"de:09162:1011","Name":"Steig 2","Latitude":"48,109229","Longitude":"11,649389","MunicipalityCode":"00000000","Municipality":"-","DistrictCode":"-","District":"-","Description":"","Authority":"BEG","DelfiName":"-","THID":"-","TariffProvider":"-","LastOperationDate":"","SEV":"nein","geojson_lng":11.649389,"geojson_lat":48.109229},"geometry":{"type":"Point","coordinates":[11.649389,48.109229]}},{"type":"Feature","properties":{"SeqNo":"105584","Type":"Q","DHID":"de:09162:1011:1:1","Parent":"de:09162:1011:1","Name":"1","Latitude":"48,109026","Longitude":"11,650386","MunicipalityCode":"00000000","Municipality":"-","DistrictCode":"-","District":"-","Description":"","Authority":"BEG","DelfiName":"-","THID":"-","TariffProvider":"-","LastOperationDate":"","SEV":"nein","geojson_lng":11.650386,"geojson_lat":48.109026},"geometry":{"type":"Point","coordinates":[11.650386,48.109026]}},{"type":"Feature","properties":{"SeqNo":"105585","Type":"Q","DHID":"de:09162:1011:2:2","Parent":"de:09162:1011:2","Name":"2","Latitude":"48,109229","Longitude":"11,649389","MunicipalityCode":"00000000","Municipality":"-","DistrictCode":"-","District":"-","Description":"","Authority":"BEG","DelfiName":"-","THID":"-","TariffProvider":"-","LastOperationDate":"","SEV":"nein","geojson_lng":11.649389,"geojson_lat":48.109229},"geometry":{"type":"Point","coordinates":[11.649389,48.109229]}},{"type":"Feature","properties":{"SeqNo":"105836","Type":"S","DHID":"de:09162:1040","Parent":"de:09162:1040","Name":"Quiddestraße","Latitude":"48,108222","Longitude":"11,646676","MunicipalityCode":"09162000","Municipality":"München","DistrictCode":"","District":"","Description":"","Authority":"BEG","DelfiName":"-","THID":"D923CA000410","TariffProvider":"-","LastOperationDate":"2025-12-13T00:00:00","SEV":"nein","geojson_lng":11.646676,"geojson_lat":48.108222},"geometry":{"type":"Point","coordinates":[11.646676,48.108222]}},{"type":"Feature","properties":{"SeqNo":"105837","Type":"A","DHID":"de:09162:1040:1","Parent":"de:09162:1040","Name":"Steig 1","Latitude":"48,10845","Longitude":"11,646631","MunicipalityCode":"00000000","Municipality":"-","DistrictCode":"-","District":"-","Description":"","Authority":"BEG","DelfiName":"-","THID":"-","TariffProvider":"-","LastOperationDate":"","SEV":"nein","geojson_lng":11.646631,"geojson_lat":48.10845},"geometry":{"type":"Point","coordinates":[11.646631,48.10845]}},{"type":"Feature","properties":{"SeqNo":"105838","Type":"A","DHID":"de:09162:1040:2","Parent":"de:09162:1040","Name":"Steig 2","Latitude":"48,108696","Longitude":"11,646253","MunicipalityCode":"00000000","Municipality":"-","DistrictCode":"-","District":"-","Description":"","Authority":"BEG","DelfiName":"-","THID":"-","TariffProvider":"-","LastOperationDate":"","SEV":"nein","geojson_lng":11.646253,"geojson_lat":48.108696},"geometry":{"type":"Point","coordinates":[11.646253,48.108696]}},{"type":"Feature","properties":{"SeqNo":"105839","Type":"A","DHID":"de:09162:1040:20","Parent":"de:09162:1040","Name":"B+R Nord","Latitude":"48,108672","Longitude":"11,646613","MunicipalityCode":"00000000","Municipality":"-","DistrictCode":"-","District":"-","Description":"","Authority":"BEG","DelfiName":"-","THID":"-","TariffProvider":"-","LastOperationDate":"","SEV":"nein","geojson_lng":11.646613,"geojson_lat":48.108672},"geometry":{"type":"Point","coordinates":[11.646613,48.108672]}},{"type":"Feature","properties":{"SeqNo":"105840","Type":"A","DHID":"de:09162:1040:21","Parent":"de:09162:1040","Name":"B+R Süd","Latitude":"48,107532","Longitude":"11,646703","MunicipalityCode":"00000000","Municipality":"-","DistrictCode":"-","District":"-","Description":"","Authority":"BEG","DelfiName":"-","THID":"-","TariffProvider":"-","LastOperationDate":"","SEV":"nein","geojson_lng":11.646703,"geojson_lat":48.107532},"geometry":{"type":"Point","coordinates":[11.646703,48.107532]}},{"type":"Feature","properties":{"SeqNo":"105841","Type":"A","DHID":"de:09162:1040:3","Parent":"de:09162:1040","Name":"Steig 3","Latitude":"48,109223","Longitude":"11,646837","MunicipalityCode":"00000000","Municipality":"-","DistrictCode":"-","District":"-","Description":"","Authority":"BEG","DelfiName":"-","THID":"-","TariffProvider":"-","LastOperationDate":"","SEV":"nein","geojson_lng":11.646837,"geojson_lat":48.109223},"geometry":{"type":"Point","coordinates":[11.646837,48.109223]}},{"type":"Feature","properties":{"SeqNo":"105842","Type":"A","DHID":"de:09162:1040:30","Parent":"de:09162:1040","Name":"Steig 70","Latitude":"48,107706","Longitude":"11,646226","MunicipalityCode":"00000000","Municipality":"-","DistrictCode":"-","District":"-","Description":"","Authority":"BEG","DelfiName":"-","THID":"-","TariffProvider":"-","LastOperationDate":"","SEV":"nein","geojson_lng":11.646226,"geojson_lat":48.107706},"geometry":{"type":"Point","coordinates":[11.646226,48.107706]}},{"type":"Feature","properties":{"SeqNo":"105843","Type":"A","DHID":"de:09162:1040:4","Parent":"de:09162:1040","Name":"Steig 4","Latitude":"48,109032","Longitude":"11,646855","MunicipalityCode":"00000000","Municipality":"-","DistrictCode":"-","District":"-","Description":"","Authority":"BEG","DelfiName":"-","THID":"-","TariffProvider":"-","LastOperationDate":"","SEV":"nein","geojson_lng":11.646855,"geojson_lat":48.109032},"geometry":{"type":"Point","coordinates":[11.646855,48.109032]}},{"type":"Feature","properties":{"SeqNo":"105844","Type":"A","DHID":"de:09162:1040:5","Parent":"de:09162:1040","Name":"Steig 5","Latitude":"48,10881","Longitude":"11,646631","MunicipalityCode":"00000000","Municipality":"-","DistrictCode":"-","District":"-","Description":"","Authority":"BEG","DelfiName":"-","THID":"-","TariffProvider":"-","LastOperationDate":"","SEV":"nein","geojson_lng":11.646631,"geojson_lat":48.10881},"geometry":{"type":"Point","coordinates":[11.646631,48.10881]}},{"type":"Feature","properties":{"SeqNo":"105845","Type":"A","DHID":"de:09162:1040:51","Parent":"de:09162:1040","Name":"Steig 51+52","Latitude":"48,108222","Longitude":"11,646676","MunicipalityCode":"00000000","Municipality":"-","DistrictCode":"-","District":"-","Description":"","Authority":"BEG","DelfiName":"-","THID":"-","TariffProvider":"-","LastOperationDate":"","SEV":"nein","geojson_lng":11.646676,"geojson_lat":48.108222},"geometry":{"type":"Point","coordinates":[11.646676,48.108222]}},{"type":"Feature","properties":{"SeqNo":"105846","Type":"A","DHID":"de:09162:1040:62","Parent":"de:09162:1040","Name":"ZU B, Alb-Schweizr T","Latitude":"48,107532","Longitude":"11,646801","MunicipalityCode":"00000000","Municipality":"-","DistrictCode":"-","District":"-","Description":"","Authority":"BEG","DelfiName":"-","THID":"-","TariffProvider":"-","LastOperationDate":"","SEV":"nein","geojson_lng":11.646801,"geojson_lat":48.107532},"geometry":{"type":"Point","coordinates":[11.646801,48.107532]}},{"type":"Feature","properties":{"SeqNo":"105847","Type":"A","DHID":"de:09162:1040:63","Parent":"de:09162:1040","Name":"ZU C, S-Mollier Ramp","Latitude":"48,107394","Longitude":"11,647349","MunicipalityCode":"00000000","Municipality":"-","DistrictCode":"-","District":"-","Description":"","Authority":"BEG","DelfiName":"-","THID":"-","TariffProvider":"-","LastOperationDate":"","SEV":"nein","geojson_lng":11.647349,"geojson_lat":48.107394},"geometry":{"type":"Point","coordinates":[11.647349,48.107394]}},{"type":"Feature","properties":{"SeqNo":"105849","Type":"A","DHID":"de:09162:1040:65","Parent":"de:09162:1040","Name":"ZU E, Plettstr Rampe","Latitude":"48,107394","Longitude":"11,645499","MunicipalityCode":"00000000","Municipality":"-","DistrictCode":"-","District":"-","Description":"","Authority":"BEG","DelfiName":"-","THID":"-","TariffProvider":"-","LastOperationDate":"","SEV":"nein","geojson_lng":11.645499,"geojson_lat":48.107394},"geometry":{"type":"Point","coordinates":[11.645499,48.107394]}},{"type":"Feature","properties":{"SeqNo":"105850","Type":"A","DHID":"de:09162:1040:68","Parent":"de:09162:1040","Name":"ZU A, Quiddestr FT8","Latitude":"48,108906","Longitude":"11,646658","MunicipalityCode":"00000000","Municipality":"-","DistrictCode":"-","District":"-","Description":"","Authority":"BEG","DelfiName":"-","THID":"-","TariffProvider":"-","LastOperationDate":"","SEV":"nein","geojson_lng":11.646658,"geojson_lat":48.108906},"geometry":{"type":"Point","coordinates":[11.646658,48.108906]}},{"type":"Feature","properties":{"SeqNo":"105851","Type":"A","DHID":"de:09162:1040:87","Parent":"de:09162:1040","Name":"Sperre Süd","Latitude":"48,107532","Longitude":"11,646667","MunicipalityCode":"00000000","Municipality":"-","DistrictCode":"-","District":"-","Description":"","Authority":"BEG","DelfiName":"-","THID":"-","TariffProvider":"-","LastOperationDate":"","SEV":"nein","geojson_lng":11.646667,"geojson_lat":48.107532},"geometry":{"type":"Point","coordinates":[11.646667,48.107532]}},{"type":"Feature","properties":{"SeqNo":"105852","Type":"A","DHID":"de:09162:1040:91","Parent":"de:09162:1040","Name":"Lift 1 Oberfläche","Latitude":"48,108456","Longitude":"11,646658","MunicipalityCode":"00000000","Municipality":"-","DistrictCode":"-","District":"-","Description":"","Authority":"BEG","DelfiName":"-","THID":"-","TariffProvider":"-","LastOperationDate":"","SEV":"nein","geojson_lng":11.646658,"geojson_lat":48.108456},"geometry":{"type":"Point","coordinates":[11.646658,48.108456]}},{"type":"Feature","properties":{"SeqNo":"105853","Type":"A","DHID":"de:09162:1040:99","Parent":"de:09162:1040","Name":"Ohne Koordinaten","Latitude":"48,108222","Longitude":"11,646676","MunicipalityCode":"00000000","Municipality":"-","DistrictCode":"-","District":"-","Description":"","Authority":"BEG","DelfiName":"-","THID":"-","TariffProvider":"-","LastOperationDate":"","SEV":"nein","geojson_lng":11.646676,"geojson_lat":48.108222},"geometry":{"type":"Point","coordinates":[11.646676,48.108222]}},{"type":"Feature","properties":{"SeqNo":"105854","Type":"Q","DHID":"de:09162:1040:1:1","Parent":"de:09162:1040:1","Name":"1","Latitude":"48,108582","Longitude":"11,646577","MunicipalityCode":"00000000","Municipality":"-","DistrictCode":"-","District":"-","Description":"","Authority":"BEG","DelfiName":"-","THID":"-","TariffProvider":"-","LastOperationDate":"","SEV":"nein","geojson_lng":11.646577,"geojson_lat":48.108582},"geometry":{"type":"Point","coordinates":[11.646577,48.108582]}},{"type":"Feature","properties":{"SeqNo":"105855","Type":"Q","DHID":"de:09162:1040:2:2","Parent":"de:09162:1040:2","Name":"2","Latitude":"48,108546","Longitude":"11,646307","MunicipalityCode":"00000000","Municipality":"-","DistrictCode":"-","District":"-","Description":"","Authority":"BEG","DelfiName":"-","THID":"-","TariffProvider":"-","LastOperationDate":"","SEV":"nein","geojson_lng":11.646307,"geojson_lat":48.108546},"geometry":{"type":"Point","coordinates":[11.646307,48.108546]}},{"type":"Feature","properties":{"SeqNo":"105856","Type":"Q","DHID":"de:09162:1040:3:3","Parent":"de:09162:1040:3","Name":"3","Latitude":"48,109223","Longitude":"11,646864","MunicipalityCode":"00000000","Municipality":"-","DistrictCode":"-","District":"-","Description":"","Authority":"BEG","DelfiName":"-","THID":"-","TariffProvider":"-","LastOperationDate":"","SEV":"nein","geojson_lng":11.646864,"geojson_lat":48.109223},"geometry":{"type":"Point","coordinates":[11.646864,48.109223]}},{"type":"Feature","properties":{"SeqNo":"105857","Type":"Q","DHID":"de:09162:1040:30:70","Parent":"de:09162:1040:30","Name":"70","Latitude":"48,107706","Longitude":"11,646226","MunicipalityCode":"00000000","Municipality":"-","DistrictCode":"-","District":"-","Description":"","Authority":"BEG","DelfiName":"-","THID":"-","TariffProvider":"-","LastOperationDate":"","SEV":"nein","geojson_lng":11.646226,"geojson_lat":48.107706},"geometry":{"type":"Point","coordinates":[11.646226,48.107706]}},{"type":"Feature","properties":{"SeqNo":"105858","Type":"Q","DHID":"de:09162:1040:4:4","Parent":"de:09162:1040:4","Name":"4","Latitude":"48,10908","Longitude":"11,646972","MunicipalityCode":"00000000","Municipality":"-","DistrictCode":"-","District":"-","Description":"","Authority":"BEG","DelfiName":"-","THID":"-","TariffProvider":"-","LastOperationDate":"","SEV":"nein","geojson_lng":11.646972,"geojson_lat":48.10908},"geometry":{"type":"Point","coordinates":[11.646972,48.10908]}},{"type":"Feature","properties":{"SeqNo":"105859","Type":"Q","DHID":"de:09162:1040:5:5","Parent":"de:09162:1040:5","Name":"5","Latitude":"48,10881","Longitude":"11,646604","MunicipalityCode":"00000000","Municipality":"-","DistrictCode":"-","District":"-","Description":"","Authority":"BEG","DelfiName":"-","THID":"-","TariffProvider":"-","LastOperationDate":"","SEV":"nein","geojson_lng":11.646604,"geojson_lat":48.10881},"geometry":{"type":"Point","coordinates":[11.646604,48.10881]}},{"type":"Feature","properties":{"SeqNo":"105860","Type":"Q","DHID":"de:09162:1040:51:51","Parent":"de:09162:1040:51","Name":"Gleis 1","Latitude":"48,108222","Longitude":"11,646712","MunicipalityCode":"00000000","Municipality":"-","DistrictCode":"-","District":"-","Description":"","Authority":"BEG","DelfiName":"-","THID":"-","TariffProvider":"-","LastOperationDate":"","SEV":"nein","geojson_lng":11.646712,"geojson_lat":48.108222},"geometry":{"type":"Point","coordinates":[11.646712,48.108222]}},{"type":"Feature","properties":{"SeqNo":"105861","Type":"Q","DHID":"de:09162:1040:51:52","Parent":"de:09162:1040:51","Name":"Gleis 2","Latitude":"48,108222","Longitude":"11,646622","MunicipalityCode":"00000000","Municipality":"-","DistrictCode":"-","District":"-","Description":"","Authority":"BEG","DelfiName":"-","THID":"-","TariffProvider":"-","LastOperationDate":"","SEV":"nein","geojson_lng":11.646622,"geojson_lat":48.108222},"geometry":{"type":"Point","coordinates":[11.646622,48.108222]}},{"type":"Feature","properties":{"SeqNo":"105862","Type":"Q","DHID":"de:09162:1040:99:6","Parent":"de:09162:1040:99","Name":"6","Latitude":"48,108222","Longitude":"11,646676","MunicipalityCode":"00000000","Municipality":"-","DistrictCode":"-","District":"-","Description":"","Authority":"BEG","DelfiName":"-","THID":"-","TariffProvider":"-","LastOperationDate":"","SEV":"nein","geojson_lng":11.646676,"geojson_lat":48.108222},"geometry":{"type":"Point","coordinates":[11.646676,48.108222]}},{"type":"Feature","properties":{"SeqNo":"116002","Type":"S","DHID":"de:09162:913","Parent":"de:09162:913","Name":"Matterhornstraße","Latitude":"48,11467","Longitude":"11,652299","MunicipalityCode":"09162000","Municipality":"München","DistrictCode":"","District":"","Description":"","Authority":"BEG","DelfiName":"-","THID":"D923CA000391","TariffProvider":"-","LastOperationDate":"2025-12-13T00:00:00","SEV":"nein","geojson_lng":11.652299,"geojson_lat":48.11467},"geometry":{"type":"Point","coordinates":[11.652299,48.11467]}},{"type":"Feature","properties":{"SeqNo":"116003","Type":"A","DHID":"de:09162:913:1","Parent":"de:09162:913","Name":"Steig 1","Latitude":"48,114807","Longitude":"11,65256","MunicipalityCode":"00000000","Municipality":"-","DistrictCode":"-","District":"-","Description":"","Authority":"BEG","DelfiName":"-","THID":"-","TariffProvider":"-","LastOperationDate":"","SEV":"nein","geojson_lng":11.65256,"geojson_lat":48.114807},"geometry":{"type":"Point","coordinates":[11.65256,48.114807]}},{"type":"Feature","properties":{"SeqNo":"116004","Type":"A","DHID":"de:09162:913:2","Parent":"de:09162:913","Name":"Steig 2","Latitude":"48,114514","Longitude":"11,652003","MunicipalityCode":"00000000","Municipality":"-","DistrictCode":"-","District":"-","Description":"","Authority":"BEG","DelfiName":"-","THID":"-","TariffProvider":"-","LastOperationDate":"","SEV":"nein","geojson_lng":11.652003,"geojson_lat":48.114514},"geometry":{"type":"Point","coordinates":[11.652003,48.114514]}},{"type":"Feature","properties":{"SeqNo":"116005","Type":"Q","DHID":"de:09162:913:1:1","Parent":"de:09162:913:1","Name":"1","Latitude":"48,114807","Longitude":"11,65256","MunicipalityCode":"00000000","Municipality":"-","DistrictCode":"-","District":"-","Description":"","Authority":"BEG","DelfiName":"-","THID":"-","TariffProvider":"-","LastOperationDate":"","SEV":"nein","geojson_lng":11.65256,"geojson_lat":48.114807},"geometry":{"type":"Point","coordinates":[11.65256,48.114807]}},{"type":"Feature","properties":{"SeqNo":"116006","Type":"Q","DHID":"de:09162:913:2:2","Parent":"de:09162:913:2","Name":"2","Latitude":"48,114514","Longitude":"11,652003","MunicipalityCode":"00000000","Municipality":"-","DistrictCode":"-","District":"-","Description":"","Authority":"BEG","DelfiName":"-","THID":"-","TariffProvider":"-","LastOperationDate":"","SEV":"nein","geojson_lng":11.652003,"geojson_lat":48.114514},"geometry":{"type":"Point","coordinates":[11.652003,48.114514]}},{"type":"Feature","properties":{"SeqNo":"116007","Type":"S","DHID":"de:09162:914","Parent":"de:09162:914","Name":"Peschelanger","Latitude":"48,109121","Longitude":"11,654734","MunicipalityCode":"09162000","Municipality":"München","DistrictCode":"","District":"","Description":"","Authority":"BEG","DelfiName":"-","THID":"D923CA000392","TariffProvider":"-","LastOperationDate":"2025-12-13T00:00:00","SEV":"nein","geojson_lng":11.654734,"geojson_lat":48.109121},"geometry":{"type":"Point","coordinates":[11.654734,48.109121]}},{"type":"Feature","properties":{"SeqNo":"116008","Type":"A","DHID":"de:09162:914:1","Parent":"de:09162:914","Name":"Steig 1","Latitude":"48,109217","Longitude":"11,654536","MunicipalityCode":"00000000","Municipality":"-","DistrictCode":"-","District":"-","Description":"","Authority":"BEG","DelfiName":"-","THID":"-","TariffProvider":"-","LastOperationDate":"","SEV":"nein","geojson_lng":11.654536,"geojson_lat":48.109217},"geometry":{"type":"Point","coordinates":[11.654536,48.109217]}},{"type":"Feature","properties":{"SeqNo":"116009","Type":"A","DHID":"de:09162:914:2","Parent":"de:09162:914","Name":"Steig 2","Latitude":"48,10902","Longitude":"11,654949","MunicipalityCode":"00000000","Municipality":"-","DistrictCode":"-","District":"-","Description":"","Authority":"BEG","DelfiName":"-","THID":"-","TariffProvider":"-","LastOperationDate":"","SEV":"nein","geojson_lng":11.654949,"geojson_lat":48.10902},"geometry":{"type":"Point","coordinates":[11.654949,48.10902]}},{"type":"Feature","properties":{"SeqNo":"116010","Type":"A","DHID":"de:09162:914:3","Parent":"de:09162:914","Name":"Steig 3","Latitude":"48,109217","Longitude":"11,654868","MunicipalityCode":"00000000","Municipality":"-","DistrictCode":"-","District":"-","Description":"","Authority":"BEG","DelfiName":"-","THID":"-","TariffProvider":"-","LastOperationDate":"","SEV":"nein","geojson_lng":11.654868,"geojson_lat":48.109217},"geometry":{"type":"Point","coordinates":[11.654868,48.109217]}},{"type":"Feature","properties":{"SeqNo":"116011","Type":"A","DHID":"de:09162:914:4","Parent":"de:09162:914","Name":"Steig 4","Latitude":"48,109014","Longitude":"11,654204","MunicipalityCode":"00000000","Municipality":"-","DistrictCode":"-","District":"-","Description":"","Authority":"BEG","DelfiName":"-","THID":"-","TariffProvider":"-","LastOperationDate":"","SEV":"nein","geojson_lng":11.654204,"geojson_lat":48.109014},"geometry":{"type":"Point","coordinates":[11.654204,48.109014]}},{"type":"Feature","properties":{"SeqNo":"116012","Type":"Q","DHID":"de:09162:914:1:1","Parent":"de:09162:914:1","Name":"1","Latitude":"48,109217","Longitude":"11,654536","MunicipalityCode":"00000000","Municipality":"-","DistrictCode":"-","District":"-","Description":"","Authority":"BEG","DelfiName":"-","THID":"-","TariffProvider":"-","LastOperationDate":"","SEV":"nein","geojson_lng":11.654536,"geojson_lat":48.109217},"geometry":{"type":"Point","coordinates":[11.654536,48.109217]}},{"type":"Feature","properties":{"SeqNo":"116013","Type":"Q","DHID":"de:09162:914:2:2","Parent":"de:09162:914:2","Name":"2","Latitude":"48,10902","Longitude":"11,654949","MunicipalityCode":"00000000","Municipality":"-","DistrictCode":"-","District":"-","Description":"","Authority":"BEG","DelfiName":"-","THID":"-","TariffProvider":"-","LastOperationDate":"","SEV":"nein","geojson_lng":11.654949,"geojson_lat":48.10902},"geometry":{"type":"Point","coordinates":[11.654949,48.10902]}},{"type":"Feature","properties":{"SeqNo":"116014","Type":"Q","DHID":"de:09162:914:3:3","Parent":"de:09162:914:3","Name":"3","Latitude":"48,109217","Longitude":"11,654868","MunicipalityCode":"00000000","Municipality":"-","DistrictCode":"-","District":"-","Description":"","Authority":"BEG","DelfiName":"-","THID":"-","TariffProvider":"-","LastOperationDate":"","SEV":"nein","geojson_lng":11.654868,"geojson_lat":48.109217},"geometry":{"type":"Point","coordinates":[11.654868,48.109217]}},{"type":"Feature","properties":{"SeqNo":"116015","Type":"Q","DHID":"de:09162:914:4:4","Parent":"de:09162:914:4","Name":"4","Latitude":"48,109014","Longitude":"11,654204","MunicipalityCode":"00000000","Municipality":"-","DistrictCode":"-","District":"-","Description":"","Authority":"BEG","DelfiName":"-","THID":"-","TariffProvider":"-","LastOperationDate":"","SEV":"nein","geojson_lng":11.654204,"geojson_lat":48.109014},"geometry":{"type":"Point","coordinates":[11.654204,48.109014]}},{"type":"Feature","properties":{"SeqNo":"116649","Type":"S","DHID":"de:09162:989","Parent":"de:09162:989","Name":"Bergerwaldstraße","Latitude":"48,111095","Longitude":"11,656512","MunicipalityCode":"09162000","Municipality":"München","DistrictCode":"","District":"","Description":"","Authority":"BEG","DelfiName":"-","THID":"D923CA0003DD","TariffProvider":"-","LastOperationDate":"2025-12-13T00:00:00","SEV":"nein","geojson_lng":11.656512,"geojson_lat":48.111095},"geometry":{"type":"Point","coordinates":[11.656512,48.111095]}},{"type":"Feature","properties":{"SeqNo":"116650","Type":"A","DHID":"de:09162:989:3","Parent":"de:09162:989","Name":"BGW Bus","Latitude":"48,111095","Longitude":"11,656512","MunicipalityCode":"00000000","Municipality":"-","DistrictCode":"-","District":"-","Description":"","Authority":"BEG","DelfiName":"-","THID":"-","TariffProvider":"-","LastOperationDate":"","SEV":"nein","geojson_lng":11.656512,"geojson_lat":48.111095},"geometry":{"type":"Point","coordinates":[11.656512,48.111095]}},{"type":"Feature","properties":{"SeqNo":"116651","Type":"Q","DHID":"de:09162:989:3:BGW 1","Parent":"de:09162:989:3","Name":"1","Latitude":"48,111023","Longitude":"11,656647","MunicipalityCode":"00000000","Municipality":"-","DistrictCode":"-","District":"-","Description":"","Authority":"BEG","DelfiName":"-","THID":"-","TariffProvider":"-","LastOperationDate":"","SEV":"nein","geojson_lng":11.656647,"geojson_lat":48.111023},"geometry":{"type":"Point","coordinates":[11.656647,48.111023]}},{"type":"Feature","properties":{"SeqNo":"116652","Type":"Q","DHID":"de:09162:989:3:BGW 2","Parent":"de:09162:989:3","Name":"2","Latitude":"48,111173","Longitude":"11,656413","MunicipalityCode":"00000000","Municipality":"-","DistrictCode":"-","District":"-","Description":"","Authority":"BEG","DelfiName":"-","THID":"-","TariffProvider":"-","LastOperationDate":"","SEV":"nein","geojson_lng":11.656413,"geojson_lat":48.111173},"geometry":{"type":"Point","coordinates":[11.656413,48.111173]}}]}