{"type":"FeatureCollection","features":[{"type":"Feature","properties":{"SeqNo":"99512","Type":"S","DHID":"de:09162:1009","Parent":"de:09162:1009","Name":"Corinthstraße","MunicipalityCode":"09162000","Municipality":"München","DistrictCode":"","District":"","Description":"","Authority":"BEG","DelfiName":"-","THID":"D923CA0003F1","LastOperationDate":"2025-06-14T00:00:00","SEV":"nein","longitude":"11,649622","latitude":"48,112486","geojson_lng":11.649622,"geojson_lat":48.112486},"geometry":{"type":"Point","coordinates":[11.649622,48.112486]}},{"type":"Feature","properties":{"SeqNo":"99513","Type":"A","DHID":"de:09162:1009:1","Parent":"de:09162:1009","Name":"Steig 1","MunicipalityCode":"00000000","Municipality":"-","DistrictCode":"-","District":"-","Description":"","Authority":"BEG","DelfiName":"-","THID":"-","LastOperationDate":"","SEV":"nein","longitude":"11,649496","latitude":"48,112258","geojson_lng":11.649496,"geojson_lat":48.112258},"geometry":{"type":"Point","coordinates":[11.649496,48.112258]}},{"type":"Feature","properties":{"SeqNo":"99514","Type":"A","DHID":"de:09162:1009:11","Parent":"de:09162:1009","Name":"Steig 11","MunicipalityCode":"00000000","Municipality":"-","DistrictCode":"-","District":"-","Description":"","Authority":"BEG","DelfiName":"-","THID":"-","LastOperationDate":"","SEV":"nein","longitude":"11,648248","latitude":"48,11251","geojson_lng":11.648248,"geojson_lat":48.11251},"geometry":{"type":"Point","coordinates":[11.648248,48.11251]}},{"type":"Feature","properties":{"SeqNo":"99515","Type":"A","DHID":"de:09162:1009:12","Parent":"de:09162:1009","Name":"Steig 12","MunicipalityCode":"00000000","Municipality":"-","DistrictCode":"-","District":"-","Description":"","Authority":"BEG","DelfiName":"-","THID":"-","LastOperationDate":"","SEV":"nein","longitude":"11,647727","latitude":"48,112228","geojson_lng":11.647727,"geojson_lat":48.112228},"geometry":{"type":"Point","coordinates":[11.647727,48.112228]}},{"type":"Feature","properties":{"SeqNo":"99516","Type":"A","DHID":"de:09162:1009:2","Parent":"de:09162:1009","Name":"Steig 2","MunicipalityCode":"00000000","Municipality":"-","DistrictCode":"-","District":"-","Description":"","Authority":"BEG","DelfiName":"-","THID":"-","LastOperationDate":"","SEV":"nein","longitude":"11,649829","latitude":"48,112702","geojson_lng":11.649829,"geojson_lat":48.112702},"geometry":{"type":"Point","coordinates":[11.649829,48.112702]}},{"type":"Feature","properties":{"SeqNo":"99517","Type":"Q","DHID":"de:09162:1009:1:1","Parent":"de:09162:1009:1","Name":"1","MunicipalityCode":"00000000","Municipality":"-","DistrictCode":"-","District":"-","Description":"","Authority":"BEG","DelfiName":"-","THID":"-","LastOperationDate":"","SEV":"nein","longitude":"11,649496","latitude":"48,112258","geojson_lng":11.649496,"geojson_lat":48.112258},"geometry":{"type":"Point","coordinates":[11.649496,48.112258]}},{"type":"Feature","properties":{"SeqNo":"99518","Type":"Q","DHID":"de:09162:1009:11:11","Parent":"de:09162:1009:11","Name":"11","MunicipalityCode":"00000000","Municipality":"-","DistrictCode":"-","District":"-","Description":"","Authority":"BEG","DelfiName":"-","THID":"-","LastOperationDate":"","SEV":"nein","longitude":"11,648248","latitude":"48,11251","geojson_lng":11.648248,"geojson_lat":48.11251},"geometry":{"type":"Point","coordinates":[11.648248,48.11251]}},{"type":"Feature","properties":{"SeqNo":"99519","Type":"Q","DHID":"de:09162:1009:12:12","Parent":"de:09162:1009:12","Name":"12","MunicipalityCode":"00000000","Municipality":"-","DistrictCode":"-","District":"-","Description":"","Authority":"BEG","DelfiName":"-","THID":"-","LastOperationDate":"","SEV":"nein","longitude":"11,647727","latitude":"48,112228","geojson_lng":11.647727,"geojson_lat":48.112228},"geometry":{"type":"Point","coordinates":[11.647727,48.112228]}},{"type":"Feature","properties":{"SeqNo":"99520","Type":"Q","DHID":"de:09162:1009:2:2","Parent":"de:09162:1009:2","Name":"2","MunicipalityCode":"00000000","Municipality":"-","DistrictCode":"-","District":"-","Description":"","Authority":"BEG","DelfiName":"-","THID":"-","LastOperationDate":"","SEV":"nein","longitude":"11,649829","latitude":"48,112702","geojson_lng":11.649829,"geojson_lat":48.112702},"geometry":{"type":"Point","coordinates":[11.649829,48.112702]}},{"type":"Feature","properties":{"SeqNo":"99577","Type":"S","DHID":"de:09162:1011","Parent":"de:09162:1011","Name":"Karl-Marx-Ring","MunicipalityCode":"09162000","Municipality":"München","DistrictCode":"","District":"","Description":"","Authority":"BEG","DelfiName":"-","THID":"D923CA0003F3","LastOperationDate":"2025-06-14T00:00:00","SEV":"nein","longitude":"11,649928","latitude":"48,109121","geojson_lng":11.649928,"geojson_lat":48.109121},"geometry":{"type":"Point","coordinates":[11.649928,48.109121]}},{"type":"Feature","properties":{"SeqNo":"99578","Type":"A","DHID":"de:09162:1011:1","Parent":"de:09162:1011","Name":"Steig 1","MunicipalityCode":"00000000","Municipality":"-","DistrictCode":"-","District":"-","Description":"","Authority":"BEG","DelfiName":"-","THID":"-","LastOperationDate":"","SEV":"nein","longitude":"11,650386","latitude":"48,109026","geojson_lng":11.650386,"geojson_lat":48.109026},"geometry":{"type":"Point","coordinates":[11.650386,48.109026]}},{"type":"Feature","properties":{"SeqNo":"99579","Type":"A","DHID":"de:09162:1011:2","Parent":"de:09162:1011","Name":"Steig 2","MunicipalityCode":"00000000","Municipality":"-","DistrictCode":"-","District":"-","Description":"","Authority":"BEG","DelfiName":"-","THID":"-","LastOperationDate":"","SEV":"nein","longitude":"11,649389","latitude":"48,109229","geojson_lng":11.649389,"geojson_lat":48.109229},"geometry":{"type":"Point","coordinates":[11.649389,48.109229]}},{"type":"Feature","properties":{"SeqNo":"99580","Type":"Q","DHID":"de:09162:1011:1:1","Parent":"de:09162:1011:1","Name":"1","MunicipalityCode":"00000000","Municipality":"-","DistrictCode":"-","District":"-","Description":"","Authority":"BEG","DelfiName":"-","THID":"-","LastOperationDate":"","SEV":"nein","longitude":"11,650386","latitude":"48,109026","geojson_lng":11.650386,"geojson_lat":48.109026},"geometry":{"type":"Point","coordinates":[11.650386,48.109026]}},{"type":"Feature","properties":{"SeqNo":"99581","Type":"Q","DHID":"de:09162:1011:2:2","Parent":"de:09162:1011:2","Name":"2","MunicipalityCode":"00000000","Municipality":"-","DistrictCode":"-","District":"-","Description":"","Authority":"BEG","DelfiName":"-","THID":"-","LastOperationDate":"","SEV":"nein","longitude":"11,649389","latitude":"48,109229","geojson_lng":11.649389,"geojson_lat":48.109229},"geometry":{"type":"Point","coordinates":[11.649389,48.109229]}},{"type":"Feature","properties":{"SeqNo":"99828","Type":"S","DHID":"de:09162:1040","Parent":"de:09162:1040","Name":"Quiddestraße","MunicipalityCode":"09162000","Municipality":"München","DistrictCode":"","District":"","Description":"","Authority":"BEG","DelfiName":"-","THID":"D923CA000410","LastOperationDate":"2025-06-14T00:00:00","SEV":"nein","longitude":"11,646676","latitude":"48,108222","geojson_lng":11.646676,"geojson_lat":48.108222},"geometry":{"type":"Point","coordinates":[11.646676,48.108222]}},{"type":"Feature","properties":{"SeqNo":"99829","Type":"A","DHID":"de:09162:1040:1","Parent":"de:09162:1040","Name":"Steig 1","MunicipalityCode":"00000000","Municipality":"-","DistrictCode":"-","District":"-","Description":"","Authority":"BEG","DelfiName":"-","THID":"-","LastOperationDate":"","SEV":"nein","longitude":"11,646631","latitude":"48,10845","geojson_lng":11.646631,"geojson_lat":48.10845},"geometry":{"type":"Point","coordinates":[11.646631,48.10845]}},{"type":"Feature","properties":{"SeqNo":"99830","Type":"A","DHID":"de:09162:1040:2","Parent":"de:09162:1040","Name":"Steig 2","MunicipalityCode":"00000000","Municipality":"-","DistrictCode":"-","District":"-","Description":"","Authority":"BEG","DelfiName":"-","THID":"-","LastOperationDate":"","SEV":"nein","longitude":"11,646253","latitude":"48,108696","geojson_lng":11.646253,"geojson_lat":48.108696},"geometry":{"type":"Point","coordinates":[11.646253,48.108696]}},{"type":"Feature","properties":{"SeqNo":"99831","Type":"A","DHID":"de:09162:1040:20","Parent":"de:09162:1040","Name":"B+R Nord","MunicipalityCode":"00000000","Municipality":"-","DistrictCode":"-","District":"-","Description":"","Authority":"BEG","DelfiName":"-","THID":"-","LastOperationDate":"","SEV":"nein","longitude":"11,646613","latitude":"48,108672","geojson_lng":11.646613,"geojson_lat":48.108672},"geometry":{"type":"Point","coordinates":[11.646613,48.108672]}},{"type":"Feature","properties":{"SeqNo":"99832","Type":"A","DHID":"de:09162:1040:21","Parent":"de:09162:1040","Name":"B+R Süd","MunicipalityCode":"00000000","Municipality":"-","DistrictCode":"-","District":"-","Description":"","Authority":"BEG","DelfiName":"-","THID":"-","LastOperationDate":"","SEV":"nein","longitude":"11,646703","latitude":"48,107532","geojson_lng":11.646703,"geojson_lat":48.107532},"geometry":{"type":"Point","coordinates":[11.646703,48.107532]}},{"type":"Feature","properties":{"SeqNo":"99833","Type":"A","DHID":"de:09162:1040:3","Parent":"de:09162:1040","Name":"Steig 3","MunicipalityCode":"00000000","Municipality":"-","DistrictCode":"-","District":"-","Description":"","Authority":"BEG","DelfiName":"-","THID":"-","LastOperationDate":"","SEV":"nein","longitude":"11,646837","latitude":"48,109223","geojson_lng":11.646837,"geojson_lat":48.109223},"geometry":{"type":"Point","coordinates":[11.646837,48.109223]}},{"type":"Feature","properties":{"SeqNo":"99834","Type":"A","DHID":"de:09162:1040:30","Parent":"de:09162:1040","Name":"Steig 70","MunicipalityCode":"00000000","Municipality":"-","DistrictCode":"-","District":"-","Description":"","Authority":"BEG","DelfiName":"-","THID":"-","LastOperationDate":"","SEV":"nein","longitude":"11,646226","latitude":"48,107706","geojson_lng":11.646226,"geojson_lat":48.107706},"geometry":{"type":"Point","coordinates":[11.646226,48.107706]}},{"type":"Feature","properties":{"SeqNo":"99835","Type":"A","DHID":"de:09162:1040:4","Parent":"de:09162:1040","Name":"Steig 4","MunicipalityCode":"00000000","Municipality":"-","DistrictCode":"-","District":"-","Description":"","Authority":"BEG","DelfiName":"-","THID":"-","LastOperationDate":"","SEV":"nein","longitude":"11,646855","latitude":"48,109032","geojson_lng":11.646855,"geojson_lat":48.109032},"geometry":{"type":"Point","coordinates":[11.646855,48.109032]}},{"type":"Feature","properties":{"SeqNo":"99836","Type":"A","DHID":"de:09162:1040:5","Parent":"de:09162:1040","Name":"Steig 5","MunicipalityCode":"00000000","Municipality":"-","DistrictCode":"-","District":"-","Description":"","Authority":"BEG","DelfiName":"-","THID":"-","LastOperationDate":"","SEV":"nein","longitude":"11,646631","latitude":"48,10881","geojson_lng":11.646631,"geojson_lat":48.10881},"geometry":{"type":"Point","coordinates":[11.646631,48.10881]}},{"type":"Feature","properties":{"SeqNo":"99837","Type":"A","DHID":"de:09162:1040:51","Parent":"de:09162:1040","Name":"Steig 51+52","MunicipalityCode":"00000000","Municipality":"-","DistrictCode":"-","District":"-","Description":"","Authority":"BEG","DelfiName":"-","THID":"-","LastOperationDate":"","SEV":"nein","longitude":"11,646676","latitude":"48,108222","geojson_lng":11.646676,"geojson_lat":48.108222},"geometry":{"type":"Point","coordinates":[11.646676,48.108222]}},{"type":"Feature","properties":{"SeqNo":"99838","Type":"A","DHID":"de:09162:1040:62","Parent":"de:09162:1040","Name":"ZU B, Alb-Schweizr T","MunicipalityCode":"00000000","Municipality":"-","DistrictCode":"-","District":"-","Description":"","Authority":"BEG","DelfiName":"-","THID":"-","LastOperationDate":"","SEV":"nein","longitude":"11,646801","latitude":"48,107532","geojson_lng":11.646801,"geojson_lat":48.107532},"geometry":{"type":"Point","coordinates":[11.646801,48.107532]}},{"type":"Feature","properties":{"SeqNo":"99839","Type":"A","DHID":"de:09162:1040:63","Parent":"de:09162:1040","Name":"ZU C, S-Mollier Ramp","MunicipalityCode":"00000000","Municipality":"-","DistrictCode":"-","District":"-","Description":"","Authority":"BEG","DelfiName":"-","THID":"-","LastOperationDate":"","SEV":"nein","longitude":"11,647349","latitude":"48,107394","geojson_lng":11.647349,"geojson_lat":48.107394},"geometry":{"type":"Point","coordinates":[11.647349,48.107394]}},{"type":"Feature","properties":{"SeqNo":"99841","Type":"A","DHID":"de:09162:1040:65","Parent":"de:09162:1040","Name":"ZU E, Plettstr Rampe","MunicipalityCode":"00000000","Municipality":"-","DistrictCode":"-","District":"-","Description":"","Authority":"BEG","DelfiName":"-","THID":"-","LastOperationDate":"","SEV":"nein","longitude":"11,645499","latitude":"48,107394","geojson_lng":11.645499,"geojson_lat":48.107394},"geometry":{"type":"Point","coordinates":[11.645499,48.107394]}},{"type":"Feature","properties":{"SeqNo":"99842","Type":"A","DHID":"de:09162:1040:68","Parent":"de:09162:1040","Name":"ZU A, Quiddestr FT8","MunicipalityCode":"00000000","Municipality":"-","DistrictCode":"-","District":"-","Description":"","Authority":"BEG","DelfiName":"-","THID":"-","LastOperationDate":"","SEV":"nein","longitude":"11,646658","latitude":"48,108906","geojson_lng":11.646658,"geojson_lat":48.108906},"geometry":{"type":"Point","coordinates":[11.646658,48.108906]}},{"type":"Feature","properties":{"SeqNo":"99843","Type":"A","DHID":"de:09162:1040:87","Parent":"de:09162:1040","Name":"Sperre Süd","MunicipalityCode":"00000000","Municipality":"-","DistrictCode":"-","District":"-","Description":"","Authority":"BEG","DelfiName":"-","THID":"-","LastOperationDate":"","SEV":"nein","longitude":"11,646667","latitude":"48,107532","geojson_lng":11.646667,"geojson_lat":48.107532},"geometry":{"type":"Point","coordinates":[11.646667,48.107532]}},{"type":"Feature","properties":{"SeqNo":"99844","Type":"A","DHID":"de:09162:1040:91","Parent":"de:09162:1040","Name":"Lift 1 Oberfläche","MunicipalityCode":"00000000","Municipality":"-","DistrictCode":"-","District":"-","Description":"","Authority":"BEG","DelfiName":"-","THID":"-","LastOperationDate":"","SEV":"nein","longitude":"11,646658","latitude":"48,108456","geojson_lng":11.646658,"geojson_lat":48.108456},"geometry":{"type":"Point","coordinates":[11.646658,48.108456]}},{"type":"Feature","properties":{"SeqNo":"99845","Type":"A","DHID":"de:09162:1040:99","Parent":"de:09162:1040","Name":"Ohne Koordinaten","MunicipalityCode":"00000000","Municipality":"-","DistrictCode":"-","District":"-","Description":"","Authority":"BEG","DelfiName":"-","THID":"-","LastOperationDate":"","SEV":"nein","longitude":"11,646676","latitude":"48,108222","geojson_lng":11.646676,"geojson_lat":48.108222},"geometry":{"type":"Point","coordinates":[11.646676,48.108222]}},{"type":"Feature","properties":{"SeqNo":"99846","Type":"Q","DHID":"de:09162:1040:1:1","Parent":"de:09162:1040:1","Name":"1","MunicipalityCode":"00000000","Municipality":"-","DistrictCode":"-","District":"-","Description":"","Authority":"BEG","DelfiName":"-","THID":"-","LastOperationDate":"","SEV":"nein","longitude":"11,646577","latitude":"48,108582","geojson_lng":11.646577,"geojson_lat":48.108582},"geometry":{"type":"Point","coordinates":[11.646577,48.108582]}},{"type":"Feature","properties":{"SeqNo":"99847","Type":"Q","DHID":"de:09162:1040:2:2","Parent":"de:09162:1040:2","Name":"2","MunicipalityCode":"00000000","Municipality":"-","DistrictCode":"-","District":"-","Description":"","Authority":"BEG","DelfiName":"-","THID":"-","LastOperationDate":"","SEV":"nein","longitude":"11,646307","latitude":"48,108546","geojson_lng":11.646307,"geojson_lat":48.108546},"geometry":{"type":"Point","coordinates":[11.646307,48.108546]}},{"type":"Feature","properties":{"SeqNo":"99848","Type":"Q","DHID":"de:09162:1040:3:3","Parent":"de:09162:1040:3","Name":"3","MunicipalityCode":"00000000","Municipality":"-","DistrictCode":"-","District":"-","Description":"","Authority":"BEG","DelfiName":"-","THID":"-","LastOperationDate":"","SEV":"nein","longitude":"11,646864","latitude":"48,109223","geojson_lng":11.646864,"geojson_lat":48.109223},"geometry":{"type":"Point","coordinates":[11.646864,48.109223]}},{"type":"Feature","properties":{"SeqNo":"99849","Type":"Q","DHID":"de:09162:1040:30:70","Parent":"de:09162:1040:30","Name":"70","MunicipalityCode":"00000000","Municipality":"-","DistrictCode":"-","District":"-","Description":"","Authority":"BEG","DelfiName":"-","THID":"-","LastOperationDate":"","SEV":"nein","longitude":"11,646226","latitude":"48,107706","geojson_lng":11.646226,"geojson_lat":48.107706},"geometry":{"type":"Point","coordinates":[11.646226,48.107706]}},{"type":"Feature","properties":{"SeqNo":"99850","Type":"Q","DHID":"de:09162:1040:4:4","Parent":"de:09162:1040:4","Name":"4","MunicipalityCode":"00000000","Municipality":"-","DistrictCode":"-","District":"-","Description":"","Authority":"BEG","DelfiName":"-","THID":"-","LastOperationDate":"","SEV":"nein","longitude":"11,646972","latitude":"48,10908","geojson_lng":11.646972,"geojson_lat":48.10908},"geometry":{"type":"Point","coordinates":[11.646972,48.10908]}},{"type":"Feature","properties":{"SeqNo":"99851","Type":"Q","DHID":"de:09162:1040:5:5","Parent":"de:09162:1040:5","Name":"5","MunicipalityCode":"00000000","Municipality":"-","DistrictCode":"-","District":"-","Description":"","Authority":"BEG","DelfiName":"-","THID":"-","LastOperationDate":"","SEV":"nein","longitude":"11,646604","latitude":"48,10881","geojson_lng":11.646604,"geojson_lat":48.10881},"geometry":{"type":"Point","coordinates":[11.646604,48.10881]}},{"type":"Feature","properties":{"SeqNo":"99852","Type":"Q","DHID":"de:09162:1040:51:51","Parent":"de:09162:1040:51","Name":"Gleis 1","MunicipalityCode":"00000000","Municipality":"-","DistrictCode":"-","District":"-","Description":"","Authority":"BEG","DelfiName":"-","THID":"-","LastOperationDate":"","SEV":"nein","longitude":"11,646712","latitude":"48,108222","geojson_lng":11.646712,"geojson_lat":48.108222},"geometry":{"type":"Point","coordinates":[11.646712,48.108222]}},{"type":"Feature","properties":{"SeqNo":"99853","Type":"Q","DHID":"de:09162:1040:51:52","Parent":"de:09162:1040:51","Name":"Gleis 2","MunicipalityCode":"00000000","Municipality":"-","DistrictCode":"-","District":"-","Description":"","Authority":"BEG","DelfiName":"-","THID":"-","LastOperationDate":"","SEV":"nein","longitude":"11,646622","latitude":"48,108222","geojson_lng":11.646622,"geojson_lat":48.108222},"geometry":{"type":"Point","coordinates":[11.646622,48.108222]}},{"type":"Feature","properties":{"SeqNo":"99854","Type":"Q","DHID":"de:09162:1040:99:6","Parent":"de:09162:1040:99","Name":"6","MunicipalityCode":"00000000","Municipality":"-","DistrictCode":"-","District":"-","Description":"","Authority":"BEG","DelfiName":"-","THID":"-","LastOperationDate":"","SEV":"nein","longitude":"11,646676","latitude":"48,108222","geojson_lng":11.646676,"geojson_lat":48.108222},"geometry":{"type":"Point","coordinates":[11.646676,48.108222]}},{"type":"Feature","properties":{"SeqNo":"109826","Type":"S","DHID":"de:09162:913","Parent":"de:09162:913","Name":"Matterhornstraße","MunicipalityCode":"09162000","Municipality":"München","DistrictCode":"","District":"","Description":"","Authority":"BEG","DelfiName":"-","THID":"D923CA000391","LastOperationDate":"2025-06-14T00:00:00","SEV":"nein","longitude":"11,652299","latitude":"48,11467","geojson_lng":11.652299,"geojson_lat":48.11467},"geometry":{"type":"Point","coordinates":[11.652299,48.11467]}},{"type":"Feature","properties":{"SeqNo":"109827","Type":"A","DHID":"de:09162:913:1","Parent":"de:09162:913","Name":"Steig 1","MunicipalityCode":"00000000","Municipality":"-","DistrictCode":"-","District":"-","Description":"","Authority":"BEG","DelfiName":"-","THID":"-","LastOperationDate":"","SEV":"nein","longitude":"11,65256","latitude":"48,114807","geojson_lng":11.65256,"geojson_lat":48.114807},"geometry":{"type":"Point","coordinates":[11.65256,48.114807]}},{"type":"Feature","properties":{"SeqNo":"109828","Type":"A","DHID":"de:09162:913:2","Parent":"de:09162:913","Name":"Steig 2","MunicipalityCode":"00000000","Municipality":"-","DistrictCode":"-","District":"-","Description":"","Authority":"BEG","DelfiName":"-","THID":"-","LastOperationDate":"","SEV":"nein","longitude":"11,652003","latitude":"48,114514","geojson_lng":11.652003,"geojson_lat":48.114514},"geometry":{"type":"Point","coordinates":[11.652003,48.114514]}},{"type":"Feature","properties":{"SeqNo":"109829","Type":"Q","DHID":"de:09162:913:1:1","Parent":"de:09162:913:1","Name":"1","MunicipalityCode":"00000000","Municipality":"-","DistrictCode":"-","District":"-","Description":"","Authority":"BEG","DelfiName":"-","THID":"-","LastOperationDate":"","SEV":"nein","longitude":"11,65256","latitude":"48,114807","geojson_lng":11.65256,"geojson_lat":48.114807},"geometry":{"type":"Point","coordinates":[11.65256,48.114807]}},{"type":"Feature","properties":{"SeqNo":"109830","Type":"Q","DHID":"de:09162:913:2:2","Parent":"de:09162:913:2","Name":"2","MunicipalityCode":"00000000","Municipality":"-","DistrictCode":"-","District":"-","Description":"","Authority":"BEG","DelfiName":"-","THID":"-","LastOperationDate":"","SEV":"nein","longitude":"11,652003","latitude":"48,114514","geojson_lng":11.652003,"geojson_lat":48.114514},"geometry":{"type":"Point","coordinates":[11.652003,48.114514]}},{"type":"Feature","properties":{"SeqNo":"109831","Type":"S","DHID":"de:09162:914","Parent":"de:09162:914","Name":"Peschelanger","MunicipalityCode":"09162000","Municipality":"München","DistrictCode":"","District":"","Description":"","Authority":"BEG","DelfiName":"-","THID":"D923CA000392","LastOperationDate":"2025-06-14T00:00:00","SEV":"nein","longitude":"11,654734","latitude":"48,109121","geojson_lng":11.654734,"geojson_lat":48.109121},"geometry":{"type":"Point","coordinates":[11.654734,48.109121]}},{"type":"Feature","properties":{"SeqNo":"109832","Type":"A","DHID":"de:09162:914:1","Parent":"de:09162:914","Name":"Steig 1","MunicipalityCode":"00000000","Municipality":"-","DistrictCode":"-","District":"-","Description":"","Authority":"BEG","DelfiName":"-","THID":"-","LastOperationDate":"","SEV":"nein","longitude":"11,654536","latitude":"48,109217","geojson_lng":11.654536,"geojson_lat":48.109217},"geometry":{"type":"Point","coordinates":[11.654536,48.109217]}},{"type":"Feature","properties":{"SeqNo":"109833","Type":"A","DHID":"de:09162:914:2","Parent":"de:09162:914","Name":"Steig 2","MunicipalityCode":"00000000","Municipality":"-","DistrictCode":"-","District":"-","Description":"","Authority":"BEG","DelfiName":"-","THID":"-","LastOperationDate":"","SEV":"nein","longitude":"11,654949","latitude":"48,10902","geojson_lng":11.654949,"geojson_lat":48.10902},"geometry":{"type":"Point","coordinates":[11.654949,48.10902]}},{"type":"Feature","properties":{"SeqNo":"109834","Type":"A","DHID":"de:09162:914:3","Parent":"de:09162:914","Name":"Steig 3","MunicipalityCode":"00000000","Municipality":"-","DistrictCode":"-","District":"-","Description":"","Authority":"BEG","DelfiName":"-","THID":"-","LastOperationDate":"","SEV":"nein","longitude":"11,654868","latitude":"48,109217","geojson_lng":11.654868,"geojson_lat":48.109217},"geometry":{"type":"Point","coordinates":[11.654868,48.109217]}},{"type":"Feature","properties":{"SeqNo":"109835","Type":"A","DHID":"de:09162:914:4","Parent":"de:09162:914","Name":"Steig 4","MunicipalityCode":"00000000","Municipality":"-","DistrictCode":"-","District":"-","Description":"","Authority":"BEG","DelfiName":"-","THID":"-","LastOperationDate":"","SEV":"nein","longitude":"11,654204","latitude":"48,109014","geojson_lng":11.654204,"geojson_lat":48.109014},"geometry":{"type":"Point","coordinates":[11.654204,48.109014]}},{"type":"Feature","properties":{"SeqNo":"109836","Type":"Q","DHID":"de:09162:914:1:1","Parent":"de:09162:914:1","Name":"1","MunicipalityCode":"00000000","Municipality":"-","DistrictCode":"-","District":"-","Description":"","Authority":"BEG","DelfiName":"-","THID":"-","LastOperationDate":"","SEV":"nein","longitude":"11,654536","latitude":"48,109217","geojson_lng":11.654536,"geojson_lat":48.109217},"geometry":{"type":"Point","coordinates":[11.654536,48.109217]}},{"type":"Feature","properties":{"SeqNo":"109837","Type":"Q","DHID":"de:09162:914:2:2","Parent":"de:09162:914:2","Name":"2","MunicipalityCode":"00000000","Municipality":"-","DistrictCode":"-","District":"-","Description":"","Authority":"BEG","DelfiName":"-","THID":"-","LastOperationDate":"","SEV":"nein","longitude":"11,654949","latitude":"48,10902","geojson_lng":11.654949,"geojson_lat":48.10902},"geometry":{"type":"Point","coordinates":[11.654949,48.10902]}},{"type":"Feature","properties":{"SeqNo":"109838","Type":"Q","DHID":"de:09162:914:3:3","Parent":"de:09162:914:3","Name":"3","MunicipalityCode":"00000000","Municipality":"-","DistrictCode":"-","District":"-","Description":"","Authority":"BEG","DelfiName":"-","THID":"-","LastOperationDate":"","SEV":"nein","longitude":"11,654868","latitude":"48,109217","geojson_lng":11.654868,"geojson_lat":48.109217},"geometry":{"type":"Point","coordinates":[11.654868,48.109217]}},{"type":"Feature","properties":{"SeqNo":"109839","Type":"Q","DHID":"de:09162:914:4:4","Parent":"de:09162:914:4","Name":"4","MunicipalityCode":"00000000","Municipality":"-","DistrictCode":"-","District":"-","Description":"","Authority":"BEG","DelfiName":"-","THID":"-","LastOperationDate":"","SEV":"nein","longitude":"11,654204","latitude":"48,109014","geojson_lng":11.654204,"geojson_lat":48.109014},"geometry":{"type":"Point","coordinates":[11.654204,48.109014]}},{"type":"Feature","properties":{"SeqNo":"110468","Type":"S","DHID":"de:09162:989","Parent":"de:09162:989","Name":"Bergerwaldstraße","MunicipalityCode":"09162000","Municipality":"München","DistrictCode":"","District":"","Description":"","Authority":"BEG","DelfiName":"-","THID":"D923CA0003DD","LastOperationDate":"2025-06-14T00:00:00","SEV":"nein","longitude":"11,656512","latitude":"48,111095","geojson_lng":11.656512,"geojson_lat":48.111095},"geometry":{"type":"Point","coordinates":[11.656512,48.111095]}},{"type":"Feature","properties":{"SeqNo":"110469","Type":"A","DHID":"de:09162:989:3","Parent":"de:09162:989","Name":"BGW Bus","MunicipalityCode":"00000000","Municipality":"-","DistrictCode":"-","District":"-","Description":"","Authority":"BEG","DelfiName":"-","THID":"-","LastOperationDate":"","SEV":"nein","longitude":"11,656512","latitude":"48,111095","geojson_lng":11.656512,"geojson_lat":48.111095},"geometry":{"type":"Point","coordinates":[11.656512,48.111095]}},{"type":"Feature","properties":{"SeqNo":"110470","Type":"Q","DHID":"de:09162:989:3:BGW 1","Parent":"de:09162:989:3","Name":"1","MunicipalityCode":"00000000","Municipality":"-","DistrictCode":"-","District":"-","Description":"","Authority":"BEG","DelfiName":"-","THID":"-","LastOperationDate":"","SEV":"nein","longitude":"11,656647","latitude":"48,111023","geojson_lng":11.656647,"geojson_lat":48.111023},"geometry":{"type":"Point","coordinates":[11.656647,48.111023]}},{"type":"Feature","properties":{"SeqNo":"110471","Type":"Q","DHID":"de:09162:989:3:BGW 2","Parent":"de:09162:989:3","Name":"2","MunicipalityCode":"00000000","Municipality":"-","DistrictCode":"-","District":"-","Description":"","Authority":"BEG","DelfiName":"-","THID":"-","LastOperationDate":"","SEV":"nein","longitude":"11,656413","latitude":"48,111173","geojson_lng":11.656413,"geojson_lat":48.111173},"geometry":{"type":"Point","coordinates":[11.656413,48.111173]}}]}