{"type":"FeatureCollection","features":[{"type":"Feature","properties":{"SeqNo":"863206","Type":"S","DHID":"de:14523:66","Parent":"de:14523:66","Name":"Herlasgrün, Bahnhof","Latitude":"50,570928","Longitude":"12,234605","MunicipalityCode":"14523330","Municipality":"Pöhl","DistrictCode":"","District":"","Description":"","Authority":"VVO","DelfiName":"-","THID":"D938BB000042","TariffProvider":"-","LastOperationDate":"2025-10-04T00:00:00","SEV":"nein","geojson_lng":12.234605,"geojson_lat":50.570928},"geometry":{"type":"Point","coordinates":[12.234605,50.570928]}},{"type":"Feature","properties":{"SeqNo":"863207","Type":"A","DHID":"de:14523:66:1","Parent":"de:14523:66","Name":"Bahn","Latitude":"50,570837","Longitude":"12,23474","MunicipalityCode":"00000000","Municipality":"-","DistrictCode":"-","District":"-","Description":"","Authority":"VVO","DelfiName":"-","THID":"-","TariffProvider":"-","LastOperationDate":"","SEV":"nein","geojson_lng":12.23474,"geojson_lat":50.570837},"geometry":{"type":"Point","coordinates":[12.23474,50.570837]}},{"type":"Feature","properties":{"SeqNo":"863208","Type":"A","DHID":"de:14523:66:2","Parent":"de:14523:66","Name":"Bus","Latitude":"50,571099","Longitude":"12,234434","MunicipalityCode":"00000000","Municipality":"-","DistrictCode":"-","District":"-","Description":"","Authority":"VVO","DelfiName":"-","THID":"-","TariffProvider":"-","LastOperationDate":"","SEV":"nein","geojson_lng":12.234434,"geojson_lat":50.571099},"geometry":{"type":"Point","coordinates":[12.234434,50.571099]}},{"type":"Feature","properties":{"SeqNo":"863209","Type":"A","DHID":"de:14523:66:8","Parent":"de:14523:66","Name":"Tunnel","Latitude":"50,570837","Longitude":"12,23474","MunicipalityCode":"00000000","Municipality":"-","DistrictCode":"-","District":"-","Description":"","Authority":"VVO","DelfiName":"-","THID":"-","TariffProvider":"-","LastOperationDate":"","SEV":"nein","geojson_lng":12.23474,"geojson_lat":50.570837},"geometry":{"type":"Point","coordinates":[12.23474,50.570837]}},{"type":"Feature","properties":{"SeqNo":"863210","Type":"Q","DHID":"de:14523:66:1:1","Parent":"de:14523:66:1","Name":"1 RC - PL","Latitude":"50,570757","Longitude":"12,234515","MunicipalityCode":"00000000","Municipality":"-","DistrictCode":"-","District":"-","Description":"","Authority":"VVO","DelfiName":"-","THID":"-","TariffProvider":"-","LastOperationDate":"","SEV":"nein","geojson_lng":12.234515,"geojson_lat":50.570757},"geometry":{"type":"Point","coordinates":[12.234515,50.570757]}},{"type":"Feature","properties":{"SeqNo":"863211","Type":"Q","DHID":"de:14523:66:1:2","Parent":"de:14523:66:1","Name":"4 PL - Fa","Latitude":"50,569993","Longitude":"12,234596","MunicipalityCode":"00000000","Municipality":"-","DistrictCode":"-","District":"-","Description":"","Authority":"VVO","DelfiName":"-","THID":"-","TariffProvider":"-","LastOperationDate":"","SEV":"nein","geojson_lng":12.234596,"geojson_lat":50.569993},"geometry":{"type":"Point","coordinates":[12.234596,50.569993]}},{"type":"Feature","properties":{"SeqNo":"863212","Type":"Q","DHID":"de:14523:66:1:3","Parent":"de:14523:66:1","Name":"2 PL - RC","Latitude":"50,570774","Longitude":"12,234668","MunicipalityCode":"00000000","Municipality":"-","DistrictCode":"-","District":"-","Description":"","Authority":"VVO","DelfiName":"-","THID":"-","TariffProvider":"-","LastOperationDate":"","SEV":"nein","geojson_lng":12.234668,"geojson_lat":50.570774},"geometry":{"type":"Point","coordinates":[12.234668,50.570774]}},{"type":"Feature","properties":{"SeqNo":"863213","Type":"Q","DHID":"de:14523:66:2:1","Parent":"de:14523:66:2","Name":"A alle Rtg.","Latitude":"50,571162","Longitude":"12,234515","MunicipalityCode":"00000000","Municipality":"-","DistrictCode":"-","District":"-","Description":"","Authority":"VVO","DelfiName":"-","THID":"-","TariffProvider":"-","LastOperationDate":"","SEV":"nein","geojson_lng":12.234515,"geojson_lat":50.571162},"geometry":{"type":"Point","coordinates":[12.234515,50.571162]}},{"type":"Feature","properties":{"SeqNo":"864169","Type":"Q","DHID":"de:14523:897:2:2","Parent":"de:14523:897:2","Name":"B R Pfaffengrün","Latitude":"50,573986","Longitude":"12,238881","MunicipalityCode":"00000000","Municipality":"-","DistrictCode":"-","District":"-","Description":"","Authority":"VVO","DelfiName":"-","THID":"-","TariffProvider":"-","LastOperationDate":"","SEV":"nein","geojson_lng":12.238881,"geojson_lat":50.573986},"geometry":{"type":"Point","coordinates":[12.238881,50.573986]}}]}