{"type":"FeatureCollection","features":[{"type":"Feature","properties":{"SeqNo":"834305","Type":"S","DHID":"de:14523:66","Parent":"de:14523:66","Name":"Herlasgrün, Bahnhof","MunicipalityCode":"14523330","Municipality":"Pöhl","DistrictCode":"","District":"","Description":"","Authority":"VVO","DelfiName":"-","THID":"D938BB000042","LastOperationDate":"2025-06-14T00:00:00","SEV":"nein","longitude":"12,234605","latitude":"50,570928","geojson_lng":12.234605,"geojson_lat":50.570928},"geometry":{"type":"Point","coordinates":[12.234605,50.570928]}},{"type":"Feature","properties":{"SeqNo":"834306","Type":"A","DHID":"de:14523:66:1","Parent":"de:14523:66","Name":"Bahn","MunicipalityCode":"00000000","Municipality":"-","DistrictCode":"-","District":"-","Description":"","Authority":"VVO","DelfiName":"-","THID":"-","LastOperationDate":"","SEV":"nein","longitude":"12,234749","latitude":"50,570837","geojson_lng":12.234749,"geojson_lat":50.570837},"geometry":{"type":"Point","coordinates":[12.234749,50.570837]}},{"type":"Feature","properties":{"SeqNo":"834307","Type":"A","DHID":"de:14523:66:2","Parent":"de:14523:66","Name":"Bus","MunicipalityCode":"00000000","Municipality":"-","DistrictCode":"-","District":"-","Description":"","Authority":"VVO","DelfiName":"-","THID":"-","LastOperationDate":"","SEV":"nein","longitude":"12,234434","latitude":"50,571099","geojson_lng":12.234434,"geojson_lat":50.571099},"geometry":{"type":"Point","coordinates":[12.234434,50.571099]}},{"type":"Feature","properties":{"SeqNo":"834308","Type":"A","DHID":"de:14523:66:8","Parent":"de:14523:66","Name":"Tunnel","MunicipalityCode":"00000000","Municipality":"-","DistrictCode":"-","District":"-","Description":"","Authority":"VVO","DelfiName":"-","THID":"-","LastOperationDate":"","SEV":"nein","longitude":"12,234749","latitude":"50,570837","geojson_lng":12.234749,"geojson_lat":50.570837},"geometry":{"type":"Point","coordinates":[12.234749,50.570837]}},{"type":"Feature","properties":{"SeqNo":"834309","Type":"Q","DHID":"de:14523:66:1:1","Parent":"de:14523:66:1","Name":"1 RC - PL","MunicipalityCode":"00000000","Municipality":"-","DistrictCode":"-","District":"-","Description":"","Authority":"VVO","DelfiName":"-","THID":"-","LastOperationDate":"","SEV":"nein","longitude":"12,234524","latitude":"50,570757","geojson_lng":12.234524,"geojson_lat":50.570757},"geometry":{"type":"Point","coordinates":[12.234524,50.570757]}},{"type":"Feature","properties":{"SeqNo":"834310","Type":"Q","DHID":"de:14523:66:1:2","Parent":"de:14523:66:1","Name":"4 PL - Fa","MunicipalityCode":"00000000","Municipality":"-","DistrictCode":"-","District":"-","Description":"","Authority":"VVO","DelfiName":"-","THID":"-","LastOperationDate":"","SEV":"nein","longitude":"12,234605","latitude":"50,569993","geojson_lng":12.234605,"geojson_lat":50.569993},"geometry":{"type":"Point","coordinates":[12.234605,50.569993]}},{"type":"Feature","properties":{"SeqNo":"834311","Type":"Q","DHID":"de:14523:66:1:3","Parent":"de:14523:66:1","Name":"2 PL - RC","MunicipalityCode":"00000000","Municipality":"-","DistrictCode":"-","District":"-","Description":"","Authority":"VVO","DelfiName":"-","THID":"-","LastOperationDate":"","SEV":"nein","longitude":"12,234677","latitude":"50,570774","geojson_lng":12.234677,"geojson_lat":50.570774},"geometry":{"type":"Point","coordinates":[12.234677,50.570774]}},{"type":"Feature","properties":{"SeqNo":"834312","Type":"Q","DHID":"de:14523:66:2:1","Parent":"de:14523:66:2","Name":"A alle Rtg.","MunicipalityCode":"00000000","Municipality":"-","DistrictCode":"-","District":"-","Description":"","Authority":"VVO","DelfiName":"-","THID":"-","LastOperationDate":"","SEV":"nein","longitude":"12,234524","latitude":"50,571162","geojson_lng":12.234524,"geojson_lat":50.571162},"geometry":{"type":"Point","coordinates":[12.234524,50.571162]}},{"type":"Feature","properties":{"SeqNo":"835245","Type":"Q","DHID":"de:14523:897:2:2","Parent":"de:14523:897:2","Name":"B R Pfaffengrün","MunicipalityCode":"00000000","Municipality":"-","DistrictCode":"-","District":"-","Description":"","Authority":"VVO","DelfiName":"-","THID":"-","LastOperationDate":"","SEV":"nein","longitude":"12,238881","latitude":"50,573986","geojson_lng":12.238881,"geojson_lat":50.573986},"geometry":{"type":"Point","coordinates":[12.238881,50.573986]}}]}