{"type":"FeatureCollection","features":[{"type":"Feature","properties":{"highway":"bus_stop","public_transport":"platform","name":"De Kamp","ref:IFOPT":"NL:Q:61570040","_quaycode":"NL:Q:61570040","_town":"Zoelmond","_status":"available","_mode":"bus","_direction":90,"_visuallyAccessible":false,"_disabledAccessible":false,"geojson_lng":5.307006671661565,"geojson_lat":51.944868968076214},"geometry":{"type":"Point","coordinates":[5.307006671661565,51.944868968076214]}},{"type":"Feature","properties":{"highway":"bus_stop","public_transport":"platform","name":"Rijksstraatweg","ref:IFOPT":"NL:Q:61361380","_quaycode":"NL:Q:61361380","_town":"Buurmalsen","_status":"available","_mode":"bus","_direction":3,"_visuallyAccessible":false,"_disabledAccessible":false,"geojson_lng":5.29543861331354,"geojson_lat":51.890517519007915},"geometry":{"type":"Point","coordinates":[5.29543861331354,51.890517519007915]}},{"type":"Feature","properties":{"highway":"bus_stop","public_transport":"platform","name":"Lutterveld","ref:IFOPT":"NL:Q:61470160","_quaycode":"NL:Q:61470160","_town":"Erichem","_status":"available","_mode":"bus","_direction":64,"_visuallyAccessible":false,"_disabledAccessible":false,"geojson_lng":5.3625889034850855,"geojson_lat":51.9011748337505},"geometry":{"type":"Point","coordinates":[5.3625889034850855,51.9011748337505]}},{"type":"Feature","properties":{"highway":"bus_stop","public_transport":"platform","name":"Ridder Alartlaan","ref:IFOPT":"NL:Q:61470080","_quaycode":"NL:Q:61470080","_town":"Buren","_status":"available","_mode":"bus","_direction":152,"_visuallyAccessible":true,"_disabledAccessible":true,"geojson_lng":5.336094303277795,"geojson_lat":51.906900849701834},"geometry":{"type":"Point","coordinates":[5.336094303277795,51.906900849701834]}},{"type":"Feature","properties":{"highway":"bus_stop","public_transport":"platform","name":"'t Hanenest","ref:IFOPT":"NL:Q:61570130","_quaycode":"NL:Q:61570130","_town":"Asch","_status":"available","_mode":"bus","_direction":316,"_visuallyAccessible":false,"_disabledAccessible":false,"geojson_lng":5.324428578795281,"geojson_lat":51.92538405740383},"geometry":{"type":"Point","coordinates":[5.324428578795281,51.92538405740383]}},{"type":"Feature","properties":{"highway":"bus_stop","public_transport":"platform","name":"Rijksstraatweg","ref:IFOPT":"NL:Q:61361350","_quaycode":"NL:Q:61361350","_town":"Buurmalsen","_status":"available","_mode":"bus","_direction":195,"_visuallyAccessible":false,"_disabledAccessible":false,"geojson_lng":5.295220605751018,"geojson_lat":51.89057127855222},"geometry":{"type":"Point","coordinates":[5.295220605751018,51.89057127855222]}},{"type":"Feature","properties":{"highway":"bus_stop","public_transport":"platform","name":"Buren","ref:IFOPT":"NL:Q:91000017","_quaycode":"NL:Q:91000017","_town":"Buren","_status":"available","_mode":"bus","_direction":55,"_visuallyAccessible":false,"_disabledAccessible":false,"geojson_lng":5.320998700000004,"geojson_lat":51.89609770000001},"geometry":{"type":"Point","coordinates":[5.320998700000004,51.89609770000001]}},{"type":"Feature","properties":{"highway":"bus_stop","public_transport":"platform","name":"Binnenstraat","ref:IFOPT":"NL:Q:61470140","_quaycode":"NL:Q:61470140","_town":"Erichem","_status":"available","_mode":"bus","_direction":79,"_visuallyAccessible":false,"_disabledAccessible":false,"geojson_lng":5.35654603966068,"geojson_lat":51.898818492911374},"geometry":{"type":"Point","coordinates":[5.35654603966068,51.898818492911374]}},{"type":"Feature","properties":{"highway":"bus_stop","public_transport":"platform","name":"Binnenstraat","ref:IFOPT":"NL:Q:61470030","_quaycode":"NL:Q:61470030","_town":"Erichem","_status":"available","_mode":"bus","_direction":258,"_visuallyAccessible":false,"_disabledAccessible":false,"geojson_lng":5.356923708370152,"geojson_lat":51.89895341446219},"geometry":{"type":"Point","coordinates":[5.356923708370152,51.89895341446219]}},{"type":"Feature","properties":{"highway":"bus_stop","public_transport":"platform","name":"Kerk","ref:IFOPT":"NL:Q:61570060","_quaycode":"NL:Q:61570060","_town":"Zoelmond","_status":"available","_mode":"bus","_direction":146,"_visuallyAccessible":false,"_disabledAccessible":false,"geojson_lng":5.310588968885818,"geojson_lat":51.942255778670244},"geometry":{"type":"Point","coordinates":[5.310588968885818,51.942255778670244]}},{"type":"Feature","properties":{"highway":"bus_stop","public_transport":"platform","name":"Rooimond","ref:IFOPT":"NL:Q:61361370","_quaycode":"NL:Q:61361370","_town":"Buurmalsen","_status":"available","_mode":"bus","_direction":51,"_visuallyAccessible":false,"_disabledAccessible":false,"geojson_lng":5.289983520286527,"geojson_lat":51.89402755876917},"geometry":{"type":"Point","coordinates":[5.289983520286527,51.89402755876917]}},{"type":"Feature","properties":{"highway":"bus_stop","public_transport":"platform","name":"Oranjehof","ref:IFOPT":"NL:Q:61470150","_quaycode":"NL:Q:61470150","_town":"Buren","_status":"available","_mode":"bus","_direction":315,"_visuallyAccessible":false,"_disabledAccessible":false,"geojson_lng":5.331172053990754,"geojson_lat":51.91534757931301},"geometry":{"type":"Point","coordinates":[5.331172053990754,51.91534757931301]}},{"type":"Feature","properties":{"highway":"bus_stop","public_transport":"platform","name":"Erichemseweg","ref:IFOPT":"NL:Q:61470100","_quaycode":"NL:Q:61470100","_town":"Erichem","_status":"available","_mode":"bus","_direction":112,"_visuallyAccessible":false,"_disabledAccessible":false,"geojson_lng":5.345529817464413,"geojson_lat":51.90216774365286},"geometry":{"type":"Point","coordinates":[5.345529817464413,51.90216774365286]}},{"type":"Feature","properties":{"highway":"bus_stop","public_transport":"platform","name":"Erichemseweg","ref:IFOPT":"NL:Q:61470070","_quaycode":"NL:Q:61470070","_town":"Erichem","_status":"available","_mode":"bus","_direction":281,"_visuallyAccessible":false,"_disabledAccessible":false,"geojson_lng":5.345602419128445,"geojson_lat":51.902221698914104},"geometry":{"type":"Point","coordinates":[5.345602419128445,51.902221698914104]}},{"type":"Feature","properties":{"highway":"bus_stop","public_transport":"platform","name":"Plantsoen","ref:IFOPT":"NL:Q:61470120","_quaycode":"NL:Q:61470120","_town":"Buren","_status":"available","_mode":"bus","_direction":217,"_visuallyAccessible":false,"_disabledAccessible":false,"geojson_lng":5.331248486828214,"geojson_lat":51.91231857223756},"geometry":{"type":"Point","coordinates":[5.331248486828214,51.91231857223756]}},{"type":"Feature","properties":{"highway":"bus_stop","public_transport":"platform","name":"De Kamp","ref:IFOPT":"NL:Q:61570090","_quaycode":"NL:Q:61570090","_town":"Zoelmond","_status":"available","_mode":"bus","_direction":323,"_visuallyAccessible":false,"_disabledAccessible":false,"geojson_lng":5.306889966061257,"geojson_lat":51.94506662948428},"geometry":{"type":"Point","coordinates":[5.306889966061257,51.94506662948428]}},{"type":"Feature","properties":{"highway":"bus_stop","public_transport":"platform","name":"Plantsoen","ref:IFOPT":"NL:Q:61470130","_quaycode":"NL:Q:61470130","_town":"Buren","_status":"available","_mode":"bus","_direction":38,"_visuallyAccessible":false,"_disabledAccessible":false,"geojson_lng":5.331292254708477,"geojson_lat":51.91218376909073},"geometry":{"type":"Point","coordinates":[5.331292254708477,51.91218376909073]}},{"type":"Feature","properties":{"highway":"bus_stop","public_transport":"platform","name":"Ridder Alartlaan","ref:IFOPT":"NL:Q:61470090","_quaycode":"NL:Q:61470090","_town":"Buren","_status":"available","_mode":"bus","_direction":330,"_visuallyAccessible":true,"_disabledAccessible":true,"geojson_lng":5.336181412738428,"geojson_lat":51.90697279357505},"geometry":{"type":"Point","coordinates":[5.336181412738428,51.90697279357505]}},{"type":"Feature","properties":{"highway":"bus_stop","public_transport":"platform","name":"'t Hanenest","ref:IFOPT":"NL:Q:61570120","_quaycode":"NL:Q:61570120","_town":"Asch","_status":"available","_mode":"bus","_direction":133,"_visuallyAccessible":false,"_disabledAccessible":false,"geojson_lng":5.324283251240325,"geojson_lat":51.92534802691608},"geometry":{"type":"Point","coordinates":[5.324283251240325,51.92534802691608]}},{"type":"Feature","properties":{"highway":"bus_stop","public_transport":"platform","name":"Kerkpad","ref:IFOPT":"NL:Q:61570050","_quaycode":"NL:Q:61570050","_town":"Asch","_status":"available","_mode":"bus","_direction":284,"_visuallyAccessible":false,"_disabledAccessible":false,"geojson_lng":5.314578966868838,"geojson_lat":51.93005228464273},"geometry":{"type":"Point","coordinates":[5.314578966868838,51.93005228464273]}},{"type":"Feature","properties":{"highway":"bus_stop","public_transport":"platform","name":"Krupheulstraat","ref:IFOPT":"NL:Q:61570100","_quaycode":"NL:Q:61570100","_town":"Asch","_status":"available","_mode":"bus","_direction":106,"_visuallyAccessible":false,"_disabledAccessible":false,"geojson_lng":5.319029553449062,"geojson_lat":51.92902129620576},"geometry":{"type":"Point","coordinates":[5.319029553449062,51.92902129620576]}},{"type":"Feature","properties":{"highway":"bus_stop","public_transport":"platform","name":"Kerkpad","ref:IFOPT":"NL:Q:61570080","_quaycode":"NL:Q:61570080","_town":"Asch","_status":"available","_mode":"bus","_direction":172,"_visuallyAccessible":false,"_disabledAccessible":true,"geojson_lng":5.313298491714836,"geojson_lat":51.9306716769247},"geometry":{"type":"Point","coordinates":[5.313298491714836,51.9306716769247]}},{"type":"Feature","properties":{"highway":"bus_stop","public_transport":"platform","name":"Rooimond","ref:IFOPT":"NL:Q:61361360","_quaycode":"NL:Q:61361360","_town":"Buurmalsen","_status":"available","_mode":"bus","_direction":221,"_visuallyAccessible":false,"_disabledAccessible":false,"geojson_lng":5.290752248821021,"geojson_lat":51.8946393955753},"geometry":{"type":"Point","coordinates":[5.290752248821021,51.8946393955753]}},{"type":"Feature","properties":{"highway":"bus_stop","public_transport":"platform","name":"Kerk","ref:IFOPT":"NL:Q:61470060","_quaycode":"NL:Q:61470060","_town":"Erichem","_status":"available","_mode":"bus","_direction":117,"_visuallyAccessible":false,"_disabledAccessible":false,"geojson_lng":5.349905968824363,"geojson_lat":51.89909521846518},"geometry":{"type":"Point","coordinates":[5.349905968824363,51.89909521846518]}},{"type":"Feature","properties":{"highway":"bus_stop","public_transport":"platform","name":"Kerk","ref:IFOPT":"NL:Q:61470050","_quaycode":"NL:Q:61470050","_town":"Erichem","_status":"available","_mode":"bus","_direction":299,"_visuallyAccessible":false,"_disabledAccessible":false,"geojson_lng":5.350153003474154,"geojson_lat":51.899050354902776},"geometry":{"type":"Point","coordinates":[5.350153003474154,51.899050354902776]}},{"type":"Feature","properties":{"highway":"bus_stop","public_transport":"platform","name":"Oranjehof","ref:IFOPT":"NL:Q:61470020","_quaycode":"NL:Q:61470020","_town":"Buren","_status":"available","_mode":"bus","_direction":133,"_visuallyAccessible":false,"_disabledAccessible":false,"geojson_lng":5.331463344839229,"geojson_lat":51.914862351509896},"geometry":{"type":"Point","coordinates":[5.331463344839229,51.914862351509896]}},{"type":"Feature","properties":{"highway":"bus_stop","public_transport":"platform","name":"Kerk","ref:IFOPT":"NL:Q:61570070","_quaycode":"NL:Q:61570070","_town":"Zoelmond","_status":"available","_mode":"bus","_direction":319,"_visuallyAccessible":false,"_disabledAccessible":true,"geojson_lng":5.310588708755298,"geojson_lat":51.94240857834418},"geometry":{"type":"Point","coordinates":[5.310588708755298,51.94240857834418]}},{"type":"Feature","properties":{"highway":"bus_stop","public_transport":"platform","name":"Lutterveld","ref:IFOPT":"NL:Q:61470010","_quaycode":"NL:Q:61470010","_town":"Erichem","_status":"available","_mode":"bus","_direction":243,"_visuallyAccessible":false,"_disabledAccessible":false,"geojson_lng":5.362312864004398,"geojson_lat":51.901120846344966},"geometry":{"type":"Point","coordinates":[5.362312864004398,51.901120846344966]}},{"type":"Feature","properties":{"highway":"bus_stop","public_transport":"platform","name":"Krupheulstraat","ref:IFOPT":"NL:Q:61570030","_quaycode":"NL:Q:61570030","_town":"Asch","_status":"available","_mode":"bus","_direction":285,"_visuallyAccessible":false,"_disabledAccessible":false,"geojson_lng":5.318505835767419,"geojson_lat":51.92922772157824},"geometry":{"type":"Point","coordinates":[5.318505835767419,51.92922772157824]}}]}