{"type":"FeatureCollection","features":[{"type":"Feature","properties":{"SeqNo":"659547","Type":"S","DHID":"de:05911:5428","Parent":"de:05911:5428","Name":"Bochum Talstr.","MunicipalityCode":"05911000","Municipality":"Bochum","DistrictCode":"-","District":"-","Description":"","Authority":"VRR","DelfiName":"-","THID":"D91717001534","LastOperationDate":"2025-02-28T00:00:00","SEV":"nein","longitude":"7,163588","latitude":"51,458364","geojson_lng":7.163588,"geojson_lat":51.458364},"geometry":{"type":"Point","coordinates":[7.163588,51.458364]}},{"type":"Feature","properties":{"SeqNo":"659548","Type":"A","DHID":"de:05911:5428:1","Parent":"de:05911:5428","Name":"Ri. Hektorstr","MunicipalityCode":"00000000","Municipality":"-","DistrictCode":"-","District":"-","Description":"Ri. Hektorstr","Authority":"VRR","DelfiName":"-","THID":"-","LastOperationDate":"","SEV":"nein","longitude":"7,163472","latitude":"51,458313","geojson_lng":7.163472,"geojson_lat":51.458313},"geometry":{"type":"Point","coordinates":[7.163472,51.458313]}},{"type":"Feature","properties":{"SeqNo":"659549","Type":"A","DHID":"de:05911:5428:2","Parent":"de:05911:5428","Name":"Ri. Höntrop S","MunicipalityCode":"00000000","Municipality":"-","DistrictCode":"-","District":"-","Description":"Ri. Höntrop S","Authority":"VRR","DelfiName":"-","THID":"-","LastOperationDate":"","SEV":"nein","longitude":"7,163678","latitude":"51,458431","geojson_lng":7.163678,"geojson_lat":51.458431},"geometry":{"type":"Point","coordinates":[7.163678,51.458431]}},{"type":"Feature","properties":{"SeqNo":"659550","Type":"Q","DHID":"de:05911:5428:0:01","Parent":"de:05911:5428:1","Name":"Ri. Hektorstr. / In der Mark","MunicipalityCode":"00000000","Municipality":"-","DistrictCode":"-","District":"-","Description":"Ri. Hektorstr. / In der Mark","Authority":"VRR","DelfiName":"-","THID":"-","LastOperationDate":"","SEV":"nein","longitude":"7,163525","latitude":"51,458347","geojson_lng":7.163525,"geojson_lat":51.458347},"geometry":{"type":"Point","coordinates":[7.163525,51.458347]}},{"type":"Feature","properties":{"SeqNo":"659551","Type":"Q","DHID":"de:05911:5428:0:02","Parent":"de:05911:5428:2","Name":"Ri. Höntrop S","MunicipalityCode":"00000000","Municipality":"-","DistrictCode":"-","District":"-","Description":"Ri. Höntrop S","Authority":"VRR","DelfiName":"-","THID":"-","LastOperationDate":"","SEV":"nein","longitude":"7,163633","latitude":"51,458409","geojson_lng":7.163633,"geojson_lat":51.458409},"geometry":{"type":"Point","coordinates":[7.163633,51.458409]}},{"type":"Feature","properties":{"SeqNo":"659951","Type":"S","DHID":"de:05911:5528","Parent":"de:05911:5528","Name":"Bochum Hektorstr.","MunicipalityCode":"05911000","Municipality":"Bochum","DistrictCode":"-","District":"-","Description":"","Authority":"VRR","DelfiName":"-","THID":"D91717001598","LastOperationDate":"2025-02-28T00:00:00","SEV":"nein","longitude":"7,16976","latitude":"51,458297","geojson_lng":7.16976,"geojson_lat":51.458297},"geometry":{"type":"Point","coordinates":[7.16976,51.458297]}},{"type":"Feature","properties":{"SeqNo":"659952","Type":"A","DHID":"de:05911:5528:1","Parent":"de:05911:5528","Name":"Ri. Talstr","MunicipalityCode":"00000000","Municipality":"-","DistrictCode":"-","District":"-","Description":"","Authority":"VRR","DelfiName":"-","THID":"-","LastOperationDate":"","SEV":"nein","longitude":"7,169751","latitude":"51,458358","geojson_lng":7.169751,"geojson_lat":51.458358},"geometry":{"type":"Point","coordinates":[7.169751,51.458358]}},{"type":"Feature","properties":{"SeqNo":"659953","Type":"A","DHID":"de:05911:5528:2","Parent":"de:05911:5528","Name":"Ri. Eppend Mitte","MunicipalityCode":"00000000","Municipality":"-","DistrictCode":"-","District":"-","Description":"","Authority":"VRR","DelfiName":"-","THID":"-","LastOperationDate":"","SEV":"nein","longitude":"7,169751","latitude":"51,458257","geojson_lng":7.169751,"geojson_lat":51.458257},"geometry":{"type":"Point","coordinates":[7.169751,51.458257]}},{"type":"Feature","properties":{"SeqNo":"659954","Type":"Q","DHID":"de:05911:5528:0:01","Parent":"de:05911:5528:1","Name":"Ri. Talstr.","MunicipalityCode":"00000000","Municipality":"-","DistrictCode":"-","District":"-","Description":"Ri. Talstr.","Authority":"VRR","DelfiName":"-","THID":"-","LastOperationDate":"","SEV":"nein","longitude":"7,169805","latitude":"51,458285","geojson_lng":7.169805,"geojson_lat":51.458285},"geometry":{"type":"Point","coordinates":[7.169805,51.458285]}},{"type":"Feature","properties":{"SeqNo":"659955","Type":"Q","DHID":"de:05911:5528:0:02","Parent":"de:05911:5528:2","Name":"Ri. Eppendorf Mitte","MunicipalityCode":"00000000","Municipality":"-","DistrictCode":"-","District":"-","Description":"Ri. Eppendorf Mitte","Authority":"VRR","DelfiName":"-","THID":"-","LastOperationDate":"","SEV":"nein","longitude":"7,169715","latitude":"51,458313","geojson_lng":7.169715,"geojson_lat":51.458313},"geometry":{"type":"Point","coordinates":[7.169715,51.458313]}},{"type":"Feature","properties":{"SeqNo":"660599","Type":"S","DHID":"de:05911:5883","Parent":"de:05911:5883","Name":"Bochum In der Mark","MunicipalityCode":"05911000","Municipality":"Bochum","DistrictCode":"-","District":"-","Description":"","Authority":"VRR","DelfiName":"-","THID":"D917170016FB","LastOperationDate":"2025-02-28T00:00:00","SEV":"nein","longitude":"7,163202","latitude":"51,454294","geojson_lng":7.163202,"geojson_lat":51.454294},"geometry":{"type":"Point","coordinates":[7.163202,51.454294]}},{"type":"Feature","properties":{"SeqNo":"660600","Type":"A","DHID":"de:05911:5883:1","Parent":"de:05911:5883","Name":"Ri. Am Luftschacht","MunicipalityCode":"00000000","Municipality":"-","DistrictCode":"-","District":"-","Description":"Ri. Am Luftschacht","Authority":"VRR","DelfiName":"-","THID":"-","LastOperationDate":"","SEV":"nein","longitude":"7,163148","latitude":"51,45435","geojson_lng":7.163148,"geojson_lat":51.45435},"geometry":{"type":"Point","coordinates":[7.163148,51.45435]}},{"type":"Feature","properties":{"SeqNo":"660601","Type":"A","DHID":"de:05911:5883:2","Parent":"de:05911:5883","Name":"Ri. Talstr","MunicipalityCode":"00000000","Municipality":"-","DistrictCode":"-","District":"-","Description":"Ri. Talstr","Authority":"VRR","DelfiName":"-","THID":"-","LastOperationDate":"","SEV":"nein","longitude":"7,163256","latitude":"51,454222","geojson_lng":7.163256,"geojson_lat":51.454222},"geometry":{"type":"Point","coordinates":[7.163256,51.454222]}},{"type":"Feature","properties":{"SeqNo":"660602","Type":"Q","DHID":"de:05911:5883:0:01","Parent":"de:05911:5883:1","Name":"Ri. Am Luftschacht","MunicipalityCode":"00000000","Municipality":"-","DistrictCode":"-","District":"-","Description":"Ri. Am Luftschacht","Authority":"VRR","DelfiName":"-","THID":"-","LastOperationDate":"","SEV":"nein","longitude":"7,163211","latitude":"51,45435","geojson_lng":7.163211,"geojson_lat":51.45435},"geometry":{"type":"Point","coordinates":[7.163211,51.45435]}},{"type":"Feature","properties":{"SeqNo":"660603","Type":"Q","DHID":"de:05911:5883:0:02","Parent":"de:05911:5883:2","Name":"Ri. Talstr.","MunicipalityCode":"00000000","Municipality":"-","DistrictCode":"-","District":"-","Description":"Ri. Talstr.","Authority":"VRR","DelfiName":"-","THID":"-","LastOperationDate":"","SEV":"nein","longitude":"7,163193","latitude":"51,454244","geojson_lng":7.163193,"geojson_lat":51.454244},"geometry":{"type":"Point","coordinates":[7.163193,51.454244]}}]}