{"type":"FeatureCollection","features":[{"type":"Feature","properties":{"SeqNo":"531750","Type":"S","DHID":"de:05124:11234","Parent":"de:05124:11234","Name":"Wuppertal Böhler Hof","MunicipalityCode":"05124000","Municipality":"Wuppertal","DistrictCode":"","District":"","Description":"","Authority":"VRR","DelfiName":"-","THID":"D91404002BE2","LastOperationDate":"2025-06-14T00:00:00","SEV":"nein","longitude":"7,1641","latitude":"51,245251","geojson_lng":7.1641,"geojson_lat":51.245251},"geometry":{"type":"Point","coordinates":[7.1641,51.245251]}},{"type":"Feature","properties":{"SeqNo":"531751","Type":"Q","DHID":"de:05124:11234:0:1","Parent":"de:05124:11234","Name":"iR Ronsdorf","MunicipalityCode":"00000000","Municipality":"-","DistrictCode":"-","District":"-","Description":"","Authority":"VRR","DelfiName":"-","THID":"-","LastOperationDate":"","SEV":"nein","longitude":"7,164037","latitude":"51,245184","geojson_lng":7.164037,"geojson_lat":51.245184},"geometry":{"type":"Point","coordinates":[7.164037,51.245184]}},{"type":"Feature","properties":{"SeqNo":"531752","Type":"Q","DHID":"de:05124:11234:0:2","Parent":"de:05124:11234","Name":"iR Hauptbahnhof","MunicipalityCode":"00000000","Municipality":"-","DistrictCode":"-","District":"-","Description":"","Authority":"VRR","DelfiName":"-","THID":"-","LastOperationDate":"","SEV":"nein","longitude":"7,164136","latitude":"51,245341","geojson_lng":7.164136,"geojson_lat":51.245341},"geometry":{"type":"Point","coordinates":[7.164136,51.245341]}},{"type":"Feature","properties":{"SeqNo":"531753","Type":"S","DHID":"de:05124:11235","Parent":"de:05124:11235","Name":"Wuppertal Am Walde","MunicipalityCode":"05124000","Municipality":"Wuppertal","DistrictCode":"","District":"","Description":"","Authority":"VRR","DelfiName":"-","THID":"D91404002BE3","LastOperationDate":"2025-06-14T00:00:00","SEV":"nein","longitude":"7,169868","latitude":"51,243305","geojson_lng":7.169868,"geojson_lat":51.243305},"geometry":{"type":"Point","coordinates":[7.169868,51.243305]}},{"type":"Feature","properties":{"SeqNo":"531754","Type":"A","DHID":"de:05124:11235:1","Parent":"de:05124:11235","Name":"iR Remscheid","MunicipalityCode":"00000000","Municipality":"-","DistrictCode":"-","District":"-","Description":"","Authority":"VRR","DelfiName":"-","THID":"-","LastOperationDate":"","SEV":"nein","longitude":"7,169885","latitude":"51,243187","geojson_lng":7.169885,"geojson_lat":51.243187},"geometry":{"type":"Point","coordinates":[7.169885,51.243187]}},{"type":"Feature","properties":{"SeqNo":"531755","Type":"A","DHID":"de:05124:11235:2","Parent":"de:05124:11235","Name":"iR Wuppertal","MunicipalityCode":"00000000","Municipality":"-","DistrictCode":"-","District":"-","Description":"","Authority":"VRR","DelfiName":"-","THID":"-","LastOperationDate":"","SEV":"nein","longitude":"7,169805","latitude":"51,243423","geojson_lng":7.169805,"geojson_lat":51.243423},"geometry":{"type":"Point","coordinates":[7.169805,51.243423]}},{"type":"Feature","properties":{"SeqNo":"531756","Type":"Q","DHID":"de:05124:11235:1:1","Parent":"de:05124:11235:1","Name":"iR Kapellen","MunicipalityCode":"00000000","Municipality":"-","DistrictCode":"-","District":"-","Description":"","Authority":"VRR","DelfiName":"-","THID":"-","LastOperationDate":"","SEV":"nein","longitude":"7,169876","latitude":"51,243187","geojson_lng":7.169876,"geojson_lat":51.243187},"geometry":{"type":"Point","coordinates":[7.169876,51.243187]}},{"type":"Feature","properties":{"SeqNo":"531757","Type":"Q","DHID":"de:05124:11235:2:2","Parent":"de:05124:11235:2","Name":"iR Böhler Hof","MunicipalityCode":"00000000","Municipality":"-","DistrictCode":"-","District":"-","Description":"","Authority":"VRR","DelfiName":"-","THID":"-","LastOperationDate":"","SEV":"nein","longitude":"7,169769","latitude":"51,243401","geojson_lng":7.169769,"geojson_lat":51.243401},"geometry":{"type":"Point","coordinates":[7.169769,51.243401]}}]}