{"type":"FeatureCollection","features":[{"type":"Feature","properties":{"SeqNo":"588885","Type":"S","DHID":"de:05378:31530","Parent":"de:05378:31530","Name":"Bergisch Gladbach Bensberg Rathaus","MunicipalityCode":"05378004","Municipality":"Bergisch Gladbach","DistrictCode":"","District":"","Description":"","Authority":"VRR","DelfiName":"-","THID":"D91502007B2A","LastOperationDate":"2025-01-06T00:00:00","SEV":"nein","longitude":"7,162977","latitude":"50,965787","geojson_lng":7.162977,"geojson_lat":50.965787},"geometry":{"type":"Point","coordinates":[7.162977,50.965787]}},{"type":"Feature","properties":{"SeqNo":"588886","Type":"A","DHID":"de:05378:31530:2","Parent":"de:05378:31530","Name":"Bensberg Rathaus","MunicipalityCode":"00000000","Municipality":"-","DistrictCode":"-","District":"-","Description":"","Authority":"VRR","DelfiName":"-","THID":"-","LastOperationDate":"","SEV":"nein","longitude":"7,162977","latitude":"50,965787","geojson_lng":7.162977,"geojson_lat":50.965787},"geometry":{"type":"Point","coordinates":[7.162977,50.965787]}},{"type":"Feature","properties":{"SeqNo":"588887","Type":"Q","DHID":"de:05378:31530:2:21","Parent":"de:05378:31530:2","Name":"","MunicipalityCode":"00000000","Municipality":"-","DistrictCode":"-","District":"-","Description":"","Authority":"VRR","DelfiName":"-","THID":"-","LastOperationDate":"","SEV":"nein","longitude":"7,163642","latitude":"50,965668","geojson_lng":7.163642,"geojson_lat":50.965668},"geometry":{"type":"Point","coordinates":[7.163642,50.965668]}},{"type":"Feature","properties":{"SeqNo":"588888","Type":"Q","DHID":"de:05378:31530:2:22","Parent":"de:05378:31530:2","Name":"","MunicipalityCode":"00000000","Municipality":"-","DistrictCode":"-","District":"-","Description":"","Authority":"VRR","DelfiName":"-","THID":"-","LastOperationDate":"","SEV":"nein","longitude":"7,163597","latitude":"50,965583","geojson_lng":7.163597,"geojson_lat":50.965583},"geometry":{"type":"Point","coordinates":[7.163597,50.965583]}},{"type":"Feature","properties":{"SeqNo":"588901","Type":"S","DHID":"de:05378:31535","Parent":"de:05378:31535","Name":"Bergisch Gladbach Bensberg Schlehecken","MunicipalityCode":"05378004","Municipality":"Bergisch Gladbach","DistrictCode":"","District":"","Description":"","Authority":"VRR","DelfiName":"-","THID":"D91502007B2F","LastOperationDate":"2025-01-06T00:00:00","SEV":"nein","longitude":"7,166544","latitude":"50,966697","geojson_lng":7.166544,"geojson_lat":50.966697},"geometry":{"type":"Point","coordinates":[7.166544,50.966697]}},{"type":"Feature","properties":{"SeqNo":"588902","Type":"A","DHID":"de:05378:31535:2","Parent":"de:05378:31535","Name":"Schlehecken","MunicipalityCode":"00000000","Municipality":"-","DistrictCode":"-","District":"-","Description":"","Authority":"VRR","DelfiName":"-","THID":"-","LastOperationDate":"","SEV":"nein","longitude":"7,166544","latitude":"50,966686","geojson_lng":7.166544,"geojson_lat":50.966686},"geometry":{"type":"Point","coordinates":[7.166544,50.966686]}},{"type":"Feature","properties":{"SeqNo":"588903","Type":"Q","DHID":"de:05378:31535:2:21","Parent":"de:05378:31535:2","Name":"","MunicipalityCode":"00000000","Municipality":"-","DistrictCode":"-","District":"-","Description":"","Authority":"VRR","DelfiName":"-","THID":"-","LastOperationDate":"","SEV":"nein","longitude":"7,166598","latitude":"50,966743","geojson_lng":7.166598,"geojson_lat":50.966743},"geometry":{"type":"Point","coordinates":[7.166598,50.966743]}},{"type":"Feature","properties":{"SeqNo":"588904","Type":"Q","DHID":"de:05378:31535:2:22","Parent":"de:05378:31535:2","Name":"","MunicipalityCode":"00000000","Municipality":"-","DistrictCode":"-","District":"-","Description":"","Authority":"VRR","DelfiName":"-","THID":"-","LastOperationDate":"","SEV":"nein","longitude":"7,166373","latitude":"50,966726","geojson_lng":7.166373,"geojson_lat":50.966726},"geometry":{"type":"Point","coordinates":[7.166373,50.966726]}},{"type":"Feature","properties":{"SeqNo":"588989","Type":"S","DHID":"de:05378:31562","Parent":"de:05378:31562","Name":"Bergisch Gladbach Moitzfeld Hackberg","MunicipalityCode":"05378004","Municipality":"Bergisch Gladbach","DistrictCode":"","District":"","Description":"","Authority":"VRR","DelfiName":"-","THID":"D91502007B4A","LastOperationDate":"2025-01-06T00:00:00","SEV":"nein","longitude":"7,173524","latitude":"50,966284","geojson_lng":7.173524,"geojson_lat":50.966284},"geometry":{"type":"Point","coordinates":[7.173524,50.966284]}},{"type":"Feature","properties":{"SeqNo":"588990","Type":"A","DHID":"de:05378:31562:2","Parent":"de:05378:31562","Name":"Hackberg","MunicipalityCode":"00000000","Municipality":"-","DistrictCode":"-","District":"-","Description":"","Authority":"VRR","DelfiName":"-","THID":"-","LastOperationDate":"","SEV":"nein","longitude":"7,173524","latitude":"50,966284","geojson_lng":7.173524,"geojson_lat":50.966284},"geometry":{"type":"Point","coordinates":[7.173524,50.966284]}},{"type":"Feature","properties":{"SeqNo":"588991","Type":"Q","DHID":"de:05378:31562:2:21","Parent":"de:05378:31562:2","Name":"","MunicipalityCode":"00000000","Municipality":"-","DistrictCode":"-","District":"-","Description":"","Authority":"VRR","DelfiName":"-","THID":"-","LastOperationDate":"","SEV":"nein","longitude":"7,173524","latitude":"50,966347","geojson_lng":7.173524,"geojson_lat":50.966347},"geometry":{"type":"Point","coordinates":[7.173524,50.966347]}},{"type":"Feature","properties":{"SeqNo":"588992","Type":"Q","DHID":"de:05378:31562:2:22","Parent":"de:05378:31562:2","Name":"","MunicipalityCode":"00000000","Municipality":"-","DistrictCode":"-","District":"-","Description":"","Authority":"VRR","DelfiName":"-","THID":"-","LastOperationDate":"","SEV":"nein","longitude":"7,173191","latitude":"50,966279","geojson_lng":7.173191,"geojson_lat":50.966279},"geometry":{"type":"Point","coordinates":[7.173191,50.966279]}}]}