{"type":"FeatureCollection","features":[{"type":"Feature","properties":{"SeqNo":"586877","Type":"S","DHID":"de:05374:47133","Parent":"de:05374:47133","Name":"Bergneustadt Gymnasium","MunicipalityCode":"05374004","Municipality":"Bergneustadt","DistrictCode":"","District":"","Description":"","Authority":"VRR","DelfiName":"-","THID":"D914FE00B81D","LastOperationDate":"2025-01-06T00:00:00","SEV":"nein","longitude":"7,636596","latitude":"51,01715","geojson_lng":7.636596,"geojson_lat":51.01715},"geometry":{"type":"Point","coordinates":[7.636596,51.01715]}},{"type":"Feature","properties":{"SeqNo":"586878","Type":"A","DHID":"de:05374:47133:2","Parent":"de:05374:47133","Name":"Bergneustadt Gymn","MunicipalityCode":"00000000","Municipality":"-","DistrictCode":"-","District":"-","Description":"","Authority":"VRR","DelfiName":"-","THID":"-","LastOperationDate":"","SEV":"nein","longitude":"7,637881","latitude":"51,015986","geojson_lng":7.637881,"geojson_lat":51.015986},"geometry":{"type":"Point","coordinates":[7.637881,51.015986]}},{"type":"Feature","properties":{"SeqNo":"586879","Type":"Q","DHID":"de:05374:47133:2:21","Parent":"de:05374:47133:2","Name":"","MunicipalityCode":"00000000","Municipality":"-","DistrictCode":"-","District":"-","Description":"","Authority":"VRR","DelfiName":"-","THID":"-","LastOperationDate":"","SEV":"nein","longitude":"7,637557","latitude":"51,015608","geojson_lng":7.637557,"geojson_lat":51.015608},"geometry":{"type":"Point","coordinates":[7.637557,51.015608]}},{"type":"Feature","properties":{"SeqNo":"586880","Type":"Q","DHID":"de:05374:47133:2:22","Parent":"de:05374:47133:2","Name":"","MunicipalityCode":"00000000","Municipality":"-","DistrictCode":"-","District":"-","Description":"","Authority":"VRR","DelfiName":"-","THID":"-","LastOperationDate":"","SEV":"nein","longitude":"7,637117","latitude":"51,015557","geojson_lng":7.637117,"geojson_lat":51.015557},"geometry":{"type":"Point","coordinates":[7.637117,51.015557]}},{"type":"Feature","properties":{"SeqNo":"586881","Type":"S","DHID":"de:05374:47134","Parent":"de:05374:47134","Name":"Bergneustadt Wilhelmstr.","MunicipalityCode":"05374004","Municipality":"Bergneustadt","DistrictCode":"","District":"","Description":"","Authority":"VRR","DelfiName":"-","THID":"D914FE00B81E","LastOperationDate":"2025-01-06T00:00:00","SEV":"nein","longitude":"7,640513","latitude":"51,018286","geojson_lng":7.640513,"geojson_lat":51.018286},"geometry":{"type":"Point","coordinates":[7.640513,51.018286]}},{"type":"Feature","properties":{"SeqNo":"586882","Type":"A","DHID":"de:05374:47134:2","Parent":"de:05374:47134","Name":"Wilhelmstr.","MunicipalityCode":"00000000","Municipality":"-","DistrictCode":"-","District":"-","Description":"","Authority":"VRR","DelfiName":"-","THID":"-","LastOperationDate":"","SEV":"nein","longitude":"7,641348","latitude":"51,018348","geojson_lng":7.641348,"geojson_lat":51.018348},"geometry":{"type":"Point","coordinates":[7.641348,51.018348]}},{"type":"Feature","properties":{"SeqNo":"586883","Type":"Q","DHID":"de:05374:47134:2:21","Parent":"de:05374:47134:2","Name":"","MunicipalityCode":"00000000","Municipality":"-","DistrictCode":"-","District":"-","Description":"","Authority":"VRR","DelfiName":"-","THID":"-","LastOperationDate":"","SEV":"nein","longitude":"7,641546","latitude":"51,018354","geojson_lng":7.641546,"geojson_lat":51.018354},"geometry":{"type":"Point","coordinates":[7.641546,51.018354]}},{"type":"Feature","properties":{"SeqNo":"586884","Type":"Q","DHID":"de:05374:47134:2:22","Parent":"de:05374:47134:2","Name":"","MunicipalityCode":"00000000","Municipality":"-","DistrictCode":"-","District":"-","Description":"","Authority":"VRR","DelfiName":"-","THID":"-","LastOperationDate":"","SEV":"nein","longitude":"7,640845","latitude":"51,018202","geojson_lng":7.640845,"geojson_lat":51.018202},"geometry":{"type":"Point","coordinates":[7.640845,51.018202]}},{"type":"Feature","properties":{"SeqNo":"586885","Type":"Q","DHID":"de:05374:47134:2:23","Parent":"de:05374:47134:2","Name":"","MunicipalityCode":"00000000","Municipality":"-","DistrictCode":"-","District":"-","Description":"","Authority":"VRR","DelfiName":"-","THID":"-","LastOperationDate":"","SEV":"nein","longitude":"7,640791","latitude":"51,018196","geojson_lng":7.640791,"geojson_lat":51.018196},"geometry":{"type":"Point","coordinates":[7.640791,51.018196]}}]}