{"type":"FeatureCollection","features":[{"type":"Feature","properties":{"SeqNo":"79850","Type":"S","DHID":"de:08417:30286","Parent":"de:08417:30286","Name":"Hausen i. K. Schulhof","MunicipalityCode":"08417013","Municipality":"Burladingen","DistrictCode":"","District":"","Description":"","Authority":"NVBW","DelfiName":"-","THID":"D920E100764E","LastOperationDate":"2025-06-06T00:00:00","SEV":"nein","longitude":"9,067666","latitude":"48,296737","geojson_lng":9.067666,"geojson_lat":48.296737},"geometry":{"type":"Point","coordinates":[9.067666,48.296737]}},{"type":"Feature","properties":{"SeqNo":"79851","Type":"Q","DHID":"de:08417:30286:0:1","Parent":"de:08417:30286","Name":"FR Starzeln","MunicipalityCode":"00000000","Municipality":"-","DistrictCode":"-","District":"-","Description":"","Authority":"NVBW","DelfiName":"-","THID":"-","LastOperationDate":"","SEV":"nein","longitude":"9,067666","latitude":"48,296743","geojson_lng":9.067666,"geojson_lat":48.296743},"geometry":{"type":"Point","coordinates":[9.067666,48.296743]}},{"type":"Feature","properties":{"SeqNo":"79852","Type":"Q","DHID":"de:08417:30286:0:2","Parent":"de:08417:30286","Name":"FR Burladingen","MunicipalityCode":"00000000","Municipality":"-","DistrictCode":"-","District":"-","Description":"","Authority":"NVBW","DelfiName":"-","THID":"-","LastOperationDate":"","SEV":"nein","longitude":"9,067657","latitude":"48,296725","geojson_lng":9.067657,"geojson_lat":48.296725},"geometry":{"type":"Point","coordinates":[9.067657,48.296725]}},{"type":"Feature","properties":{"SeqNo":"79853","Type":"S","DHID":"de:08417:30287","Parent":"de:08417:30287","Name":"Hausen i. K. Abzwg Onstmett.","MunicipalityCode":"08417013","Municipality":"Burladingen","DistrictCode":"","District":"","Description":"","Authority":"NVBW","DelfiName":"-","THID":"D920E100764F","LastOperationDate":"2025-06-13T00:00:00","SEV":"nein","longitude":"9,065223","latitude":"48,291077","geojson_lng":9.065223,"geojson_lat":48.291077},"geometry":{"type":"Point","coordinates":[9.065223,48.291077]}},{"type":"Feature","properties":{"SeqNo":"79854","Type":"Q","DHID":"de:08417:30287:0:1","Parent":"de:08417:30287","Name":"FR Albstadt","MunicipalityCode":"00000000","Municipality":"-","DistrictCode":"-","District":"-","Description":"","Authority":"NVBW","DelfiName":"-","THID":"-","LastOperationDate":"","SEV":"nein","longitude":"9,065061","latitude":"48,290718","geojson_lng":9.065061,"geojson_lat":48.290718},"geometry":{"type":"Point","coordinates":[9.065061,48.290718]}},{"type":"Feature","properties":{"SeqNo":"79855","Type":"Q","DHID":"de:08417:30287:0:2","Parent":"de:08417:30287","Name":"FR Hausen / Burladingen","MunicipalityCode":"00000000","Municipality":"-","DistrictCode":"-","District":"-","Description":"","Authority":"NVBW","DelfiName":"-","THID":"-","LastOperationDate":"","SEV":"nein","longitude":"9,065358","latitude":"48,29137","geojson_lng":9.065358,"geojson_lat":48.29137},"geometry":{"type":"Point","coordinates":[9.065358,48.29137]}},{"type":"Feature","properties":{"SeqNo":"79856","Type":"S","DHID":"de:08417:30288","Parent":"de:08417:30288","Name":"Hausen i. K. Kirche","MunicipalityCode":"08417013","Municipality":"Burladingen","DistrictCode":"","District":"","Description":"","Authority":"NVBW","DelfiName":"-","THID":"D920E1007650","LastOperationDate":"2025-06-13T00:00:00","SEV":"nein","longitude":"9,066588","latitude":"48,296886","geojson_lng":9.066588,"geojson_lat":48.296886},"geometry":{"type":"Point","coordinates":[9.066588,48.296886]}},{"type":"Feature","properties":{"SeqNo":"79857","Type":"Q","DHID":"de:08417:30288:0:1","Parent":"de:08417:30288","Name":"FR Albstatdt","MunicipalityCode":"00000000","Municipality":"-","DistrictCode":"-","District":"-","Description":"","Authority":"NVBW","DelfiName":"-","THID":"-","LastOperationDate":"","SEV":"nein","longitude":"9,066525","latitude":"48,296916","geojson_lng":9.066525,"geojson_lat":48.296916},"geometry":{"type":"Point","coordinates":[9.066525,48.296916]}},{"type":"Feature","properties":{"SeqNo":"79858","Type":"Q","DHID":"de:08417:30288:0:2","Parent":"de:08417:30288","Name":"FR Burladingen / Starzeln","MunicipalityCode":"00000000","Municipality":"-","DistrictCode":"-","District":"-","Description":"","Authority":"NVBW","DelfiName":"-","THID":"-","LastOperationDate":"","SEV":"nein","longitude":"9,066669","latitude":"48,296862","geojson_lng":9.066669,"geojson_lat":48.296862},"geometry":{"type":"Point","coordinates":[9.066669,48.296862]}}]}