{"type":"FeatureCollection","features":[{"type":"Feature","properties":{"SeqNo":"536000","Type":"S","DHID":"de:05154:35710","Parent":"de:05154:35710","Name":"Kleve Brienen Lüps'sche Straße","MunicipalityCode":"05154036","Municipality":"Kleve","DistrictCode":"","District":"","Description":"","Authority":"VRR","DelfiName":"-","THID":"D91422008B7E","LastOperationDate":"2025-06-14T00:00:00","SEV":"nein","longitude":"6,149175","latitude":"51,825889","geojson_lng":6.149175,"geojson_lat":51.825889},"geometry":{"type":"Point","coordinates":[6.149175,51.825889]}},{"type":"Feature","properties":{"SeqNo":"536001","Type":"Q","DHID":"de:05154:35710:0:1","Parent":"de:05154:35710","Name":"Hooger Geest","MunicipalityCode":"00000000","Municipality":"-","DistrictCode":"-","District":"-","Description":"","Authority":"VRR","DelfiName":"-","THID":"-","LastOperationDate":"","SEV":"nein","longitude":"6,148896","latitude":"51,825972","geojson_lng":6.148896,"geojson_lat":51.825972},"geometry":{"type":"Point","coordinates":[6.148896,51.825972]}},{"type":"Feature","properties":{"SeqNo":"536002","Type":"Q","DHID":"de:05154:35710:0:2","Parent":"de:05154:35710","Name":"Griethsn. Ortsmitte","MunicipalityCode":"00000000","Municipality":"-","DistrictCode":"-","District":"-","Description":"","Authority":"VRR","DelfiName":"-","THID":"-","LastOperationDate":"","SEV":"nein","longitude":"6,148923","latitude":"51,825922","geojson_lng":6.148923,"geojson_lat":51.825922},"geometry":{"type":"Point","coordinates":[6.148923,51.825922]}},{"type":"Feature","properties":{"SeqNo":"536006","Type":"S","DHID":"de:05154:35714","Parent":"de:05154:35714","Name":"Kleve Brienen Hooger Geest","MunicipalityCode":"05154036","Municipality":"Kleve","DistrictCode":"","District":"","Description":"","Authority":"VRR","DelfiName":"-","THID":"D91422008B82","LastOperationDate":"2025-06-14T00:00:00","SEV":"nein","longitude":"6,141288","latitude":"51,826106","geojson_lng":6.141288,"geojson_lat":51.826106},"geometry":{"type":"Point","coordinates":[6.141288,51.826106]}},{"type":"Feature","properties":{"SeqNo":"536007","Type":"Q","DHID":"de:05154:35714:0:1","Parent":"de:05154:35714","Name":"Zur Schleuse","MunicipalityCode":"00000000","Municipality":"-","DistrictCode":"-","District":"-","Description":"","Authority":"VRR","DelfiName":"-","THID":"-","LastOperationDate":"","SEV":"nein","longitude":"6,141314","latitude":"51,826233","geojson_lng":6.141314,"geojson_lat":51.826233},"geometry":{"type":"Point","coordinates":[6.141314,51.826233]}},{"type":"Feature","properties":{"SeqNo":"536008","Type":"Q","DHID":"de:05154:35714:0:2","Parent":"de:05154:35714","Name":"Lüps´sche Straße","MunicipalityCode":"00000000","Municipality":"-","DistrictCode":"-","District":"-","Description":"","Authority":"VRR","DelfiName":"-","THID":"-","LastOperationDate":"","SEV":"nein","longitude":"6,141458","latitude":"51,826206","geojson_lng":6.141458,"geojson_lat":51.826206},"geometry":{"type":"Point","coordinates":[6.141458,51.826206]}}]}