{"type":"FeatureCollection","features":[{"type":"Feature","properties":{"SeqNo":"597325","Type":"S","DHID":"de:05382:59237","Parent":"de:05382:59237","Name":"Eitorf Linkenbach","MunicipalityCode":"05382016","Municipality":"Eitorf","DistrictCode":"","District":"","Description":"","Authority":"VRR","DelfiName":"-","THID":"D9150600E765","LastOperationDate":"2025-01-06T00:00:00","SEV":"nein","longitude":"7,45493","latitude":"50,735344","geojson_lng":7.45493,"geojson_lat":50.735344},"geometry":{"type":"Point","coordinates":[7.45493,50.735344]}},{"type":"Feature","properties":{"SeqNo":"597326","Type":"A","DHID":"de:05382:59237:2","Parent":"de:05382:59237","Name":"Linkenbach","MunicipalityCode":"00000000","Municipality":"-","DistrictCode":"-","District":"-","Description":"","Authority":"VRR","DelfiName":"-","THID":"-","LastOperationDate":"","SEV":"nein","longitude":"7,45493","latitude":"50,735344","geojson_lng":7.45493,"geojson_lat":50.735344},"geometry":{"type":"Point","coordinates":[7.45493,50.735344]}},{"type":"Feature","properties":{"SeqNo":"597327","Type":"Q","DHID":"de:05382:59237:2:21","Parent":"de:05382:59237:2","Name":"","MunicipalityCode":"00000000","Municipality":"-","DistrictCode":"-","District":"-","Description":"","Authority":"VRR","DelfiName":"-","THID":"-","LastOperationDate":"","SEV":"nein","longitude":"7,454948","latitude":"50,735344","geojson_lng":7.454948,"geojson_lat":50.735344},"geometry":{"type":"Point","coordinates":[7.454948,50.735344]}},{"type":"Feature","properties":{"SeqNo":"597328","Type":"Q","DHID":"de:05382:59237:2:22","Parent":"de:05382:59237:2","Name":"","MunicipalityCode":"00000000","Municipality":"-","DistrictCode":"-","District":"-","Description":"","Authority":"VRR","DelfiName":"-","THID":"-","LastOperationDate":"","SEV":"nein","longitude":"7,454948","latitude":"50,735327","geojson_lng":7.454948,"geojson_lat":50.735327},"geometry":{"type":"Point","coordinates":[7.454948,50.735327]}},{"type":"Feature","properties":{"SeqNo":"597353","Type":"S","DHID":"de:05382:59256","Parent":"de:05382:59256","Name":"Eitorf Mühleip","MunicipalityCode":"05382016","Municipality":"Eitorf","DistrictCode":"","District":"","Description":"","Authority":"VRR","DelfiName":"-","THID":"D9150600E778","LastOperationDate":"2025-01-06T00:00:00","SEV":"nein","longitude":"7,449459","latitude":"50,732035","geojson_lng":7.449459,"geojson_lat":50.732035},"geometry":{"type":"Point","coordinates":[7.449459,50.732035]}},{"type":"Feature","properties":{"SeqNo":"597354","Type":"A","DHID":"de:05382:59256:2","Parent":"de:05382:59256","Name":"Mühleip","MunicipalityCode":"00000000","Municipality":"-","DistrictCode":"-","District":"-","Description":"","Authority":"VRR","DelfiName":"-","THID":"-","LastOperationDate":"","SEV":"nein","longitude":"7,449459","latitude":"50,732035","geojson_lng":7.449459,"geojson_lat":50.732035},"geometry":{"type":"Point","coordinates":[7.449459,50.732035]}},{"type":"Feature","properties":{"SeqNo":"597355","Type":"Q","DHID":"de:05382:59256:2:21","Parent":"de:05382:59256:2","Name":"","MunicipalityCode":"00000000","Municipality":"-","DistrictCode":"-","District":"-","Description":"","Authority":"VRR","DelfiName":"-","THID":"-","LastOperationDate":"","SEV":"nein","longitude":"7,450061","latitude":"50,732189","geojson_lng":7.450061,"geojson_lat":50.732189},"geometry":{"type":"Point","coordinates":[7.450061,50.732189]}},{"type":"Feature","properties":{"SeqNo":"597356","Type":"Q","DHID":"de:05382:59256:2:22","Parent":"de:05382:59256:2","Name":"","MunicipalityCode":"00000000","Municipality":"-","DistrictCode":"-","District":"-","Description":"","Authority":"VRR","DelfiName":"-","THID":"-","LastOperationDate":"","SEV":"nein","longitude":"7,450016","latitude":"50,732206","geojson_lng":7.450016,"geojson_lat":50.732206},"geometry":{"type":"Point","coordinates":[7.450016,50.732206]}},{"type":"Feature","properties":{"SeqNo":"597357","Type":"Q","DHID":"de:05382:59256:2:23","Parent":"de:05382:59256:2","Name":"","MunicipalityCode":"00000000","Municipality":"-","DistrictCode":"-","District":"-","Description":"","Authority":"VRR","DelfiName":"-","THID":"-","LastOperationDate":"","SEV":"nein","longitude":"7,44936","latitude":"50,731944","geojson_lng":7.44936,"geojson_lat":50.731944},"geometry":{"type":"Point","coordinates":[7.44936,50.731944]}},{"type":"Feature","properties":{"SeqNo":"597358","Type":"Q","DHID":"de:05382:59256:2:24","Parent":"de:05382:59256:2","Name":"","MunicipalityCode":"00000000","Municipality":"-","DistrictCode":"-","District":"-","Description":"","Authority":"VRR","DelfiName":"-","THID":"-","LastOperationDate":"","SEV":"nein","longitude":"7,449333","latitude":"50,731899","geojson_lng":7.449333,"geojson_lat":50.731899},"geometry":{"type":"Point","coordinates":[7.449333,50.731899]}}]}