{"type":"FeatureCollection","features":[{"type":"Feature","properties":{"SeqNo":"609149","Type":"S","DHID":"de:05382:59237","Parent":"de:05382:59237","Name":"Eitorf Linkenbach","Latitude":"50,735344","Longitude":"7,45493","MunicipalityCode":"05382016","Municipality":"Eitorf","DistrictCode":"","District":"","Description":"","Authority":"VRR","DelfiName":"-","THID":"D9150600E765","TariffProvider":"-","LastOperationDate":"2025-12-13T00:00:00","SEV":"nein","geojson_lng":7.45493,"geojson_lat":50.735344},"geometry":{"type":"Point","coordinates":[7.45493,50.735344]}},{"type":"Feature","properties":{"SeqNo":"609150","Type":"A","DHID":"de:05382:59237:2","Parent":"de:05382:59237","Name":"Linkenbach","Latitude":"50,735344","Longitude":"7,45493","MunicipalityCode":"00000000","Municipality":"-","DistrictCode":"-","District":"-","Description":"","Authority":"VRR","DelfiName":"-","THID":"-","TariffProvider":"-","LastOperationDate":"","SEV":"nein","geojson_lng":7.45493,"geojson_lat":50.735344},"geometry":{"type":"Point","coordinates":[7.45493,50.735344]}},{"type":"Feature","properties":{"SeqNo":"609151","Type":"Q","DHID":"de:05382:59237:2:21","Parent":"de:05382:59237:2","Name":"-","Latitude":"50,735344","Longitude":"7,454948","MunicipalityCode":"00000000","Municipality":"-","DistrictCode":"-","District":"-","Description":"","Authority":"VRR","DelfiName":"-","THID":"-","TariffProvider":"-","LastOperationDate":"","SEV":"nein","geojson_lng":7.454948,"geojson_lat":50.735344},"geometry":{"type":"Point","coordinates":[7.454948,50.735344]}},{"type":"Feature","properties":{"SeqNo":"609152","Type":"Q","DHID":"de:05382:59237:2:22","Parent":"de:05382:59237:2","Name":"-","Latitude":"50,735327","Longitude":"7,454948","MunicipalityCode":"00000000","Municipality":"-","DistrictCode":"-","District":"-","Description":"","Authority":"VRR","DelfiName":"-","THID":"-","TariffProvider":"-","LastOperationDate":"","SEV":"nein","geojson_lng":7.454948,"geojson_lat":50.735327},"geometry":{"type":"Point","coordinates":[7.454948,50.735327]}},{"type":"Feature","properties":{"SeqNo":"609177","Type":"S","DHID":"de:05382:59256","Parent":"de:05382:59256","Name":"Eitorf Mühleip","Latitude":"50,732035","Longitude":"7,449459","MunicipalityCode":"05382016","Municipality":"Eitorf","DistrictCode":"","District":"","Description":"","Authority":"VRR","DelfiName":"-","THID":"D9150600E778","TariffProvider":"-","LastOperationDate":"2025-12-13T00:00:00","SEV":"nein","geojson_lng":7.449459,"geojson_lat":50.732035},"geometry":{"type":"Point","coordinates":[7.449459,50.732035]}},{"type":"Feature","properties":{"SeqNo":"609178","Type":"A","DHID":"de:05382:59256:2","Parent":"de:05382:59256","Name":"Mühleip","Latitude":"50,732035","Longitude":"7,449459","MunicipalityCode":"00000000","Municipality":"-","DistrictCode":"-","District":"-","Description":"","Authority":"VRR","DelfiName":"-","THID":"-","TariffProvider":"-","LastOperationDate":"","SEV":"nein","geojson_lng":7.449459,"geojson_lat":50.732035},"geometry":{"type":"Point","coordinates":[7.449459,50.732035]}},{"type":"Feature","properties":{"SeqNo":"609179","Type":"Q","DHID":"de:05382:59256:2:21","Parent":"de:05382:59256:2","Name":"-","Latitude":"50,732189","Longitude":"7,450061","MunicipalityCode":"00000000","Municipality":"-","DistrictCode":"-","District":"-","Description":"","Authority":"VRR","DelfiName":"-","THID":"-","TariffProvider":"-","LastOperationDate":"","SEV":"nein","geojson_lng":7.450061,"geojson_lat":50.732189},"geometry":{"type":"Point","coordinates":[7.450061,50.732189]}},{"type":"Feature","properties":{"SeqNo":"609180","Type":"Q","DHID":"de:05382:59256:2:22","Parent":"de:05382:59256:2","Name":"-","Latitude":"50,732206","Longitude":"7,450016","MunicipalityCode":"00000000","Municipality":"-","DistrictCode":"-","District":"-","Description":"","Authority":"VRR","DelfiName":"-","THID":"-","TariffProvider":"-","LastOperationDate":"","SEV":"nein","geojson_lng":7.450016,"geojson_lat":50.732206},"geometry":{"type":"Point","coordinates":[7.450016,50.732206]}},{"type":"Feature","properties":{"SeqNo":"609181","Type":"Q","DHID":"de:05382:59256:2:23","Parent":"de:05382:59256:2","Name":"-","Latitude":"50,731944","Longitude":"7,44936","MunicipalityCode":"00000000","Municipality":"-","DistrictCode":"-","District":"-","Description":"","Authority":"VRR","DelfiName":"-","THID":"-","TariffProvider":"-","LastOperationDate":"","SEV":"nein","geojson_lng":7.44936,"geojson_lat":50.731944},"geometry":{"type":"Point","coordinates":[7.44936,50.731944]}},{"type":"Feature","properties":{"SeqNo":"609182","Type":"Q","DHID":"de:05382:59256:2:24","Parent":"de:05382:59256:2","Name":"-","Latitude":"50,731899","Longitude":"7,449333","MunicipalityCode":"00000000","Municipality":"-","DistrictCode":"-","District":"-","Description":"","Authority":"VRR","DelfiName":"-","THID":"-","TariffProvider":"-","LastOperationDate":"","SEV":"nein","geojson_lng":7.449333,"geojson_lat":50.731899},"geometry":{"type":"Point","coordinates":[7.449333,50.731899]}}]}