{"type":"FeatureCollection","features":[{"type":"Feature","properties":{"SeqNo":"168968","Type":"Q","DHID":"de:09279:11048:0:1","Parent":"de:09279:11048","Name":"Indersbach, Abzw. Voglau Ri. West","MunicipalityCode":"00000000","Municipality":"-","DistrictCode":"-","District":"-","Description":"","Authority":"BEG","DelfiName":"-","THID":"-","LastOperationDate":"","SEV":"nein","longitude":"12,827062","latitude":"48,61107","geojson_lng":12.827062,"geojson_lat":48.61107},"geometry":{"type":"Point","coordinates":[12.827062,48.61107]}},{"type":"Feature","properties":{"SeqNo":"169076","Type":"S","DHID":"de:09279:16592","Parent":"de:09279:16592","Name":"Rödlhub Abzw.","MunicipalityCode":"09279113","Municipality":"Eichendorf","DistrictCode":"","District":"","Description":"","Authority":"BEG","DelfiName":"-","THID":"D9243F0040D0","LastOperationDate":"2025-06-13T00:00:00","SEV":"nein","longitude":"12,825274","latitude":"48,615822","geojson_lng":12.825274,"geojson_lat":48.615822},"geometry":{"type":"Point","coordinates":[12.825274,48.615822]}},{"type":"Feature","properties":{"SeqNo":"169077","Type":"Q","DHID":"de:09279:16592:0:1","Parent":"de:09279:16592","Name":"Rödlhub Ri. Süd","MunicipalityCode":"00000000","Municipality":"-","DistrictCode":"-","District":"-","Description":"","Authority":"BEG","DelfiName":"-","THID":"-","LastOperationDate":"","SEV":"nein","longitude":"12,825274","latitude":"48,615822","geojson_lng":12.825274,"geojson_lat":48.615822},"geometry":{"type":"Point","coordinates":[12.825274,48.615822]}},{"type":"Feature","properties":{"SeqNo":"169078","Type":"Q","DHID":"de:09279:16592:0:2","Parent":"de:09279:16592","Name":"Rödlhub Ri. Nord","MunicipalityCode":"00000000","Municipality":"-","DistrictCode":"-","District":"-","Description":"","Authority":"BEG","DelfiName":"-","THID":"-","LastOperationDate":"","SEV":"nein","longitude":"12,825391","latitude":"48,615626","geojson_lng":12.825391,"geojson_lat":48.615626},"geometry":{"type":"Point","coordinates":[12.825391,48.615626]}},{"type":"Feature","properties":{"SeqNo":"169895","Type":"S","DHID":"de:09279:3449","Parent":"de:09279:3449","Name":"Grub Abzw.","MunicipalityCode":"09279113","Municipality":"Eichendorf","DistrictCode":"","District":"","Description":"","Authority":"BEG","DelfiName":"-","THID":"D9243F000D79","LastOperationDate":"2025-06-06T00:00:00","SEV":"nein","longitude":"12,824789","latitude":"48,61793","geojson_lng":12.824789,"geojson_lat":48.61793},"geometry":{"type":"Point","coordinates":[12.824789,48.61793]}},{"type":"Feature","properties":{"SeqNo":"169896","Type":"Q","DHID":"de:09279:3449:0:1","Parent":"de:09279:3449","Name":"Grub, Abzw, Ri. Süd","MunicipalityCode":"00000000","Municipality":"-","DistrictCode":"-","District":"-","Description":"","Authority":"BEG","DelfiName":"-","THID":"-","LastOperationDate":"","SEV":"nein","longitude":"12,824789","latitude":"48,61793","geojson_lng":12.824789,"geojson_lat":48.61793},"geometry":{"type":"Point","coordinates":[12.824789,48.61793]}},{"type":"Feature","properties":{"SeqNo":"169897","Type":"Q","DHID":"de:09279:3449:0:2","Parent":"de:09279:3449","Name":"Grub, Abzw, Ri. Nord","MunicipalityCode":"00000000","Municipality":"-","DistrictCode":"-","District":"-","Description":"","Authority":"BEG","DelfiName":"-","THID":"-","LastOperationDate":"","SEV":"nein","longitude":"12,824834","latitude":"48,617936","geojson_lng":12.824834,"geojson_lat":48.617936},"geometry":{"type":"Point","coordinates":[12.824834,48.617936]}}]}