{"type":"FeatureCollection","features":[{"type":"Feature","properties":{"SeqNo":"171753","Type":"S","DHID":"de:09362:12001","Parent":"de:09362:12001","Name":"An den Weichser Breiten","MunicipalityCode":"09362000","Municipality":"Regensburg","DistrictCode":"","District":"","Description":"","Authority":"BEG","DelfiName":"-","THID":"D92492002EE1","LastOperationDate":"2025-06-14T00:00:00","SEV":"nein","longitude":"12,117878","latitude":"49,024821","geojson_lng":12.117878,"geojson_lat":49.024821},"geometry":{"type":"Point","coordinates":[12.117878,49.024821]}},{"type":"Feature","properties":{"SeqNo":"171754","Type":"Q","DHID":"de:09362:12001:0:1","Parent":"de:09362:12001","Name":"An den Weichser Breiten","MunicipalityCode":"00000000","Municipality":"-","DistrictCode":"-","District":"-","Description":"","Authority":"BEG","DelfiName":"-","THID":"-","LastOperationDate":"","SEV":"nein","longitude":"12,118004","latitude":"49,025398","geojson_lng":12.118004,"geojson_lat":49.025398},"geometry":{"type":"Point","coordinates":[12.118004,49.025398]}},{"type":"Feature","properties":{"SeqNo":"171755","Type":"Q","DHID":"de:09362:12001:0:2","Parent":"de:09362:12001","Name":"An den Weichser Breiten","MunicipalityCode":"00000000","Municipality":"-","DistrictCode":"-","District":"-","Description":"","Authority":"BEG","DelfiName":"-","THID":"-","LastOperationDate":"","SEV":"nein","longitude":"12,117752","latitude":"49,024243","geojson_lng":12.117752,"geojson_lat":49.024243},"geometry":{"type":"Point","coordinates":[12.117752,49.024243]}},{"type":"Feature","properties":{"SeqNo":"171797","Type":"S","DHID":"de:09362:12016","Parent":"de:09362:12016","Name":"Gewerbepark/Donau-Arena","MunicipalityCode":"09362000","Municipality":"Regensburg","DistrictCode":"","District":"","Description":"","Authority":"BEG","DelfiName":"-","THID":"D92492002EF0","LastOperationDate":"2025-06-14T00:00:00","SEV":"nein","longitude":"12,129008","latitude":"49,029209","geojson_lng":12.129008,"geojson_lat":49.029209},"geometry":{"type":"Point","coordinates":[12.129008,49.029209]}},{"type":"Feature","properties":{"SeqNo":"171799","Type":"Q","DHID":"de:09362:12016:0:2","Parent":"de:09362:12016","Name":"Gewerbepark/Donau-Arena","MunicipalityCode":"00000000","Municipality":"-","DistrictCode":"-","District":"-","Description":"","Authority":"BEG","DelfiName":"-","THID":"-","LastOperationDate":"","SEV":"nein","longitude":"12,128182","latitude":"49,029174","geojson_lng":12.128182,"geojson_lat":49.029174},"geometry":{"type":"Point","coordinates":[12.128182,49.029174]}},{"type":"Feature","properties":{"SeqNo":"171946","Type":"S","DHID":"de:09362:12080","Parent":"de:09362:12080","Name":"Vilsstraße/Gewerbepark","MunicipalityCode":"09362000","Municipality":"Regensburg","DistrictCode":"","District":"","Description":"","Authority":"BEG","DelfiName":"-","THID":"D92492002F30","LastOperationDate":"2025-06-14T00:00:00","SEV":"nein","longitude":"12,123591","latitude":"49,029303","geojson_lng":12.123591,"geojson_lat":49.029303},"geometry":{"type":"Point","coordinates":[12.123591,49.029303]}},{"type":"Feature","properties":{"SeqNo":"171947","Type":"Q","DHID":"de:09362:12080:0:3","Parent":"de:09362:12080","Name":"Vilsstraße-Gewerbepark","MunicipalityCode":"00000000","Municipality":"-","DistrictCode":"-","District":"-","Description":"","Authority":"BEG","DelfiName":"-","THID":"-","LastOperationDate":"","SEV":"nein","longitude":"12,1244","latitude":"49,029074","geojson_lng":12.1244,"geojson_lat":49.029074},"geometry":{"type":"Point","coordinates":[12.1244,49.029074]}},{"type":"Feature","properties":{"SeqNo":"171948","Type":"Q","DHID":"de:09362:12080:0:4","Parent":"de:09362:12080","Name":"Vilsstraße-Gewerbepark","MunicipalityCode":"00000000","Municipality":"-","DistrictCode":"-","District":"-","Description":"","Authority":"BEG","DelfiName":"-","THID":"-","LastOperationDate":"","SEV":"nein","longitude":"12,123807","latitude":"49,02968","geojson_lng":12.123807,"geojson_lat":49.02968},"geometry":{"type":"Point","coordinates":[12.123807,49.02968]}},{"type":"Feature","properties":{"SeqNo":"171949","Type":"Q","DHID":"de:09362:12080:0:5","Parent":"de:09362:12080","Name":"Vilsstraße-Gewerbepark","MunicipalityCode":"00000000","Municipality":"-","DistrictCode":"-","District":"-","Description":"","Authority":"BEG","DelfiName":"-","THID":"-","LastOperationDate":"","SEV":"nein","longitude":"12,122567","latitude":"49,02915","geojson_lng":12.122567,"geojson_lat":49.02915},"geometry":{"type":"Point","coordinates":[12.122567,49.02915]}},{"type":"Feature","properties":{"SeqNo":"171959","Type":"S","DHID":"de:09362:12085","Parent":"de:09362:12085","Name":"Weichser Weg","MunicipalityCode":"09362000","Municipality":"Regensburg","DistrictCode":"","District":"","Description":"","Authority":"BEG","DelfiName":"-","THID":"D92492002F35","LastOperationDate":"2025-06-14T00:00:00","SEV":"nein","longitude":"12,118489","latitude":"49,028803","geojson_lng":12.118489,"geojson_lat":49.028803},"geometry":{"type":"Point","coordinates":[12.118489,49.028803]}},{"type":"Feature","properties":{"SeqNo":"171961","Type":"Q","DHID":"de:09362:12085:0:1","Parent":"de:09362:12085","Name":"Weichser Weg","MunicipalityCode":"00000000","Municipality":"-","DistrictCode":"-","District":"-","Description":"","Authority":"BEG","DelfiName":"-","THID":"-","LastOperationDate":"","SEV":"nein","longitude":"12,119666","latitude":"49,029079","geojson_lng":12.119666,"geojson_lat":49.029079},"geometry":{"type":"Point","coordinates":[12.119666,49.029079]}},{"type":"Feature","properties":{"SeqNo":"171962","Type":"Q","DHID":"de:09362:12085:0:2","Parent":"de:09362:12085","Name":"Weichser Weg","MunicipalityCode":"00000000","Municipality":"-","DistrictCode":"-","District":"-","Description":"","Authority":"BEG","DelfiName":"-","THID":"-","LastOperationDate":"","SEV":"nein","longitude":"12,118309","latitude":"49,028131","geojson_lng":12.118309,"geojson_lat":49.028131},"geometry":{"type":"Point","coordinates":[12.118309,49.028131]}},{"type":"Feature","properties":{"SeqNo":"171963","Type":"Q","DHID":"de:09362:12085:0:3","Parent":"de:09362:12085","Name":"Ausrückdummy","MunicipalityCode":"00000000","Municipality":"-","DistrictCode":"-","District":"-","Description":"","Authority":"BEG","DelfiName":"-","THID":"-","LastOperationDate":"","SEV":"nein","longitude":"12,118974","latitude":"49,028608","geojson_lng":12.118974,"geojson_lat":49.028608},"geometry":{"type":"Point","coordinates":[12.118974,49.028608]}},{"type":"Feature","properties":{"SeqNo":"171982","Type":"S","DHID":"de:09362:12103","Parent":"de:09362:12103","Name":"Regensburg, Gewerbepark Parkhaus Süd","MunicipalityCode":"09362000","Municipality":"Regensburg","DistrictCode":"","District":"","Description":"","Authority":"BEG","DelfiName":"-","THID":"D92492002F47","LastOperationDate":"2023-12-29T00:00:00","SEV":"nein","longitude":"12,12652","latitude":"49,029998","geojson_lng":12.12652,"geojson_lat":49.029998},"geometry":{"type":"Point","coordinates":[12.12652,49.029998]}},{"type":"Feature","properties":{"SeqNo":"171983","Type":"Q","DHID":"de:09362:12103:0:0","Parent":"de:09362:12103","Name":"Gewerbepark Parkhaus Süd","MunicipalityCode":"00000000","Municipality":"-","DistrictCode":"-","District":"-","Description":"","Authority":"BEG","DelfiName":"-","THID":"-","LastOperationDate":"","SEV":"nein","longitude":"12,126484","latitude":"49,029992","geojson_lng":12.126484,"geojson_lat":49.029992},"geometry":{"type":"Point","coordinates":[12.126484,49.029992]}},{"type":"Feature","properties":{"SeqNo":"171984","Type":"Q","DHID":"de:09362:12103:0:1","Parent":"de:09362:12103","Name":"Gewerbepark Parkhaus Süd","MunicipalityCode":"00000000","Municipality":"-","DistrictCode":"-","District":"-","Description":"","Authority":"BEG","DelfiName":"-","THID":"-","LastOperationDate":"","SEV":"nein","longitude":"12,126556","latitude":"49,03001","geojson_lng":12.126556,"geojson_lat":49.03001},"geometry":{"type":"Point","coordinates":[12.126556,49.03001]}}]}