{"type":"FeatureCollection","features":[{"type":"Feature","properties":{"SeqNo":"172265","Type":"S","DHID":"de:09362:14048","Parent":"de:09362:14048","Name":"Burgw. Römerstraße","MunicipalityCode":"09362000","Municipality":"Regensburg","DistrictCode":"","District":"","Description":"","Authority":"BEG","DelfiName":"-","THID":"D924920036E0","LastOperationDate":"2025-06-14T00:00:00","SEV":"nein","longitude":"12,125783","latitude":"48,989913","geojson_lng":12.125783,"geojson_lat":48.989913},"geometry":{"type":"Point","coordinates":[12.125783,48.989913]}},{"type":"Feature","properties":{"SeqNo":"172266","Type":"Q","DHID":"de:09362:14048:0:0","Parent":"de:09362:14048","Name":"Dummy","MunicipalityCode":"00000000","Municipality":"-","DistrictCode":"-","District":"-","Description":"","Authority":"BEG","DelfiName":"-","THID":"-","LastOperationDate":"","SEV":"nein","longitude":"12,125783","latitude":"48,989677","geojson_lng":12.125783,"geojson_lat":48.989677},"geometry":{"type":"Point","coordinates":[12.125783,48.989677]}},{"type":"Feature","properties":{"SeqNo":"172267","Type":"Q","DHID":"de:09362:14048:0:1","Parent":"de:09362:14048","Name":"Römerstraße","MunicipalityCode":"00000000","Municipality":"-","DistrictCode":"-","District":"-","Description":"","Authority":"BEG","DelfiName":"-","THID":"-","LastOperationDate":"","SEV":"nein","longitude":"12,126089","latitude":"48,990149","geojson_lng":12.126089,"geojson_lat":48.990149},"geometry":{"type":"Point","coordinates":[12.126089,48.990149]}},{"type":"Feature","properties":{"SeqNo":"172268","Type":"Q","DHID":"de:09362:14048:0:2","Parent":"de:09362:14048","Name":"Römerstraße","MunicipalityCode":"00000000","Municipality":"-","DistrictCode":"-","District":"-","Description":"","Authority":"BEG","DelfiName":"-","THID":"-","LastOperationDate":"","SEV":"nein","longitude":"12,125738","latitude":"48,989813","geojson_lng":12.125738,"geojson_lat":48.989813},"geometry":{"type":"Point","coordinates":[12.125738,48.989813]}},{"type":"Feature","properties":{"SeqNo":"172269","Type":"Q","DHID":"de:09362:14048:0:3","Parent":"de:09362:14048","Name":"Römerstraße","MunicipalityCode":"00000000","Municipality":"-","DistrictCode":"-","District":"-","Description":"","Authority":"BEG","DelfiName":"-","THID":"-","LastOperationDate":"","SEV":"nein","longitude":"12,125514","latitude":"48,989783","geojson_lng":12.125514,"geojson_lat":48.989783},"geometry":{"type":"Point","coordinates":[12.125514,48.989783]}},{"type":"Feature","properties":{"SeqNo":"172687","Type":"S","DHID":"de:09362:1724","Parent":"de:09362:1724","Name":"Lotte-Branz-Straße","MunicipalityCode":"09362000","Municipality":"Regensburg","DistrictCode":"","District":"","Description":"","Authority":"BEG","DelfiName":"-","THID":"D924920006BC","LastOperationDate":"2025-06-14T00:00:00","SEV":"nein","longitude":"12,121974","latitude":"48,989418","geojson_lng":12.121974,"geojson_lat":48.989418},"geometry":{"type":"Point","coordinates":[12.121974,48.989418]}},{"type":"Feature","properties":{"SeqNo":"172688","Type":"Q","DHID":"de:09362:1724:0:1","Parent":"de:09362:1724","Name":"Lotte-Branz-Straße","MunicipalityCode":"00000000","Municipality":"-","DistrictCode":"-","District":"-","Description":"","Authority":"BEG","DelfiName":"-","THID":"-","LastOperationDate":"","SEV":"nein","longitude":"12,121759","latitude":"48,989306","geojson_lng":12.121759,"geojson_lat":48.989306},"geometry":{"type":"Point","coordinates":[12.121759,48.989306]}},{"type":"Feature","properties":{"SeqNo":"172689","Type":"Q","DHID":"de:09362:1724:0:2","Parent":"de:09362:1724","Name":"Lotte-Branz-Straße","MunicipalityCode":"00000000","Municipality":"-","DistrictCode":"-","District":"-","Description":"","Authority":"BEG","DelfiName":"-","THID":"-","LastOperationDate":"","SEV":"nein","longitude":"12,12219","latitude":"48,989536","geojson_lng":12.12219,"geojson_lat":48.989536},"geometry":{"type":"Point","coordinates":[12.12219,48.989536]}},{"type":"Feature","properties":{"SeqNo":"172768","Type":"S","DHID":"de:09362:81","Parent":"de:09362:81","Name":"Lotte-Branz-Straße","MunicipalityCode":"09362000","Municipality":"Regensburg","DistrictCode":"","District":"","Description":"","Authority":"BEG","DelfiName":"-","THID":"D92492000051","LastOperationDate":"1999-12-31T00:00:00","SEV":"nein","longitude":"12,121768","latitude":"48,989312","geojson_lng":12.121768,"geojson_lat":48.989312},"geometry":{"type":"Point","coordinates":[12.121768,48.989312]}},{"type":"Feature","properties":{"SeqNo":"172769","Type":"Q","DHID":"de:09362:81:0:1","Parent":"de:09362:81","Name":"LBZ01","MunicipalityCode":"00000000","Municipality":"-","DistrictCode":"-","District":"-","Description":"","Authority":"BEG","DelfiName":"-","THID":"-","LastOperationDate":"","SEV":"nein","longitude":"12,121768","latitude":"48,989312","geojson_lng":12.121768,"geojson_lat":48.989312},"geometry":{"type":"Point","coordinates":[12.121768,48.989312]}},{"type":"Feature","properties":{"SeqNo":"172770","Type":"Q","DHID":"de:09362:81:0:2","Parent":"de:09362:81","Name":"LBZ02","MunicipalityCode":"00000000","Municipality":"-","DistrictCode":"-","District":"-","Description":"","Authority":"BEG","DelfiName":"-","THID":"-","LastOperationDate":"","SEV":"nein","longitude":"12,122208","latitude":"48,989536","geojson_lng":12.122208,"geojson_lat":48.989536},"geometry":{"type":"Point","coordinates":[12.122208,48.989536]}}]}