{"type":"FeatureCollection","features":[{"type":"Feature","properties":{"SeqNo":"848584","Type":"S","DHID":"de:14625:7610","Parent":"de:14625:7610","Name":"Seitschen Bahnhof","MunicipalityCode":"14625150","Municipality":"Göda","DistrictCode":"","District":"","Description":"","Authority":"VVO","DelfiName":"Seitschen, Bahnhof","THID":"D93921001DBA","LastOperationDate":"2025-06-13T00:00:00","SEV":"ja","longitude":"14,325622","latitude":"51,153922","geojson_lng":14.325622,"geojson_lat":51.153922},"geometry":{"type":"Point","coordinates":[14.325622,51.153922]}},{"type":"Feature","properties":{"SeqNo":"848585","Type":"A","DHID":"de:14625:7610:1","Parent":"de:14625:7610","Name":"Gleis 1","MunicipalityCode":"00000000","Municipality":"-","DistrictCode":"-","District":"-","Description":"","Authority":"VVO","DelfiName":"-","THID":"-","LastOperationDate":"","SEV":"nein","longitude":"14,326018","latitude":"51,153961","geojson_lng":14.326018,"geojson_lat":51.153961},"geometry":{"type":"Point","coordinates":[14.326018,51.153961]}},{"type":"Feature","properties":{"SeqNo":"848586","Type":"A","DHID":"de:14625:7610:2","Parent":"de:14625:7610","Name":"Gleis 2","MunicipalityCode":"00000000","Municipality":"-","DistrictCode":"-","District":"-","Description":"","Authority":"VVO","DelfiName":"-","THID":"-","LastOperationDate":"","SEV":"nein","longitude":"14,324976","latitude":"51,15355","geojson_lng":14.324976,"geojson_lat":51.15355},"geometry":{"type":"Point","coordinates":[14.324976,51.15355]}},{"type":"Feature","properties":{"SeqNo":"848588","Type":"A","DHID":"de:14625:7610:4","Parent":"de:14625:7610","Name":"Zugang","MunicipalityCode":"00000000","Municipality":"-","DistrictCode":"-","District":"-","Description":"","Authority":"VVO","DelfiName":"-","THID":"-","LastOperationDate":"","SEV":"nein","longitude":"14,325497","latitude":"51,153448","geojson_lng":14.325497,"geojson_lat":51.153448},"geometry":{"type":"Point","coordinates":[14.325497,51.153448]}},{"type":"Feature","properties":{"SeqNo":"848589","Type":"A","DHID":"de:14625:7610:5","Parent":"de:14625:7610","Name":"Tunnel","MunicipalityCode":"00000000","Municipality":"-","DistrictCode":"-","District":"-","Description":"","Authority":"VVO","DelfiName":"-","THID":"-","LastOperationDate":"","SEV":"nein","longitude":"14,32573","latitude":"51,153792","geojson_lng":14.32573,"geojson_lat":51.153792},"geometry":{"type":"Point","coordinates":[14.32573,51.153792]}},{"type":"Feature","properties":{"SeqNo":"848590","Type":"Q","DHID":"de:14625:7610:1:Gl.1","Parent":"de:14625:7610:1","Name":"Ri. Dresden","MunicipalityCode":"00000000","Municipality":"-","DistrictCode":"-","District":"-","Description":"","Authority":"VVO","DelfiName":"-","THID":"-","LastOperationDate":"","SEV":"nein","longitude":"14,324958","latitude":"51,153629","geojson_lng":14.324958,"geojson_lat":51.153629},"geometry":{"type":"Point","coordinates":[14.324958,51.153629]}},{"type":"Feature","properties":{"SeqNo":"848591","Type":"Q","DHID":"de:14625:7610:2:Gl.2","Parent":"de:14625:7610:2","Name":"Ri. Görlitz","MunicipalityCode":"00000000","Municipality":"-","DistrictCode":"-","District":"-","Description":"","Authority":"VVO","DelfiName":"-","THID":"-","LastOperationDate":"","SEV":"nein","longitude":"14,325039","latitude":"51,153601","geojson_lng":14.325039,"geojson_lat":51.153601},"geometry":{"type":"Point","coordinates":[14.325039,51.153601]}}]}