{"type":"FeatureCollection","features":[{"type":"Feature","properties":{"SeqNo":"847741","Type":"S","DHID":"de:14625:7229","Parent":"de:14625:7229","Name":"Neukirch Hotel Oberland","MunicipalityCode":"14625380","Municipality":"Neukirch/Lausitz","DistrictCode":"","District":"","Description":"","Authority":"VVO","DelfiName":"Neukirch (Lausitz), Hotel Oberland","THID":"D93921001C3D","LastOperationDate":"2025-06-14T00:00:00","SEV":"nein","longitude":"14,319622","latitude":"51,092848","geojson_lng":14.319622,"geojson_lat":51.092848},"geometry":{"type":"Point","coordinates":[14.319622,51.092848]}},{"type":"Feature","properties":{"SeqNo":"847742","Type":"Q","DHID":"de:14625:7229:0:1","Parent":"de:14625:7229","Name":"Ri. Ringenhain","MunicipalityCode":"00000000","Municipality":"-","DistrictCode":"-","District":"-","Description":"","Authority":"VVO","DelfiName":"-","THID":"-","LastOperationDate":"","SEV":"nein","longitude":"14,320251","latitude":"51,092657","geojson_lng":14.320251,"geojson_lat":51.092657},"geometry":{"type":"Point","coordinates":[14.320251,51.092657]}},{"type":"Feature","properties":{"SeqNo":"847743","Type":"Q","DHID":"de:14625:7229:0:2","Parent":"de:14625:7229","Name":"Ri. Putzkau","MunicipalityCode":"00000000","Municipality":"-","DistrictCode":"-","District":"-","Description":"","Authority":"VVO","DelfiName":"-","THID":"-","LastOperationDate":"","SEV":"nein","longitude":"14,319011","latitude":"51,09304","geojson_lng":14.319011,"geojson_lat":51.09304},"geometry":{"type":"Point","coordinates":[14.319011,51.09304]}},{"type":"Feature","properties":{"SeqNo":"847744","Type":"S","DHID":"de:14625:7230","Parent":"de:14625:7230","Name":"Neukirch (Lausitz) Bf Ost","MunicipalityCode":"14625380","Municipality":"Neukirch/Lausitz","DistrictCode":"","District":"","Description":"","Authority":"VVO","DelfiName":"Neukirch (Lausitz), Bf Ost","THID":"D93921001C3E","LastOperationDate":"2025-02-28T00:00:00","SEV":"ja","longitude":"14,321832","latitude":"51,090913","geojson_lng":14.321832,"geojson_lat":51.090913},"geometry":{"type":"Point","coordinates":[14.321832,51.090913]}},{"type":"Feature","properties":{"SeqNo":"847745","Type":"A","DHID":"de:14625:7230:1","Parent":"de:14625:7230","Name":"Gleis 1","MunicipalityCode":"00000000","Municipality":"-","DistrictCode":"-","District":"-","Description":"","Authority":"VVO","DelfiName":"-","THID":"-","LastOperationDate":"","SEV":"nein","longitude":"14,323035","latitude":"51,090772","geojson_lng":14.323035,"geojson_lat":51.090772},"geometry":{"type":"Point","coordinates":[14.323035,51.090772]}},{"type":"Feature","properties":{"SeqNo":"847746","Type":"A","DHID":"de:14625:7230:2","Parent":"de:14625:7230","Name":"Zugang","MunicipalityCode":"00000000","Municipality":"-","DistrictCode":"-","District":"-","Description":"","Authority":"VVO","DelfiName":"-","THID":"-","LastOperationDate":"","SEV":"nein","longitude":"14,322029","latitude":"51,091032","geojson_lng":14.322029,"geojson_lat":51.091032},"geometry":{"type":"Point","coordinates":[14.322029,51.091032]}},{"type":"Feature","properties":{"SeqNo":"847747","Type":"A","DHID":"de:14625:7230:3","Parent":"de:14625:7230","Name":"Bus","MunicipalityCode":"00000000","Municipality":"-","DistrictCode":"-","District":"-","Description":"","Authority":"VVO","DelfiName":"-","THID":"-","LastOperationDate":"","SEV":"ja","longitude":"14,321877","latitude":"51,091032","geojson_lng":14.321877,"geojson_lat":51.091032},"geometry":{"type":"Point","coordinates":[14.321877,51.091032]}},{"type":"Feature","properties":{"SeqNo":"847748","Type":"Q","DHID":"de:14625:7230:1:Gleis1","Parent":"de:14625:7230:1","Name":"Zittau/Dresden","MunicipalityCode":"00000000","Municipality":"-","DistrictCode":"-","District":"-","Description":"","Authority":"VVO","DelfiName":"-","THID":"-","LastOperationDate":"","SEV":"nein","longitude":"14,322092","latitude":"51,090783","geojson_lng":14.322092,"geojson_lat":51.090783},"geometry":{"type":"Point","coordinates":[14.322092,51.090783]}},{"type":"Feature","properties":{"SeqNo":"847749","Type":"Q","DHID":"de:14625:7230:3:1","Parent":"de:14625:7230:3","Name":"Ri. Steinigtwolmsdorf","MunicipalityCode":"00000000","Municipality":"-","DistrictCode":"-","District":"-","Description":"","Authority":"VVO","DelfiName":"-","THID":"-","LastOperationDate":"","SEV":"ja","longitude":"14,322317","latitude":"51,09102","geojson_lng":14.322317,"geojson_lat":51.09102},"geometry":{"type":"Point","coordinates":[14.322317,51.09102]}},{"type":"Feature","properties":{"SeqNo":"847750","Type":"Q","DHID":"de:14625:7230:3:2","Parent":"de:14625:7230:3","Name":"Ri. Weißnaußlitz","MunicipalityCode":"00000000","Municipality":"-","DistrictCode":"-","District":"-","Description":"","Authority":"VVO","DelfiName":"-","THID":"-","LastOperationDate":"","SEV":"ja","longitude":"14,321347","latitude":"51,091082","geojson_lng":14.321347,"geojson_lat":51.091082},"geometry":{"type":"Point","coordinates":[14.321347,51.091082]}},{"type":"Feature","properties":{"SeqNo":"847751","Type":"S","DHID":"de:14625:7231","Parent":"de:14625:7231","Name":"Neukirch Bautzener Straße","MunicipalityCode":"14625380","Municipality":"Neukirch/Lausitz","DistrictCode":"","District":"","Description":"","Authority":"VVO","DelfiName":"Neukirch (Lausitz), Bautzener Straße","THID":"D93921001C3F","LastOperationDate":"2025-06-14T00:00:00","SEV":"nein","longitude":"14,320709","latitude":"51,093486","geojson_lng":14.320709,"geojson_lat":51.093486},"geometry":{"type":"Point","coordinates":[14.320709,51.093486]}},{"type":"Feature","properties":{"SeqNo":"847752","Type":"Q","DHID":"de:14625:7231:0:1","Parent":"de:14625:7231","Name":"Ri. Steinigtwolmsdorf","MunicipalityCode":"00000000","Municipality":"-","DistrictCode":"-","District":"-","Description":"","Authority":"VVO","DelfiName":"-","THID":"-","LastOperationDate":"","SEV":"nein","longitude":"14,320664","latitude":"51,093531","geojson_lng":14.320664,"geojson_lat":51.093531},"geometry":{"type":"Point","coordinates":[14.320664,51.093531]}},{"type":"Feature","properties":{"SeqNo":"847753","Type":"Q","DHID":"de:14625:7231:0:2","Parent":"de:14625:7231","Name":"Ri. Kirschau","MunicipalityCode":"00000000","Municipality":"-","DistrictCode":"-","District":"-","Description":"","Authority":"VVO","DelfiName":"-","THID":"-","LastOperationDate":"","SEV":"nein","longitude":"14,320754","latitude":"51,093435","geojson_lng":14.320754,"geojson_lat":51.093435},"geometry":{"type":"Point","coordinates":[14.320754,51.093435]}}]}