{"type":"FeatureCollection","features":[{"type":"Feature","properties":{"SeqNo":"848197","Type":"S","DHID":"de:14625:7428","Parent":"de:14625:7428","Name":"Gaußig Kirche","MunicipalityCode":"14625110","Municipality":"Doberschau-Gaußig","DistrictCode":"","District":"","Description":"","Authority":"VVO","DelfiName":"Gaußig, Kirche","THID":"D93921001D04","LastOperationDate":"2025-06-14T00:00:00","SEV":"nein","longitude":"14,315031","latitude":"51,134552","geojson_lng":14.315031,"geojson_lat":51.134552},"geometry":{"type":"Point","coordinates":[14.315031,51.134552]}},{"type":"Feature","properties":{"SeqNo":"848198","Type":"Q","DHID":"de:14625:7428:0:1","Parent":"de:14625:7428","Name":"Ri. Naundorf","MunicipalityCode":"00000000","Municipality":"-","DistrictCode":"-","District":"-","Description":"","Authority":"VVO","DelfiName":"-","THID":"-","LastOperationDate":"","SEV":"nein","longitude":"14,315085","latitude":"51,13462","geojson_lng":14.315085,"geojson_lat":51.13462},"geometry":{"type":"Point","coordinates":[14.315085,51.13462]}},{"type":"Feature","properties":{"SeqNo":"848199","Type":"Q","DHID":"de:14625:7428:0:2","Parent":"de:14625:7428","Name":"Ri. Bautzen","MunicipalityCode":"00000000","Municipality":"-","DistrictCode":"-","District":"-","Description":"","Authority":"VVO","DelfiName":"-","THID":"-","LastOperationDate":"","SEV":"nein","longitude":"14,315022","latitude":"51,134518","geojson_lng":14.315022,"geojson_lat":51.134518},"geometry":{"type":"Point","coordinates":[14.315022,51.134518]}},{"type":"Feature","properties":{"SeqNo":"848203","Type":"S","DHID":"de:14625:7432","Parent":"de:14625:7432","Name":"Gaußig Busplatz","MunicipalityCode":"14625110","Municipality":"Doberschau-Gaußig","DistrictCode":"","District":"","Description":"","Authority":"VVO","DelfiName":"Gaußig, Busplatz","THID":"D93921001D08","LastOperationDate":"2025-06-14T00:00:00","SEV":"nein","longitude":"14,317969","latitude":"51,135995","geojson_lng":14.317969,"geojson_lat":51.135995},"geometry":{"type":"Point","coordinates":[14.317969,51.135995]}},{"type":"Feature","properties":{"SeqNo":"848204","Type":"Q","DHID":"de:14625:7432:0:1","Parent":"de:14625:7432","Name":"1","MunicipalityCode":"00000000","Municipality":"-","DistrictCode":"-","District":"-","Description":"","Authority":"VVO","DelfiName":"-","THID":"-","LastOperationDate":"","SEV":"nein","longitude":"14,317636","latitude":"51,135786","geojson_lng":14.317636,"geojson_lat":51.135786},"geometry":{"type":"Point","coordinates":[14.317636,51.135786]}},{"type":"Feature","properties":{"SeqNo":"848205","Type":"Q","DHID":"de:14625:7432:0:2","Parent":"de:14625:7432","Name":"2","MunicipalityCode":"00000000","Municipality":"-","DistrictCode":"-","District":"-","Description":"","Authority":"VVO","DelfiName":"-","THID":"-","LastOperationDate":"","SEV":"nein","longitude":"14,317816","latitude":"51,135944","geojson_lng":14.317816,"geojson_lat":51.135944},"geometry":{"type":"Point","coordinates":[14.317816,51.135944]}},{"type":"Feature","properties":{"SeqNo":"848206","Type":"Q","DHID":"de:14625:7432:0:3","Parent":"de:14625:7432","Name":"3","MunicipalityCode":"00000000","Municipality":"-","DistrictCode":"-","District":"-","Description":"","Authority":"VVO","DelfiName":"-","THID":"-","LastOperationDate":"","SEV":"nein","longitude":"14,318014","latitude":"51,136119","geojson_lng":14.318014,"geojson_lat":51.136119},"geometry":{"type":"Point","coordinates":[14.318014,51.136119]}},{"type":"Feature","properties":{"SeqNo":"848207","Type":"Q","DHID":"de:14625:7432:0:4","Parent":"de:14625:7432","Name":"4","MunicipalityCode":"00000000","Municipality":"-","DistrictCode":"-","District":"-","Description":"","Authority":"VVO","DelfiName":"-","THID":"-","LastOperationDate":"","SEV":"nein","longitude":"14,31822","latitude":"51,136277","geojson_lng":14.31822,"geojson_lat":51.136277},"geometry":{"type":"Point","coordinates":[14.31822,51.136277]}}]}