{"type":"FeatureCollection","features":[{"type":"Feature","properties":{"SeqNo":"238007","Type":"S","DHID":"de:09677:29015","Parent":"de:09677:29015","Name":"Himmelstadt Hauptstraße","MunicipalityCode":"09677142","Municipality":"Himmelstadt","DistrictCode":"","District":"","Description":"","Authority":"BEG","DelfiName":"-","THID":"D925CD007157","LastOperationDate":"2025-02-28T00:00:00","SEV":"nein","longitude":"9,800323","latitude":"49,925403","geojson_lng":9.800323,"geojson_lat":49.925403},"geometry":{"type":"Point","coordinates":[9.800323,49.925403]}},{"type":"Feature","properties":{"SeqNo":"238008","Type":"Q","DHID":"de:09677:29015:0:1","Parent":"de:09677:29015","Name":"Himmelstadt Hauptstraße, Mast 1","MunicipalityCode":"00000000","Municipality":"-","DistrictCode":"-","District":"-","Description":"","Authority":"BEG","DelfiName":"-","THID":"-","LastOperationDate":"","SEV":"nein","longitude":"9,800323","latitude":"49,925403","geojson_lng":9.800323,"geojson_lat":49.925403},"geometry":{"type":"Point","coordinates":[9.800323,49.925403]}},{"type":"Feature","properties":{"SeqNo":"238009","Type":"Q","DHID":"de:09677:29015:0:2","Parent":"de:09677:29015","Name":"Himmelstadt Hauptstraße, Mast 2","MunicipalityCode":"00000000","Municipality":"-","DistrictCode":"-","District":"-","Description":"","Authority":"BEG","DelfiName":"-","THID":"-","LastOperationDate":"","SEV":"nein","longitude":"9,800323","latitude":"49,925403","geojson_lng":9.800323,"geojson_lat":49.925403},"geometry":{"type":"Point","coordinates":[9.800323,49.925403]}},{"type":"Feature","properties":{"SeqNo":"238258","Type":"S","DHID":"de:09677:29249","Parent":"de:09677:29249","Name":"Himmelstadt Denkmal,Himmelstadt","MunicipalityCode":"09677142","Municipality":"Himmelstadt","DistrictCode":"-","District":"-","Description":"","Authority":"BEG","DelfiName":"-","THID":"D925CD007241","LastOperationDate":"1999-12-31T00:00:00","SEV":"nein","longitude":"9,801338","latitude":"49,924848","geojson_lng":9.801338,"geojson_lat":49.924848},"geometry":{"type":"Point","coordinates":[9.801338,49.924848]}},{"type":"Feature","properties":{"SeqNo":"238259","Type":"Q","DHID":"de:09677:29249:0:1","Parent":"de:09677:29249","Name":"1","MunicipalityCode":"00000000","Municipality":"-","DistrictCode":"-","District":"-","Description":"Himmelstadt Denkmal, Mast 1","Authority":"BEG","DelfiName":"-","THID":"-","LastOperationDate":"","SEV":"nein","longitude":"9,801338","latitude":"49,924848","geojson_lng":9.801338,"geojson_lat":49.924848},"geometry":{"type":"Point","coordinates":[9.801338,49.924848]}},{"type":"Feature","properties":{"SeqNo":"238260","Type":"Q","DHID":"de:09677:29249:0:2","Parent":"de:09677:29249","Name":"2","MunicipalityCode":"00000000","Municipality":"-","DistrictCode":"-","District":"-","Description":"Himmelstadt Denkmal, Mast 2","Authority":"BEG","DelfiName":"-","THID":"-","LastOperationDate":"","SEV":"nein","longitude":"9,801338","latitude":"49,924848","geojson_lng":9.801338,"geojson_lat":49.924848},"geometry":{"type":"Point","coordinates":[9.801338,49.924848]}},{"type":"Feature","properties":{"SeqNo":"238580","Type":"S","DHID":"de:09677:75201","Parent":"de:09677:75201","Name":"Himmelstadt","MunicipalityCode":"09677142","Municipality":"Himmelstadt","DistrictCode":"","District":"","Description":"","Authority":"BEG","DelfiName":"-","THID":"D925CD0125C1","LastOperationDate":"2025-02-22T00:00:00","SEV":"nein","longitude":"9,808219","latitude":"49,923437","geojson_lng":9.808219,"geojson_lat":49.923437},"geometry":{"type":"Point","coordinates":[9.808219,49.923437]}},{"type":"Feature","properties":{"SeqNo":"238581","Type":"A","DHID":"de:09677:75201:1","Parent":"de:09677:75201","Name":"Zug->WÜ","MunicipalityCode":"00000000","Municipality":"-","DistrictCode":"-","District":"-","Description":"","Authority":"BEG","DelfiName":"-","THID":"-","LastOperationDate":"","SEV":"nein","longitude":"9,808175","latitude":"49,923553","geojson_lng":9.808175,"geojson_lat":49.923553},"geometry":{"type":"Point","coordinates":[9.808175,49.923553]}},{"type":"Feature","properties":{"SeqNo":"238582","Type":"A","DHID":"de:09677:75201:2","Parent":"de:09677:75201","Name":"Zug->Gemünden","MunicipalityCode":"00000000","Municipality":"-","DistrictCode":"-","District":"-","Description":"","Authority":"BEG","DelfiName":"-","THID":"-","LastOperationDate":"","SEV":"nein","longitude":"9,808345","latitude":"49,923558","geojson_lng":9.808345,"geojson_lat":49.923558},"geometry":{"type":"Point","coordinates":[9.808345,49.923558]}},{"type":"Feature","properties":{"SeqNo":"238587","Type":"Q","DHID":"de:09677:75201:1:1","Parent":"de:09677:75201:1","Name":"Gleis 1","MunicipalityCode":"00000000","Municipality":"-","DistrictCode":"-","District":"-","Description":"","Authority":"BEG","DelfiName":"-","THID":"-","LastOperationDate":"","SEV":"nein","longitude":"9,808219","latitude":"49,923645","geojson_lng":9.808219,"geojson_lat":49.923645},"geometry":{"type":"Point","coordinates":[9.808219,49.923645]}},{"type":"Feature","properties":{"SeqNo":"238588","Type":"Q","DHID":"de:09677:75201:2:2","Parent":"de:09677:75201:2","Name":"Gleis 2","MunicipalityCode":"00000000","Municipality":"-","DistrictCode":"-","District":"-","Description":"","Authority":"BEG","DelfiName":"-","THID":"-","LastOperationDate":"","SEV":"nein","longitude":"9,8083","latitude":"49,923651","geojson_lng":9.8083,"geojson_lat":49.923651},"geometry":{"type":"Point","coordinates":[9.8083,49.923651]}}]}