{"type":"FeatureCollection","features":[{"type":"Feature","properties":{"SeqNo":"91741","Type":"S","DHID":"de:08436:48142","Parent":"de:08436:48142","Name":"Bad Waldsee Mennisweiler","MunicipalityCode":"08436009","Municipality":"Bad Waldsee","DistrictCode":"","District":"","Description":"","Authority":"NVBW","DelfiName":"-","THID":"D920F400BC0E","LastOperationDate":"2025-06-14T00:00:00","SEV":"nein","longitude":"9,800494","latitude":"47,882227","geojson_lng":9.800494,"geojson_lat":47.882227},"geometry":{"type":"Point","coordinates":[9.800494,47.882227]}},{"type":"Feature","properties":{"SeqNo":"91742","Type":"Q","DHID":"de:08436:48142:0:1","Parent":"de:08436:48142","Name":"Steig 1","MunicipalityCode":"00000000","Municipality":"-","DistrictCode":"-","District":"-","Description":"","Authority":"NVBW","DelfiName":"-","THID":"-","LastOperationDate":"","SEV":"nein","longitude":"9,800548","latitude":"47,8823","geojson_lng":9.800548,"geojson_lat":47.8823},"geometry":{"type":"Point","coordinates":[9.800548,47.8823]}},{"type":"Feature","properties":{"SeqNo":"91886","Type":"S","DHID":"de:08436:48201","Parent":"de:08436:48201","Name":"Bad Wurzach Zwings","MunicipalityCode":"08436010","Municipality":"Bad Wurzach","DistrictCode":"-","District":"-","Description":"","Authority":"NVBW","DelfiName":"-","THID":"D920F400BC49","LastOperationDate":"2025-06-14T00:00:00","SEV":"nein","longitude":"9,810582","latitude":"47,886143","geojson_lng":9.810582,"geojson_lat":47.886143},"geometry":{"type":"Point","coordinates":[9.810582,47.886143]}},{"type":"Feature","properties":{"SeqNo":"91887","Type":"Q","DHID":"de:08436:48201:0:1","Parent":"de:08436:48201","Name":"1","MunicipalityCode":"00000000","Municipality":"-","DistrictCode":"-","District":"-","Description":"Steig 1","Authority":"NVBW","DelfiName":"-","THID":"-","LastOperationDate":"","SEV":"nein","longitude":"9,810277","latitude":"47,885981","geojson_lng":9.810277,"geojson_lat":47.885981},"geometry":{"type":"Point","coordinates":[9.810277,47.885981]}},{"type":"Feature","properties":{"SeqNo":"91888","Type":"Q","DHID":"de:08436:48201:0:2","Parent":"de:08436:48201","Name":"2","MunicipalityCode":"00000000","Municipality":"-","DistrictCode":"-","District":"-","Description":"Steig 2","Authority":"NVBW","DelfiName":"-","THID":"-","LastOperationDate":"","SEV":"nein","longitude":"9,81025","latitude":"47,885776","geojson_lng":9.81025,"geojson_lat":47.885776},"geometry":{"type":"Point","coordinates":[9.81025,47.885776]}}]}