{"type":"FeatureCollection","features":[{"type":"Feature","properties":{"highway":"bus_stop","public_transport":"platform","name":"Jan van Riebeeckstraat","ref:IFOPT":"NL:Q:51670660","_quaycode":"NL:Q:51670660","_town":"Culemborg","_status":"available","_mode":"bus","_direction":57,"_visuallyAccessible":false,"_disabledAccessible":true,"geojson_lng":5.219516116483797,"geojson_lat":51.95084391606439},"geometry":{"type":"Point","coordinates":[5.219516116483797,51.95084391606439]}},{"type":"Feature","properties":{"highway":"bus_stop","public_transport":"platform","name":"Wijsenbeekweg","ref:IFOPT":"NL:Q:51671300","_quaycode":"NL:Q:51671300","_town":"Culemborg","_status":"available","_mode":"bus","_direction":217,"_visuallyAccessible":false,"_disabledAccessible":false,"geojson_lng":5.219373901041773,"geojson_lat":51.94607995062135},"geometry":{"type":"Point","coordinates":[5.219373901041773,51.94607995062135]}},{"type":"Feature","properties":{"highway":"bus_stop","public_transport":"platform","name":"Stationssingel","ref:IFOPT":"NL:Q:51670830","_quaycode":"NL:Q:51670830","_town":"Culemborg","_status":"available","_mode":"bus","_direction":238,"_visuallyAccessible":false,"_disabledAccessible":true,"geojson_lng":5.22552645201277,"geojson_lat":51.95006136149325},"geometry":{"type":"Point","coordinates":[5.22552645201277,51.95006136149325]}},{"type":"Feature","properties":{"highway":"bus_stop","public_transport":"platform","name":"Stationssingel","ref:IFOPT":"NL:Q:51670820","_quaycode":"NL:Q:51670820","_town":"Culemborg","_status":"available","_mode":"bus","_direction":57,"_visuallyAccessible":true,"_disabledAccessible":false,"geojson_lng":5.226310762924739,"geojson_lat":51.950386012438734},"geometry":{"type":"Point","coordinates":[5.226310762924739,51.950386012438734]}},{"type":"Feature","properties":{"highway":"bus_stop","public_transport":"platform","name":"Vicarystraat","ref:IFOPT":"NL:Q:51670690","_quaycode":"NL:Q:51670690","_town":"Culemborg","_status":"available","_mode":"bus","_direction":315,"_visuallyAccessible":false,"_disabledAccessible":true,"geojson_lng":5.223419581868524,"geojson_lat":51.94943826074556},"geometry":{"type":"Point","coordinates":[5.223419581868524,51.94943826074556]}},{"type":"Feature","properties":{"highway":"bus_stop","public_transport":"platform","name":"Jan van Riebeeckstraat","ref:IFOPT":"NL:Q:51670650","_quaycode":"NL:Q:51670650","_town":"Culemborg","_status":"available","_mode":"bus","_direction":237,"_visuallyAccessible":false,"_disabledAccessible":false,"geojson_lng":5.219428773506581,"geojson_lat":51.950861768049094},"geometry":{"type":"Point","coordinates":[5.219428773506581,51.950861768049094]}},{"type":"Feature","properties":{"highway":"bus_stop","public_transport":"platform","name":"Vicarystraat","ref:IFOPT":"NL:Q:51670200","_quaycode":"NL:Q:51670200","_town":"Culemborg","_status":"available","_mode":"bus","_direction":135,"_visuallyAccessible":false,"_disabledAccessible":false,"geojson_lng":5.223172045511911,"geojson_lat":51.94950982185959},"geometry":{"type":"Point","coordinates":[5.223172045511911,51.94950982185959]}},{"type":"Feature","properties":{"highway":"bus_stop","public_transport":"platform","name":"Wijsenbeekweg","ref:IFOPT":"NL:Q:51671310","_quaycode":"NL:Q:51671310","_town":"Culemborg","_status":"available","_mode":"bus","_direction":44,"_visuallyAccessible":false,"_disabledAccessible":true,"geojson_lng":5.2192874067729855,"geojson_lat":51.945873097846714},"geometry":{"type":"Point","coordinates":[5.2192874067729855,51.945873097846714]}},{"type":"Feature","properties":{"highway":"bus_stop","public_transport":"platform","name":"Station","ref:IFOPT":"NL:Q:91000097","_quaycode":"NL:Q:91000097","_town":"Culemborg","_status":"available","_mode":"bus","_direction":200,"_visuallyAccessible":false,"_disabledAccessible":false,"geojson_lng":5.227174464619975,"geojson_lat":51.94726641583425},"geometry":{"type":"Point","coordinates":[5.227174464619975,51.94726641583425]}},{"type":"Feature","properties":{"highway":"bus_stop","public_transport":"platform","name":"Station","ref:IFOPT":"NL:Q:51670140","_quaycode":"NL:Q:51670140","_town":"Culemborg","_status":"available","_mode":"bus","_direction":200,"_visuallyAccessible":false,"_disabledAccessible":false,"geojson_lng":5.227011190451,"geojson_lat":51.9472204006787},"geometry":{"type":"Point","coordinates":[5.227011190451,51.9472204006787]}},{"type":"Feature","properties":{"highway":"bus_stop","public_transport":"platform","name":"Station","ref:IFOPT":"NL:Q:51670130","_quaycode":"NL:Q:51670130","_town":"Culemborg","_status":"available","_mode":"bus","_direction":200,"_visuallyAccessible":false,"_disabledAccessible":false,"geojson_lng":5.2271122033842055,"geojson_lat":51.94738999961564},"geometry":{"type":"Point","coordinates":[5.2271122033842055,51.94738999961564]}}]}