{"type":"FeatureCollection","features":[{"type":"Feature","properties":{"SeqNo":"111417","Type":"S","DHID":"de:09162:25","Parent":"de:09162:25","Name":"Alter Messeplatz","Latitude":"48,134553","Longitude":"11,546307","MunicipalityCode":"09162000","Municipality":"München","DistrictCode":"","District":"","Description":"","Authority":"BEG","DelfiName":"-","THID":"D923CA000019","TariffProvider":"-","LastOperationDate":"2025-12-13T00:00:00","SEV":"nein","geojson_lng":11.546307,"geojson_lat":48.134553},"geometry":{"type":"Point","coordinates":[11.546307,48.134553]}},{"type":"Feature","properties":{"SeqNo":"111418","Type":"A","DHID":"de:09162:25:1","Parent":"de:09162:25","Name":"Steig 1","Latitude":"48,134637","Longitude":"11,546253","MunicipalityCode":"00000000","Municipality":"-","DistrictCode":"-","District":"-","Description":"","Authority":"BEG","DelfiName":"-","THID":"-","TariffProvider":"-","LastOperationDate":"","SEV":"nein","geojson_lng":11.546253,"geojson_lat":48.134637},"geometry":{"type":"Point","coordinates":[11.546253,48.134637]}},{"type":"Feature","properties":{"SeqNo":"111419","Type":"A","DHID":"de:09162:25:2","Parent":"de:09162:25","Name":"Steig 2","Latitude":"48,134476","Longitude":"11,546361","MunicipalityCode":"00000000","Municipality":"-","DistrictCode":"-","District":"-","Description":"","Authority":"BEG","DelfiName":"-","THID":"-","TariffProvider":"-","LastOperationDate":"","SEV":"nein","geojson_lng":11.546361,"geojson_lat":48.134476},"geometry":{"type":"Point","coordinates":[11.546361,48.134476]}},{"type":"Feature","properties":{"SeqNo":"111420","Type":"Q","DHID":"de:09162:25:1:1","Parent":"de:09162:25:1","Name":"1","Latitude":"48,134637","Longitude":"11,546253","MunicipalityCode":"00000000","Municipality":"-","DistrictCode":"-","District":"-","Description":"","Authority":"BEG","DelfiName":"-","THID":"-","TariffProvider":"-","LastOperationDate":"","SEV":"nein","geojson_lng":11.546253,"geojson_lat":48.134637},"geometry":{"type":"Point","coordinates":[11.546253,48.134637]}},{"type":"Feature","properties":{"SeqNo":"111421","Type":"Q","DHID":"de:09162:25:2:2","Parent":"de:09162:25:2","Name":"2","Latitude":"48,134476","Longitude":"11,546361","MunicipalityCode":"00000000","Municipality":"-","DistrictCode":"-","District":"-","Description":"","Authority":"BEG","DelfiName":"-","THID":"-","TariffProvider":"-","LastOperationDate":"","SEV":"nein","geojson_lng":11.546361,"geojson_lat":48.134476},"geometry":{"type":"Point","coordinates":[11.546361,48.134476]}},{"type":"Feature","properties":{"SeqNo":"111422","Type":"S","DHID":"de:09162:250","Parent":"de:09162:250","Name":"Schwanthalerhöhe","Latitude":"48,133858","Longitude":"11,540171","MunicipalityCode":"09162000","Municipality":"München","DistrictCode":"","District":"","Description":"","Authority":"BEG","DelfiName":"-","THID":"D923CA0000FA","TariffProvider":"-","LastOperationDate":"2025-12-13T00:00:00","SEV":"nein","geojson_lng":11.540171,"geojson_lat":48.133858},"geometry":{"type":"Point","coordinates":[11.540171,48.133858]}},{"type":"Feature","properties":{"SeqNo":"111423","Type":"A","DHID":"de:09162:250:1","Parent":"de:09162:250","Name":"Steig 1","Latitude":"48,133636","Longitude":"11,539659","MunicipalityCode":"00000000","Municipality":"-","DistrictCode":"-","District":"-","Description":"","Authority":"BEG","DelfiName":"-","THID":"-","TariffProvider":"-","LastOperationDate":"","SEV":"nein","geojson_lng":11.539659,"geojson_lat":48.133636},"geometry":{"type":"Point","coordinates":[11.539659,48.133636]}},{"type":"Feature","properties":{"SeqNo":"111424","Type":"A","DHID":"de:09162:250:2","Parent":"de:09162:250","Name":"Steig 2","Latitude":"48,133312","Longitude":"11,53983","MunicipalityCode":"00000000","Municipality":"-","DistrictCode":"-","District":"-","Description":"","Authority":"BEG","DelfiName":"-","THID":"-","TariffProvider":"-","LastOperationDate":"","SEV":"nein","geojson_lng":11.53983,"geojson_lat":48.133312},"geometry":{"type":"Point","coordinates":[11.53983,48.133312]}},{"type":"Feature","properties":{"SeqNo":"111425","Type":"A","DHID":"de:09162:250:20","Parent":"de:09162:250","Name":"B+R Ganghofer Süd","Latitude":"48,133582","Longitude":"11,54001","MunicipalityCode":"00000000","Municipality":"-","DistrictCode":"-","District":"-","Description":"","Authority":"BEG","DelfiName":"-","THID":"-","TariffProvider":"-","LastOperationDate":"","SEV":"nein","geojson_lng":11.54001,"geojson_lat":48.133582},"geometry":{"type":"Point","coordinates":[11.54001,48.133582]}},{"type":"Feature","properties":{"SeqNo":"111426","Type":"A","DHID":"de:09162:250:21","Parent":"de:09162:250","Name":"B+R Ligsalzstr","Latitude":"48,133816","Longitude":"11,542255","MunicipalityCode":"00000000","Municipality":"-","DistrictCode":"-","District":"-","Description":"","Authority":"BEG","DelfiName":"-","THID":"-","TariffProvider":"-","LastOperationDate":"","SEV":"nein","geojson_lng":11.542255,"geojson_lat":48.133816},"geometry":{"type":"Point","coordinates":[11.542255,48.133816]}},{"type":"Feature","properties":{"SeqNo":"111427","Type":"A","DHID":"de:09162:250:30","Parent":"de:09162:250","Name":"Veraltet","Latitude":"48,133115","Longitude":"11,539255","MunicipalityCode":"00000000","Municipality":"-","DistrictCode":"-","District":"-","Description":"","Authority":"BEG","DelfiName":"-","THID":"-","TariffProvider":"-","LastOperationDate":"","SEV":"nein","geojson_lng":11.539255,"geojson_lat":48.133115},"geometry":{"type":"Point","coordinates":[11.539255,48.133115]}},{"type":"Feature","properties":{"SeqNo":"111428","Type":"A","DHID":"de:09162:250:4","Parent":"de:09162:250","Name":"Steig 4","Latitude":"48,134733","Longitude":"11,539668","MunicipalityCode":"00000000","Municipality":"-","DistrictCode":"-","District":"-","Description":"","Authority":"BEG","DelfiName":"-","THID":"-","TariffProvider":"-","LastOperationDate":"","SEV":"nein","geojson_lng":11.539668,"geojson_lat":48.134733},"geometry":{"type":"Point","coordinates":[11.539668,48.134733]}},{"type":"Feature","properties":{"SeqNo":"111429","Type":"A","DHID":"de:09162:250:51","Parent":"de:09162:250","Name":"Steig 51+52","Latitude":"48,133768","Longitude":"11,541007","MunicipalityCode":"00000000","Municipality":"-","DistrictCode":"-","District":"-","Description":"","Authority":"BEG","DelfiName":"-","THID":"-","TariffProvider":"-","LastOperationDate":"","SEV":"nein","geojson_lng":11.541007,"geojson_lat":48.133768},"geometry":{"type":"Point","coordinates":[11.541007,48.133768]}},{"type":"Feature","properties":{"SeqNo":"111430","Type":"A","DHID":"de:09162:250:57","Parent":"de:09162:250","Name":"Gleis 16","Latitude":"48,13354","Longitude":"11,544627","MunicipalityCode":"00000000","Municipality":"-","DistrictCode":"-","District":"-","Description":"","Authority":"BEG","DelfiName":"-","THID":"-","TariffProvider":"-","LastOperationDate":"","SEV":"nein","geojson_lng":11.544627,"geojson_lat":48.13354},"geometry":{"type":"Point","coordinates":[11.544627,48.13354]}},{"type":"Feature","properties":{"SeqNo":"111431","Type":"A","DHID":"de:09162:250:61","Parent":"de:09162:250","Name":"ZU C, Museum Tr","Latitude":"48,133546","Longitude":"11,544043","MunicipalityCode":"00000000","Municipality":"-","DistrictCode":"-","District":"-","Description":"","Authority":"BEG","DelfiName":"-","THID":"-","TariffProvider":"-","LastOperationDate":"","SEV":"nein","geojson_lng":11.544043,"geojson_lat":48.133546},"geometry":{"type":"Point","coordinates":[11.544043,48.133546]}},{"type":"Feature","properties":{"SeqNo":"111432","Type":"A","DHID":"de:09162:250:62","Parent":"de:09162:250","Name":"ZU A, Ligsalzstr FT2","Latitude":"48,133828","Longitude":"11,542022","MunicipalityCode":"00000000","Municipality":"-","DistrictCode":"-","District":"-","Description":"","Authority":"BEG","DelfiName":"-","THID":"-","TariffProvider":"-","LastOperationDate":"","SEV":"nein","geojson_lng":11.542022,"geojson_lat":48.133828},"geometry":{"type":"Point","coordinates":[11.542022,48.133828]}},{"type":"Feature","properties":{"SeqNo":"111433","Type":"A","DHID":"de:09162:250:63","Parent":"de:09162:250","Name":"ZU B, Feuerwehr Trp","Latitude":"48,133822","Longitude":"11,542471","MunicipalityCode":"00000000","Municipality":"-","DistrictCode":"-","District":"-","Description":"","Authority":"BEG","DelfiName":"-","THID":"-","TariffProvider":"-","LastOperationDate":"","SEV":"nein","geojson_lng":11.542471,"geojson_lat":48.133822},"geometry":{"type":"Point","coordinates":[11.542471,48.133822]}},{"type":"Feature","properties":{"SeqNo":"111434","Type":"A","DHID":"de:09162:250:64","Parent":"de:09162:250","Name":"Zu D, Heimranstr FT3","Latitude":"48,133594","Longitude":"11,541986","MunicipalityCode":"00000000","Municipality":"-","DistrictCode":"-","District":"-","Description":"","Authority":"BEG","DelfiName":"-","THID":"-","TariffProvider":"-","LastOperationDate":"","SEV":"nein","geojson_lng":11.541986,"geojson_lat":48.133594},"geometry":{"type":"Point","coordinates":[11.541986,48.133594]}},{"type":"Feature","properties":{"SeqNo":"111435","Type":"A","DHID":"de:09162:250:67","Parent":"de:09162:250","Name":"ZU E, Ganghfrstr FT5","Latitude":"48,133594","Longitude":"11,539947","MunicipalityCode":"00000000","Municipality":"-","DistrictCode":"-","District":"-","Description":"","Authority":"BEG","DelfiName":"-","THID":"-","TariffProvider":"-","LastOperationDate":"","SEV":"nein","geojson_lng":11.539947,"geojson_lat":48.133594},"geometry":{"type":"Point","coordinates":[11.539947,48.133594]}},{"type":"Feature","properties":{"SeqNo":"111436","Type":"A","DHID":"de:09162:250:68","Parent":"de:09162:250","Name":"ZU F, Sandtnrstr FT6","Latitude":"48,13363","Longitude":"11,539525","MunicipalityCode":"00000000","Municipality":"-","DistrictCode":"-","District":"-","Description":"","Authority":"BEG","DelfiName":"-","THID":"-","TariffProvider":"-","LastOperationDate":"","SEV":"nein","geojson_lng":11.539525,"geojson_lat":48.13363},"geometry":{"type":"Point","coordinates":[11.539525,48.13363]}},{"type":"Feature","properties":{"SeqNo":"111437","Type":"A","DHID":"de:09162:250:69","Parent":"de:09162:250","Name":"ZU G, Geog-Freud FT7","Latitude":"48,134068","Longitude":"11,539605","MunicipalityCode":"00000000","Municipality":"-","DistrictCode":"-","District":"-","Description":"","Authority":"BEG","DelfiName":"-","THID":"-","TariffProvider":"-","LastOperationDate":"","SEV":"nein","geojson_lng":11.539605,"geojson_lat":48.134068},"geometry":{"type":"Point","coordinates":[11.539605,48.134068]}},{"type":"Feature","properties":{"SeqNo":"111438","Type":"A","DHID":"de:09162:250:70","Parent":"de:09162:250","Name":"ZU H, Kazmairstr FT8","Latitude":"48,134116","Longitude":"11,539956","MunicipalityCode":"00000000","Municipality":"-","DistrictCode":"-","District":"-","Description":"","Authority":"BEG","DelfiName":"-","THID":"-","TariffProvider":"-","LastOperationDate":"","SEV":"nein","geojson_lng":11.539956,"geojson_lat":48.134116},"geometry":{"type":"Point","coordinates":[11.539956,48.134116]}},{"type":"Feature","properties":{"SeqNo":"111439","Type":"A","DHID":"de:09162:250:81","Parent":"de:09162:250","Name":"Sperre Süd","Latitude":"48,133708","Longitude":"11,542067","MunicipalityCode":"00000000","Municipality":"-","DistrictCode":"-","District":"-","Description":"","Authority":"BEG","DelfiName":"-","THID":"-","TariffProvider":"-","LastOperationDate":"","SEV":"nein","geojson_lng":11.542067,"geojson_lat":48.133708},"geometry":{"type":"Point","coordinates":[11.542067,48.133708]}},{"type":"Feature","properties":{"SeqNo":"111440","Type":"A","DHID":"de:09162:250:84","Parent":"de:09162:250","Name":"Sperre Nord","Latitude":"48,13381","Longitude":"11,540108","MunicipalityCode":"00000000","Municipality":"-","DistrictCode":"-","District":"-","Description":"","Authority":"BEG","DelfiName":"-","THID":"-","TariffProvider":"-","LastOperationDate":"","SEV":"nein","geojson_lng":11.540108,"geojson_lat":48.13381},"geometry":{"type":"Point","coordinates":[11.540108,48.13381]}},{"type":"Feature","properties":{"SeqNo":"111441","Type":"A","DHID":"de:09162:250:90","Parent":"de:09162:250","Name":"SH Fahrerraum Wes","Latitude":"48,133774","Longitude":"11,540055","MunicipalityCode":"00000000","Municipality":"-","DistrictCode":"-","District":"-","Description":"","Authority":"BEG","DelfiName":"-","THID":"-","TariffProvider":"-","LastOperationDate":"","SEV":"nein","geojson_lng":11.540055,"geojson_lat":48.133774},"geometry":{"type":"Point","coordinates":[11.540055,48.133774]}},{"type":"Feature","properties":{"SeqNo":"111442","Type":"A","DHID":"de:09162:250:91","Parent":"de:09162:250","Name":"Lift 1 Sperre","Latitude":"48,13372","Longitude":"11,541734","MunicipalityCode":"00000000","Municipality":"-","DistrictCode":"-","District":"-","Description":"","Authority":"BEG","DelfiName":"-","THID":"-","TariffProvider":"-","LastOperationDate":"","SEV":"nein","geojson_lng":11.541734,"geojson_lat":48.13372},"geometry":{"type":"Point","coordinates":[11.541734,48.13372]}},{"type":"Feature","properties":{"SeqNo":"111443","Type":"A","DHID":"de:09162:250:92","Parent":"de:09162:250","Name":"Lift 2 Oberfläche","Latitude":"48,133582","Longitude":"11,542282","MunicipalityCode":"00000000","Municipality":"-","DistrictCode":"-","District":"-","Description":"","Authority":"BEG","DelfiName":"-","THID":"-","TariffProvider":"-","LastOperationDate":"","SEV":"nein","geojson_lng":11.542282,"geojson_lat":48.133582},"geometry":{"type":"Point","coordinates":[11.542282,48.133582]}},{"type":"Feature","properties":{"SeqNo":"111444","Type":"A","DHID":"de:09162:250:93","Parent":"de:09162:250","Name":"Lift 3 Oberfläche","Latitude":"48,133654","Longitude":"11,543944","MunicipalityCode":"00000000","Municipality":"-","DistrictCode":"-","District":"-","Description":"","Authority":"BEG","DelfiName":"-","THID":"-","TariffProvider":"-","LastOperationDate":"","SEV":"nein","geojson_lng":11.543944,"geojson_lat":48.133654},"geometry":{"type":"Point","coordinates":[11.543944,48.133654]}},{"type":"Feature","properties":{"SeqNo":"111445","Type":"Q","DHID":"de:09162:250:1:1","Parent":"de:09162:250:1","Name":"1","Latitude":"48,133636","Longitude":"11,539659","MunicipalityCode":"00000000","Municipality":"-","DistrictCode":"-","District":"-","Description":"","Authority":"BEG","DelfiName":"-","THID":"-","TariffProvider":"-","LastOperationDate":"","SEV":"nein","geojson_lng":11.539659,"geojson_lat":48.133636},"geometry":{"type":"Point","coordinates":[11.539659,48.133636]}},{"type":"Feature","properties":{"SeqNo":"111446","Type":"Q","DHID":"de:09162:250:2:2","Parent":"de:09162:250:2","Name":"2","Latitude":"48,133312","Longitude":"11,53983","MunicipalityCode":"00000000","Municipality":"-","DistrictCode":"-","District":"-","Description":"","Authority":"BEG","DelfiName":"-","THID":"-","TariffProvider":"-","LastOperationDate":"","SEV":"nein","geojson_lng":11.53983,"geojson_lat":48.133312},"geometry":{"type":"Point","coordinates":[11.53983,48.133312]}},{"type":"Feature","properties":{"SeqNo":"111447","Type":"Q","DHID":"de:09162:250:30:70","Parent":"de:09162:250:30","Name":"Veraltet, ungültig gesetzt","Latitude":"48,133115","Longitude":"11,539255","MunicipalityCode":"00000000","Municipality":"-","DistrictCode":"-","District":"-","Description":"","Authority":"BEG","DelfiName":"-","THID":"-","TariffProvider":"-","LastOperationDate":"","SEV":"nein","geojson_lng":11.539255,"geojson_lat":48.133115},"geometry":{"type":"Point","coordinates":[11.539255,48.133115]}},{"type":"Feature","properties":{"SeqNo":"111448","Type":"Q","DHID":"de:09162:250:4:4","Parent":"de:09162:250:4","Name":"4","Latitude":"48,134733","Longitude":"11,539668","MunicipalityCode":"00000000","Municipality":"-","DistrictCode":"-","District":"-","Description":"","Authority":"BEG","DelfiName":"-","THID":"-","TariffProvider":"-","LastOperationDate":"","SEV":"nein","geojson_lng":11.539668,"geojson_lat":48.134733},"geometry":{"type":"Point","coordinates":[11.539668,48.134733]}},{"type":"Feature","properties":{"SeqNo":"111449","Type":"Q","DHID":"de:09162:250:51:51","Parent":"de:09162:250:51","Name":"Gleis 1","Latitude":"48,133804","Longitude":"11,541007","MunicipalityCode":"00000000","Municipality":"-","DistrictCode":"-","District":"-","Description":"","Authority":"BEG","DelfiName":"-","THID":"-","TariffProvider":"-","LastOperationDate":"","SEV":"nein","geojson_lng":11.541007,"geojson_lat":48.133804},"geometry":{"type":"Point","coordinates":[11.541007,48.133804]}},{"type":"Feature","properties":{"SeqNo":"111450","Type":"Q","DHID":"de:09162:250:51:52","Parent":"de:09162:250:51","Name":"Gleis 2","Latitude":"48,133732","Longitude":"11,541007","MunicipalityCode":"00000000","Municipality":"-","DistrictCode":"-","District":"-","Description":"","Authority":"BEG","DelfiName":"-","THID":"-","TariffProvider":"-","LastOperationDate":"","SEV":"nein","geojson_lng":11.541007,"geojson_lat":48.133732},"geometry":{"type":"Point","coordinates":[11.541007,48.133732]}},{"type":"Feature","properties":{"SeqNo":"111451","Type":"Q","DHID":"de:09162:250:57:57","Parent":"de:09162:250:57","Name":"Gleis 16","Latitude":"48,13354","Longitude":"11,544618","MunicipalityCode":"00000000","Municipality":"-","DistrictCode":"-","District":"-","Description":"","Authority":"BEG","DelfiName":"-","THID":"-","TariffProvider":"-","LastOperationDate":"","SEV":"nein","geojson_lng":11.544618,"geojson_lat":48.13354},"geometry":{"type":"Point","coordinates":[11.544618,48.13354]}},{"type":"Feature","properties":{"SeqNo":"111452","Type":"S","DHID":"de:09162:251","Parent":"de:09162:251","Name":"Theresienhöhe","Latitude":"48,132557","Longitude":"11,545974","MunicipalityCode":"09162000","Municipality":"München","DistrictCode":"","District":"","Description":"","Authority":"BEG","DelfiName":"-","THID":"D923CA0000FB","TariffProvider":"-","LastOperationDate":"2025-12-13T00:00:00","SEV":"nein","geojson_lng":11.545974,"geojson_lat":48.132557},"geometry":{"type":"Point","coordinates":[11.545974,48.132557]}},{"type":"Feature","properties":{"SeqNo":"111453","Type":"A","DHID":"de:09162:251:3","Parent":"de:09162:251","Name":"Steig 1","Latitude":"48,132557","Longitude":"11,545974","MunicipalityCode":"00000000","Municipality":"-","DistrictCode":"-","District":"-","Description":"","Authority":"BEG","DelfiName":"-","THID":"-","TariffProvider":"-","LastOperationDate":"","SEV":"nein","geojson_lng":11.545974,"geojson_lat":48.132557},"geometry":{"type":"Point","coordinates":[11.545974,48.132557]}},{"type":"Feature","properties":{"SeqNo":"111454","Type":"Q","DHID":"de:09162:251:3:THH 1","Parent":"de:09162:251:3","Name":"1","Latitude":"48,132557","Longitude":"11,545974","MunicipalityCode":"00000000","Municipality":"-","DistrictCode":"-","District":"-","Description":"","Authority":"BEG","DelfiName":"-","THID":"-","TariffProvider":"-","LastOperationDate":"","SEV":"nein","geojson_lng":11.545974,"geojson_lat":48.132557},"geometry":{"type":"Point","coordinates":[11.545974,48.132557]}},{"type":"Feature","properties":{"SeqNo":"111497","Type":"S","DHID":"de:09162:27","Parent":"de:09162:27","Name":"Ridlerstraße","Latitude":"48,130776","Longitude":"11,539246","MunicipalityCode":"09162000","Municipality":"München","DistrictCode":"","District":"","Description":"","Authority":"BEG","DelfiName":"-","THID":"D923CA00001B","TariffProvider":"-","LastOperationDate":"2025-12-13T00:00:00","SEV":"nein","geojson_lng":11.539246,"geojson_lat":48.130776},"geometry":{"type":"Point","coordinates":[11.539246,48.130776]}},{"type":"Feature","properties":{"SeqNo":"111498","Type":"A","DHID":"de:09162:27:1","Parent":"de:09162:27","Name":"Steig 1","Latitude":"48,13056","Longitude":"11,539102","MunicipalityCode":"00000000","Municipality":"-","DistrictCode":"-","District":"-","Description":"","Authority":"BEG","DelfiName":"-","THID":"-","TariffProvider":"-","LastOperationDate":"","SEV":"nein","geojson_lng":11.539102,"geojson_lat":48.13056},"geometry":{"type":"Point","coordinates":[11.539102,48.13056]}},{"type":"Feature","properties":{"SeqNo":"111499","Type":"A","DHID":"de:09162:27:2","Parent":"de:09162:27","Name":"Steig 2","Latitude":"48,131028","Longitude":"11,53939","MunicipalityCode":"00000000","Municipality":"-","DistrictCode":"-","District":"-","Description":"","Authority":"BEG","DelfiName":"-","THID":"-","TariffProvider":"-","LastOperationDate":"","SEV":"nein","geojson_lng":11.53939,"geojson_lat":48.131028},"geometry":{"type":"Point","coordinates":[11.53939,48.131028]}},{"type":"Feature","properties":{"SeqNo":"111500","Type":"Q","DHID":"de:09162:27:1:1","Parent":"de:09162:27:1","Name":"1","Latitude":"48,13056","Longitude":"11,539102","MunicipalityCode":"00000000","Municipality":"-","DistrictCode":"-","District":"-","Description":"","Authority":"BEG","DelfiName":"-","THID":"-","TariffProvider":"-","LastOperationDate":"","SEV":"nein","geojson_lng":11.539102,"geojson_lat":48.13056},"geometry":{"type":"Point","coordinates":[11.539102,48.13056]}},{"type":"Feature","properties":{"SeqNo":"111501","Type":"Q","DHID":"de:09162:27:2:2","Parent":"de:09162:27:2","Name":"2","Latitude":"48,131028","Longitude":"11,53939","MunicipalityCode":"00000000","Municipality":"-","DistrictCode":"-","District":"-","Description":"","Authority":"BEG","DelfiName":"-","THID":"-","TariffProvider":"-","LastOperationDate":"","SEV":"nein","geojson_lng":11.53939,"geojson_lat":48.131028},"geometry":{"type":"Point","coordinates":[11.53939,48.131028]}},{"type":"Feature","properties":{"SeqNo":"115639","Type":"S","DHID":"de:09162:87","Parent":"de:09162:87","Name":"Bergmannstraße","Latitude":"48,134931","Longitude":"11,537405","MunicipalityCode":"09162000","Municipality":"München","DistrictCode":"","District":"","Description":"","Authority":"BEG","DelfiName":"-","THID":"D923CA000057","TariffProvider":"-","LastOperationDate":"2025-12-13T00:00:00","SEV":"nein","geojson_lng":11.537405,"geojson_lat":48.134931},"geometry":{"type":"Point","coordinates":[11.537405,48.134931]}},{"type":"Feature","properties":{"SeqNo":"115640","Type":"A","DHID":"de:09162:87:1","Parent":"de:09162:87","Name":"1","Latitude":"48,134859","Longitude":"11,537396","MunicipalityCode":"00000000","Municipality":"-","DistrictCode":"-","District":"-","Description":"","Authority":"BEG","DelfiName":"-","THID":"-","TariffProvider":"-","LastOperationDate":"","SEV":"nein","geojson_lng":11.537396,"geojson_lat":48.134859},"geometry":{"type":"Point","coordinates":[11.537396,48.134859]}},{"type":"Feature","properties":{"SeqNo":"115641","Type":"A","DHID":"de:09162:87:2","Parent":"de:09162:87","Name":"2","Latitude":"48,134997","Longitude":"11,537405","MunicipalityCode":"00000000","Municipality":"-","DistrictCode":"-","District":"-","Description":"","Authority":"BEG","DelfiName":"-","THID":"-","TariffProvider":"-","LastOperationDate":"","SEV":"nein","geojson_lng":11.537405,"geojson_lat":48.134997},"geometry":{"type":"Point","coordinates":[11.537405,48.134997]}},{"type":"Feature","properties":{"SeqNo":"115642","Type":"Q","DHID":"de:09162:87:1:1","Parent":"de:09162:87:1","Name":"1","Latitude":"48,134859","Longitude":"11,537396","MunicipalityCode":"00000000","Municipality":"-","DistrictCode":"-","District":"-","Description":"","Authority":"BEG","DelfiName":"-","THID":"-","TariffProvider":"-","LastOperationDate":"","SEV":"nein","geojson_lng":11.537396,"geojson_lat":48.134859},"geometry":{"type":"Point","coordinates":[11.537396,48.134859]}},{"type":"Feature","properties":{"SeqNo":"115643","Type":"Q","DHID":"de:09162:87:2:2","Parent":"de:09162:87:2","Name":"2","Latitude":"48,134997","Longitude":"11,537405","MunicipalityCode":"00000000","Municipality":"-","DistrictCode":"-","District":"-","Description":"","Authority":"BEG","DelfiName":"-","THID":"-","TariffProvider":"-","LastOperationDate":"","SEV":"nein","geojson_lng":11.537405,"geojson_lat":48.134997},"geometry":{"type":"Point","coordinates":[11.537405,48.134997]}}]}