{"type":"FeatureCollection","features":[{"type":"Feature","properties":{"SeqNo":"105342","Type":"S","DHID":"de:09162:25","Parent":"de:09162:25","Name":"Alter Messeplatz","MunicipalityCode":"09162000","Municipality":"München","DistrictCode":"","District":"","Description":"","Authority":"BEG","DelfiName":"-","THID":"D923CA000019","LastOperationDate":"2025-06-14T00:00:00","SEV":"nein","longitude":"11,546307","latitude":"48,134553","geojson_lng":11.546307,"geojson_lat":48.134553},"geometry":{"type":"Point","coordinates":[11.546307,48.134553]}},{"type":"Feature","properties":{"SeqNo":"105343","Type":"A","DHID":"de:09162:25:1","Parent":"de:09162:25","Name":"Steig 1","MunicipalityCode":"00000000","Municipality":"-","DistrictCode":"-","District":"-","Description":"","Authority":"BEG","DelfiName":"-","THID":"-","LastOperationDate":"","SEV":"nein","longitude":"11,546253","latitude":"48,134637","geojson_lng":11.546253,"geojson_lat":48.134637},"geometry":{"type":"Point","coordinates":[11.546253,48.134637]}},{"type":"Feature","properties":{"SeqNo":"105344","Type":"A","DHID":"de:09162:25:2","Parent":"de:09162:25","Name":"Steig 2","MunicipalityCode":"00000000","Municipality":"-","DistrictCode":"-","District":"-","Description":"","Authority":"BEG","DelfiName":"-","THID":"-","LastOperationDate":"","SEV":"nein","longitude":"11,546361","latitude":"48,134476","geojson_lng":11.546361,"geojson_lat":48.134476},"geometry":{"type":"Point","coordinates":[11.546361,48.134476]}},{"type":"Feature","properties":{"SeqNo":"105345","Type":"Q","DHID":"de:09162:25:1:1","Parent":"de:09162:25:1","Name":"1","MunicipalityCode":"00000000","Municipality":"-","DistrictCode":"-","District":"-","Description":"","Authority":"BEG","DelfiName":"-","THID":"-","LastOperationDate":"","SEV":"nein","longitude":"11,546253","latitude":"48,134637","geojson_lng":11.546253,"geojson_lat":48.134637},"geometry":{"type":"Point","coordinates":[11.546253,48.134637]}},{"type":"Feature","properties":{"SeqNo":"105346","Type":"Q","DHID":"de:09162:25:2:2","Parent":"de:09162:25:2","Name":"2","MunicipalityCode":"00000000","Municipality":"-","DistrictCode":"-","District":"-","Description":"","Authority":"BEG","DelfiName":"-","THID":"-","LastOperationDate":"","SEV":"nein","longitude":"11,546361","latitude":"48,134476","geojson_lng":11.546361,"geojson_lat":48.134476},"geometry":{"type":"Point","coordinates":[11.546361,48.134476]}},{"type":"Feature","properties":{"SeqNo":"105347","Type":"S","DHID":"de:09162:250","Parent":"de:09162:250","Name":"Schwanthalerhöhe","MunicipalityCode":"09162000","Municipality":"München","DistrictCode":"","District":"","Description":"","Authority":"BEG","DelfiName":"-","THID":"D923CA0000FA","LastOperationDate":"2025-06-14T00:00:00","SEV":"nein","longitude":"11,541007","latitude":"48,133768","geojson_lng":11.541007,"geojson_lat":48.133768},"geometry":{"type":"Point","coordinates":[11.541007,48.133768]}},{"type":"Feature","properties":{"SeqNo":"105348","Type":"A","DHID":"de:09162:250:1","Parent":"de:09162:250","Name":"Steig 1","MunicipalityCode":"00000000","Municipality":"-","DistrictCode":"-","District":"-","Description":"","Authority":"BEG","DelfiName":"-","THID":"-","LastOperationDate":"","SEV":"nein","longitude":"11,539659","latitude":"48,133636","geojson_lng":11.539659,"geojson_lat":48.133636},"geometry":{"type":"Point","coordinates":[11.539659,48.133636]}},{"type":"Feature","properties":{"SeqNo":"105349","Type":"A","DHID":"de:09162:250:2","Parent":"de:09162:250","Name":"Steig 2","MunicipalityCode":"00000000","Municipality":"-","DistrictCode":"-","District":"-","Description":"","Authority":"BEG","DelfiName":"-","THID":"-","LastOperationDate":"","SEV":"nein","longitude":"11,53983","latitude":"48,133312","geojson_lng":11.53983,"geojson_lat":48.133312},"geometry":{"type":"Point","coordinates":[11.53983,48.133312]}},{"type":"Feature","properties":{"SeqNo":"105350","Type":"A","DHID":"de:09162:250:20","Parent":"de:09162:250","Name":"B+R Ganghofer Süd","MunicipalityCode":"00000000","Municipality":"-","DistrictCode":"-","District":"-","Description":"","Authority":"BEG","DelfiName":"-","THID":"-","LastOperationDate":"","SEV":"nein","longitude":"11,54001","latitude":"48,133582","geojson_lng":11.54001,"geojson_lat":48.133582},"geometry":{"type":"Point","coordinates":[11.54001,48.133582]}},{"type":"Feature","properties":{"SeqNo":"105351","Type":"A","DHID":"de:09162:250:21","Parent":"de:09162:250","Name":"B+R Ligsalzstr","MunicipalityCode":"00000000","Municipality":"-","DistrictCode":"-","District":"-","Description":"","Authority":"BEG","DelfiName":"-","THID":"-","LastOperationDate":"","SEV":"nein","longitude":"11,542255","latitude":"48,133816","geojson_lng":11.542255,"geojson_lat":48.133816},"geometry":{"type":"Point","coordinates":[11.542255,48.133816]}},{"type":"Feature","properties":{"SeqNo":"105352","Type":"A","DHID":"de:09162:250:30","Parent":"de:09162:250","Name":"Steig 70","MunicipalityCode":"00000000","Municipality":"-","DistrictCode":"-","District":"-","Description":"","Authority":"BEG","DelfiName":"-","THID":"-","LastOperationDate":"","SEV":"nein","longitude":"11,539255","latitude":"48,133115","geojson_lng":11.539255,"geojson_lat":48.133115},"geometry":{"type":"Point","coordinates":[11.539255,48.133115]}},{"type":"Feature","properties":{"SeqNo":"105353","Type":"A","DHID":"de:09162:250:4","Parent":"de:09162:250","Name":"Steig 4","MunicipalityCode":"00000000","Municipality":"-","DistrictCode":"-","District":"-","Description":"","Authority":"BEG","DelfiName":"-","THID":"-","LastOperationDate":"","SEV":"nein","longitude":"11,539668","latitude":"48,134733","geojson_lng":11.539668,"geojson_lat":48.134733},"geometry":{"type":"Point","coordinates":[11.539668,48.134733]}},{"type":"Feature","properties":{"SeqNo":"105354","Type":"A","DHID":"de:09162:250:51","Parent":"de:09162:250","Name":"Steig 51+52","MunicipalityCode":"00000000","Municipality":"-","DistrictCode":"-","District":"-","Description":"","Authority":"BEG","DelfiName":"-","THID":"-","LastOperationDate":"","SEV":"nein","longitude":"11,541007","latitude":"48,133768","geojson_lng":11.541007,"geojson_lat":48.133768},"geometry":{"type":"Point","coordinates":[11.541007,48.133768]}},{"type":"Feature","properties":{"SeqNo":"105355","Type":"A","DHID":"de:09162:250:57","Parent":"de:09162:250","Name":"Gleis 16","MunicipalityCode":"00000000","Municipality":"-","DistrictCode":"-","District":"-","Description":"","Authority":"BEG","DelfiName":"-","THID":"-","LastOperationDate":"","SEV":"nein","longitude":"11,544627","latitude":"48,13354","geojson_lng":11.544627,"geojson_lat":48.13354},"geometry":{"type":"Point","coordinates":[11.544627,48.13354]}},{"type":"Feature","properties":{"SeqNo":"105356","Type":"A","DHID":"de:09162:250:61","Parent":"de:09162:250","Name":"ZU C, Museum Tr","MunicipalityCode":"00000000","Municipality":"-","DistrictCode":"-","District":"-","Description":"","Authority":"BEG","DelfiName":"-","THID":"-","LastOperationDate":"","SEV":"nein","longitude":"11,544043","latitude":"48,133546","geojson_lng":11.544043,"geojson_lat":48.133546},"geometry":{"type":"Point","coordinates":[11.544043,48.133546]}},{"type":"Feature","properties":{"SeqNo":"105357","Type":"A","DHID":"de:09162:250:62","Parent":"de:09162:250","Name":"ZU A, Ligsalzstr FT2","MunicipalityCode":"00000000","Municipality":"-","DistrictCode":"-","District":"-","Description":"","Authority":"BEG","DelfiName":"-","THID":"-","LastOperationDate":"","SEV":"nein","longitude":"11,542022","latitude":"48,133828","geojson_lng":11.542022,"geojson_lat":48.133828},"geometry":{"type":"Point","coordinates":[11.542022,48.133828]}},{"type":"Feature","properties":{"SeqNo":"105358","Type":"A","DHID":"de:09162:250:63","Parent":"de:09162:250","Name":"ZU B, Feuerwehr Trp","MunicipalityCode":"00000000","Municipality":"-","DistrictCode":"-","District":"-","Description":"","Authority":"BEG","DelfiName":"-","THID":"-","LastOperationDate":"","SEV":"nein","longitude":"11,542471","latitude":"48,133822","geojson_lng":11.542471,"geojson_lat":48.133822},"geometry":{"type":"Point","coordinates":[11.542471,48.133822]}},{"type":"Feature","properties":{"SeqNo":"105359","Type":"A","DHID":"de:09162:250:64","Parent":"de:09162:250","Name":"Zu D, Heimranstr FT3","MunicipalityCode":"00000000","Municipality":"-","DistrictCode":"-","District":"-","Description":"","Authority":"BEG","DelfiName":"-","THID":"-","LastOperationDate":"","SEV":"nein","longitude":"11,541986","latitude":"48,133594","geojson_lng":11.541986,"geojson_lat":48.133594},"geometry":{"type":"Point","coordinates":[11.541986,48.133594]}},{"type":"Feature","properties":{"SeqNo":"105360","Type":"A","DHID":"de:09162:250:67","Parent":"de:09162:250","Name":"ZU E, Ganghfrstr FT5","MunicipalityCode":"00000000","Municipality":"-","DistrictCode":"-","District":"-","Description":"","Authority":"BEG","DelfiName":"-","THID":"-","LastOperationDate":"","SEV":"nein","longitude":"11,539947","latitude":"48,133594","geojson_lng":11.539947,"geojson_lat":48.133594},"geometry":{"type":"Point","coordinates":[11.539947,48.133594]}},{"type":"Feature","properties":{"SeqNo":"105361","Type":"A","DHID":"de:09162:250:68","Parent":"de:09162:250","Name":"ZU F, Sandtnrstr FT6","MunicipalityCode":"00000000","Municipality":"-","DistrictCode":"-","District":"-","Description":"","Authority":"BEG","DelfiName":"-","THID":"-","LastOperationDate":"","SEV":"nein","longitude":"11,539525","latitude":"48,13363","geojson_lng":11.539525,"geojson_lat":48.13363},"geometry":{"type":"Point","coordinates":[11.539525,48.13363]}},{"type":"Feature","properties":{"SeqNo":"105362","Type":"A","DHID":"de:09162:250:69","Parent":"de:09162:250","Name":"ZU G, Geog-Freud FT7","MunicipalityCode":"00000000","Municipality":"-","DistrictCode":"-","District":"-","Description":"","Authority":"BEG","DelfiName":"-","THID":"-","LastOperationDate":"","SEV":"nein","longitude":"11,539605","latitude":"48,134068","geojson_lng":11.539605,"geojson_lat":48.134068},"geometry":{"type":"Point","coordinates":[11.539605,48.134068]}},{"type":"Feature","properties":{"SeqNo":"105363","Type":"A","DHID":"de:09162:250:70","Parent":"de:09162:250","Name":"ZU H, Kazmairstr FT8","MunicipalityCode":"00000000","Municipality":"-","DistrictCode":"-","District":"-","Description":"","Authority":"BEG","DelfiName":"-","THID":"-","LastOperationDate":"","SEV":"nein","longitude":"11,539956","latitude":"48,134116","geojson_lng":11.539956,"geojson_lat":48.134116},"geometry":{"type":"Point","coordinates":[11.539956,48.134116]}},{"type":"Feature","properties":{"SeqNo":"105364","Type":"A","DHID":"de:09162:250:81","Parent":"de:09162:250","Name":"Sperre Süd","MunicipalityCode":"00000000","Municipality":"-","DistrictCode":"-","District":"-","Description":"","Authority":"BEG","DelfiName":"-","THID":"-","LastOperationDate":"","SEV":"nein","longitude":"11,542067","latitude":"48,133708","geojson_lng":11.542067,"geojson_lat":48.133708},"geometry":{"type":"Point","coordinates":[11.542067,48.133708]}},{"type":"Feature","properties":{"SeqNo":"105365","Type":"A","DHID":"de:09162:250:84","Parent":"de:09162:250","Name":"Sperre Nord","MunicipalityCode":"00000000","Municipality":"-","DistrictCode":"-","District":"-","Description":"","Authority":"BEG","DelfiName":"-","THID":"-","LastOperationDate":"","SEV":"nein","longitude":"11,540108","latitude":"48,13381","geojson_lng":11.540108,"geojson_lat":48.13381},"geometry":{"type":"Point","coordinates":[11.540108,48.13381]}},{"type":"Feature","properties":{"SeqNo":"105366","Type":"A","DHID":"de:09162:250:90","Parent":"de:09162:250","Name":"SH Fahrerraum Wes","MunicipalityCode":"00000000","Municipality":"-","DistrictCode":"-","District":"-","Description":"","Authority":"BEG","DelfiName":"-","THID":"-","LastOperationDate":"","SEV":"nein","longitude":"11,540055","latitude":"48,133774","geojson_lng":11.540055,"geojson_lat":48.133774},"geometry":{"type":"Point","coordinates":[11.540055,48.133774]}},{"type":"Feature","properties":{"SeqNo":"105367","Type":"A","DHID":"de:09162:250:91","Parent":"de:09162:250","Name":"Lift 1 Sperre","MunicipalityCode":"00000000","Municipality":"-","DistrictCode":"-","District":"-","Description":"","Authority":"BEG","DelfiName":"-","THID":"-","LastOperationDate":"","SEV":"nein","longitude":"11,541734","latitude":"48,13372","geojson_lng":11.541734,"geojson_lat":48.13372},"geometry":{"type":"Point","coordinates":[11.541734,48.13372]}},{"type":"Feature","properties":{"SeqNo":"105368","Type":"A","DHID":"de:09162:250:92","Parent":"de:09162:250","Name":"Lift 2 Oberfläche","MunicipalityCode":"00000000","Municipality":"-","DistrictCode":"-","District":"-","Description":"","Authority":"BEG","DelfiName":"-","THID":"-","LastOperationDate":"","SEV":"nein","longitude":"11,542282","latitude":"48,133582","geojson_lng":11.542282,"geojson_lat":48.133582},"geometry":{"type":"Point","coordinates":[11.542282,48.133582]}},{"type":"Feature","properties":{"SeqNo":"105369","Type":"A","DHID":"de:09162:250:93","Parent":"de:09162:250","Name":"Lift 3 Oberfläche","MunicipalityCode":"00000000","Municipality":"-","DistrictCode":"-","District":"-","Description":"","Authority":"BEG","DelfiName":"-","THID":"-","LastOperationDate":"","SEV":"nein","longitude":"11,543944","latitude":"48,133654","geojson_lng":11.543944,"geojson_lat":48.133654},"geometry":{"type":"Point","coordinates":[11.543944,48.133654]}},{"type":"Feature","properties":{"SeqNo":"105370","Type":"Q","DHID":"de:09162:250:1:1","Parent":"de:09162:250:1","Name":"1","MunicipalityCode":"00000000","Municipality":"-","DistrictCode":"-","District":"-","Description":"","Authority":"BEG","DelfiName":"-","THID":"-","LastOperationDate":"","SEV":"nein","longitude":"11,539659","latitude":"48,133636","geojson_lng":11.539659,"geojson_lat":48.133636},"geometry":{"type":"Point","coordinates":[11.539659,48.133636]}},{"type":"Feature","properties":{"SeqNo":"105371","Type":"Q","DHID":"de:09162:250:2:2","Parent":"de:09162:250:2","Name":"2","MunicipalityCode":"00000000","Municipality":"-","DistrictCode":"-","District":"-","Description":"","Authority":"BEG","DelfiName":"-","THID":"-","LastOperationDate":"","SEV":"nein","longitude":"11,53983","latitude":"48,133312","geojson_lng":11.53983,"geojson_lat":48.133312},"geometry":{"type":"Point","coordinates":[11.53983,48.133312]}},{"type":"Feature","properties":{"SeqNo":"105372","Type":"Q","DHID":"de:09162:250:30:70","Parent":"de:09162:250:30","Name":"70","MunicipalityCode":"00000000","Municipality":"-","DistrictCode":"-","District":"-","Description":"","Authority":"BEG","DelfiName":"-","THID":"-","LastOperationDate":"","SEV":"nein","longitude":"11,539255","latitude":"48,133115","geojson_lng":11.539255,"geojson_lat":48.133115},"geometry":{"type":"Point","coordinates":[11.539255,48.133115]}},{"type":"Feature","properties":{"SeqNo":"105373","Type":"Q","DHID":"de:09162:250:4:4","Parent":"de:09162:250:4","Name":"4","MunicipalityCode":"00000000","Municipality":"-","DistrictCode":"-","District":"-","Description":"","Authority":"BEG","DelfiName":"-","THID":"-","LastOperationDate":"","SEV":"nein","longitude":"11,539668","latitude":"48,134733","geojson_lng":11.539668,"geojson_lat":48.134733},"geometry":{"type":"Point","coordinates":[11.539668,48.134733]}},{"type":"Feature","properties":{"SeqNo":"105374","Type":"Q","DHID":"de:09162:250:51:51","Parent":"de:09162:250:51","Name":"Gleis 1","MunicipalityCode":"00000000","Municipality":"-","DistrictCode":"-","District":"-","Description":"","Authority":"BEG","DelfiName":"-","THID":"-","LastOperationDate":"","SEV":"nein","longitude":"11,541007","latitude":"48,133804","geojson_lng":11.541007,"geojson_lat":48.133804},"geometry":{"type":"Point","coordinates":[11.541007,48.133804]}},{"type":"Feature","properties":{"SeqNo":"105375","Type":"Q","DHID":"de:09162:250:51:52","Parent":"de:09162:250:51","Name":"Gleis 2","MunicipalityCode":"00000000","Municipality":"-","DistrictCode":"-","District":"-","Description":"","Authority":"BEG","DelfiName":"-","THID":"-","LastOperationDate":"","SEV":"nein","longitude":"11,541007","latitude":"48,133732","geojson_lng":11.541007,"geojson_lat":48.133732},"geometry":{"type":"Point","coordinates":[11.541007,48.133732]}},{"type":"Feature","properties":{"SeqNo":"105376","Type":"Q","DHID":"de:09162:250:57:57","Parent":"de:09162:250:57","Name":"Gleis 16","MunicipalityCode":"00000000","Municipality":"-","DistrictCode":"-","District":"-","Description":"","Authority":"BEG","DelfiName":"-","THID":"-","LastOperationDate":"","SEV":"nein","longitude":"11,544618","latitude":"48,13354","geojson_lng":11.544618,"geojson_lat":48.13354},"geometry":{"type":"Point","coordinates":[11.544618,48.13354]}},{"type":"Feature","properties":{"SeqNo":"105377","Type":"S","DHID":"de:09162:251","Parent":"de:09162:251","Name":"Theresienhöhe","MunicipalityCode":"09162000","Municipality":"München","DistrictCode":"","District":"","Description":"","Authority":"BEG","DelfiName":"-","THID":"D923CA0000FB","LastOperationDate":"2025-06-14T00:00:00","SEV":"nein","longitude":"11,545974","latitude":"48,132557","geojson_lng":11.545974,"geojson_lat":48.132557},"geometry":{"type":"Point","coordinates":[11.545974,48.132557]}},{"type":"Feature","properties":{"SeqNo":"105378","Type":"A","DHID":"de:09162:251:3","Parent":"de:09162:251","Name":"Steig 1","MunicipalityCode":"00000000","Municipality":"-","DistrictCode":"-","District":"-","Description":"","Authority":"BEG","DelfiName":"-","THID":"-","LastOperationDate":"","SEV":"nein","longitude":"11,545974","latitude":"48,132557","geojson_lng":11.545974,"geojson_lat":48.132557},"geometry":{"type":"Point","coordinates":[11.545974,48.132557]}},{"type":"Feature","properties":{"SeqNo":"105379","Type":"Q","DHID":"de:09162:251:3:THH 1","Parent":"de:09162:251:3","Name":"1","MunicipalityCode":"00000000","Municipality":"-","DistrictCode":"-","District":"-","Description":"","Authority":"BEG","DelfiName":"-","THID":"-","LastOperationDate":"","SEV":"nein","longitude":"11,545974","latitude":"48,132557","geojson_lng":11.545974,"geojson_lat":48.132557},"geometry":{"type":"Point","coordinates":[11.545974,48.132557]}},{"type":"Feature","properties":{"SeqNo":"105420","Type":"S","DHID":"de:09162:27","Parent":"de:09162:27","Name":"Ridlerstraße","MunicipalityCode":"09162000","Municipality":"München","DistrictCode":"","District":"","Description":"","Authority":"BEG","DelfiName":"-","THID":"D923CA00001B","LastOperationDate":"2025-06-14T00:00:00","SEV":"nein","longitude":"11,539246","latitude":"48,130776","geojson_lng":11.539246,"geojson_lat":48.130776},"geometry":{"type":"Point","coordinates":[11.539246,48.130776]}},{"type":"Feature","properties":{"SeqNo":"105421","Type":"A","DHID":"de:09162:27:1","Parent":"de:09162:27","Name":"Steig 1","MunicipalityCode":"00000000","Municipality":"-","DistrictCode":"-","District":"-","Description":"","Authority":"BEG","DelfiName":"-","THID":"-","LastOperationDate":"","SEV":"nein","longitude":"11,539102","latitude":"48,13056","geojson_lng":11.539102,"geojson_lat":48.13056},"geometry":{"type":"Point","coordinates":[11.539102,48.13056]}},{"type":"Feature","properties":{"SeqNo":"105422","Type":"A","DHID":"de:09162:27:2","Parent":"de:09162:27","Name":"Steig 2","MunicipalityCode":"00000000","Municipality":"-","DistrictCode":"-","District":"-","Description":"","Authority":"BEG","DelfiName":"-","THID":"-","LastOperationDate":"","SEV":"nein","longitude":"11,53939","latitude":"48,131028","geojson_lng":11.53939,"geojson_lat":48.131028},"geometry":{"type":"Point","coordinates":[11.53939,48.131028]}},{"type":"Feature","properties":{"SeqNo":"105423","Type":"Q","DHID":"de:09162:27:1:1","Parent":"de:09162:27:1","Name":"1","MunicipalityCode":"00000000","Municipality":"-","DistrictCode":"-","District":"-","Description":"","Authority":"BEG","DelfiName":"-","THID":"-","LastOperationDate":"","SEV":"nein","longitude":"11,539102","latitude":"48,13056","geojson_lng":11.539102,"geojson_lat":48.13056},"geometry":{"type":"Point","coordinates":[11.539102,48.13056]}},{"type":"Feature","properties":{"SeqNo":"105424","Type":"Q","DHID":"de:09162:27:2:2","Parent":"de:09162:27:2","Name":"2","MunicipalityCode":"00000000","Municipality":"-","DistrictCode":"-","District":"-","Description":"","Authority":"BEG","DelfiName":"-","THID":"-","LastOperationDate":"","SEV":"nein","longitude":"11,53939","latitude":"48,131028","geojson_lng":11.53939,"geojson_lat":48.131028},"geometry":{"type":"Point","coordinates":[11.53939,48.131028]}},{"type":"Feature","properties":{"SeqNo":"109468","Type":"S","DHID":"de:09162:87","Parent":"de:09162:87","Name":"Bergmannstraße","MunicipalityCode":"09162000","Municipality":"München","DistrictCode":"","District":"","Description":"","Authority":"BEG","DelfiName":"-","THID":"D923CA000057","LastOperationDate":"2025-06-14T00:00:00","SEV":"nein","longitude":"11,537405","latitude":"48,134931","geojson_lng":11.537405,"geojson_lat":48.134931},"geometry":{"type":"Point","coordinates":[11.537405,48.134931]}},{"type":"Feature","properties":{"SeqNo":"109469","Type":"A","DHID":"de:09162:87:1","Parent":"de:09162:87","Name":"1","MunicipalityCode":"00000000","Municipality":"-","DistrictCode":"-","District":"-","Description":"","Authority":"BEG","DelfiName":"-","THID":"-","LastOperationDate":"","SEV":"nein","longitude":"11,537396","latitude":"48,134859","geojson_lng":11.537396,"geojson_lat":48.134859},"geometry":{"type":"Point","coordinates":[11.537396,48.134859]}},{"type":"Feature","properties":{"SeqNo":"109470","Type":"A","DHID":"de:09162:87:2","Parent":"de:09162:87","Name":"2","MunicipalityCode":"00000000","Municipality":"-","DistrictCode":"-","District":"-","Description":"","Authority":"BEG","DelfiName":"-","THID":"-","LastOperationDate":"","SEV":"nein","longitude":"11,537405","latitude":"48,134997","geojson_lng":11.537405,"geojson_lat":48.134997},"geometry":{"type":"Point","coordinates":[11.537405,48.134997]}},{"type":"Feature","properties":{"SeqNo":"109471","Type":"Q","DHID":"de:09162:87:1:1","Parent":"de:09162:87:1","Name":"1","MunicipalityCode":"00000000","Municipality":"-","DistrictCode":"-","District":"-","Description":"","Authority":"BEG","DelfiName":"-","THID":"-","LastOperationDate":"","SEV":"nein","longitude":"11,537396","latitude":"48,134859","geojson_lng":11.537396,"geojson_lat":48.134859},"geometry":{"type":"Point","coordinates":[11.537396,48.134859]}},{"type":"Feature","properties":{"SeqNo":"109472","Type":"Q","DHID":"de:09162:87:2:2","Parent":"de:09162:87:2","Name":"2","MunicipalityCode":"00000000","Municipality":"-","DistrictCode":"-","District":"-","Description":"","Authority":"BEG","DelfiName":"-","THID":"-","LastOperationDate":"","SEV":"nein","longitude":"11,537405","latitude":"48,134997","geojson_lng":11.537405,"geojson_lat":48.134997},"geometry":{"type":"Point","coordinates":[11.537405,48.134997]}}]}