{"type":"FeatureCollection","features":[{"type":"Feature","properties":{"SeqNo":"722461","Type":"S","DHID":"de:03241:4118","Parent":"de:03241:4118","Name":"Hannover Dörpefeld","MunicipalityCode":"03241001","Municipality":"Hannover","DistrictCode":"","District":"","Description":"","Authority":"HannIT","DelfiName":"-","THID":"D90CA9001016","LastOperationDate":"2025-06-14T00:00:00","SEV":"nein","longitude":"9,701491","latitude":"52,422427","geojson_lng":9.701491,"geojson_lat":52.422427},"geometry":{"type":"Point","coordinates":[9.701491,52.422427]}},{"type":"Feature","properties":{"SeqNo":"722462","Type":"Q","DHID":"de:03241:4118:0:4118","Parent":"de:03241:4118","Name":"Vinnhorst/Bf","MunicipalityCode":"00000000","Municipality":"-","DistrictCode":"-","District":"-","Description":"","Authority":"HannIT","DelfiName":"-","THID":"-","LastOperationDate":"","SEV":"nein","longitude":"9,701652","latitude":"52,422443","geojson_lng":9.701652,"geojson_lat":52.422443},"geometry":{"type":"Point","coordinates":[9.701652,52.422443]}},{"type":"Feature","properties":{"SeqNo":"722464","Type":"S","DHID":"de:03241:4121","Parent":"de:03241:4121","Name":"Hannover Bahnhof Vinnhorst","MunicipalityCode":"03241001","Municipality":"Hannover","DistrictCode":"","District":"","Description":"","Authority":"HannIT","DelfiName":"-","THID":"D90CA9001019","LastOperationDate":"2025-06-14T00:00:00","SEV":"nein","longitude":"9,707276","latitude":"52,424344","geojson_lng":9.707276,"geojson_lat":52.424344},"geometry":{"type":"Point","coordinates":[9.707276,52.424344]}},{"type":"Feature","properties":{"SeqNo":"722465","Type":"A","DHID":"de:03241:4121:1","Parent":"de:03241:4121","Name":"DB","MunicipalityCode":"00000000","Municipality":"-","DistrictCode":"-","District":"-","Description":"","Authority":"HannIT","DelfiName":"-","THID":"-","LastOperationDate":"","SEV":"nein","longitude":"9,707509","latitude":"52,423972","geojson_lng":9.707509,"geojson_lat":52.423972},"geometry":{"type":"Point","coordinates":[9.707509,52.423972]}},{"type":"Feature","properties":{"SeqNo":"722466","Type":"A","DHID":"de:03241:4121:2","Parent":"de:03241:4121","Name":"Bus","MunicipalityCode":"00000000","Municipality":"-","DistrictCode":"-","District":"-","Description":"","Authority":"HannIT","DelfiName":"-","THID":"-","LastOperationDate":"","SEV":"nein","longitude":"9,70653","latitude":"52,424103","geojson_lng":9.70653,"geojson_lat":52.424103},"geometry":{"type":"Point","coordinates":[9.70653,52.424103]}},{"type":"Feature","properties":{"SeqNo":"722467","Type":"A","DHID":"de:03241:4121:3","Parent":"de:03241:4121","Name":"Zugang","MunicipalityCode":"00000000","Municipality":"-","DistrictCode":"-","District":"-","Description":"","Authority":"HannIT","DelfiName":"-","THID":"-","LastOperationDate":"","SEV":"nein","longitude":"9,707617","latitude":"52,424081","geojson_lng":9.707617,"geojson_lat":52.424081},"geometry":{"type":"Point","coordinates":[9.707617,52.424081]}},{"type":"Feature","properties":{"SeqNo":"722468","Type":"A","DHID":"de:03241:4121:40","Parent":"de:03241:4121","Name":"Aufzug","MunicipalityCode":"00000000","Municipality":"-","DistrictCode":"-","District":"-","Description":"","Authority":"HannIT","DelfiName":"-","THID":"-","LastOperationDate":"","SEV":"nein","longitude":"9,707698","latitude":"52,424037","geojson_lng":9.707698,"geojson_lat":52.424037},"geometry":{"type":"Point","coordinates":[9.707698,52.424037]}},{"type":"Feature","properties":{"SeqNo":"722469","Type":"A","DHID":"de:03241:4121:50","Parent":"de:03241:4121","Name":"B+R","MunicipalityCode":"00000000","Municipality":"-","DistrictCode":"-","District":"-","Description":"","Authority":"HannIT","DelfiName":"-","THID":"-","LastOperationDate":"","SEV":"nein","longitude":"9,707698","latitude":"52,424322","geojson_lng":9.707698,"geojson_lat":52.424322},"geometry":{"type":"Point","coordinates":[9.707698,52.424322]}},{"type":"Feature","properties":{"SeqNo":"722470","Type":"A","DHID":"de:03241:4121:51","Parent":"de:03241:4121","Name":"P+R","MunicipalityCode":"00000000","Municipality":"-","DistrictCode":"-","District":"-","Description":"","Authority":"HannIT","DelfiName":"-","THID":"-","LastOperationDate":"","SEV":"nein","longitude":"9,707671","latitude":"52,424481","geojson_lng":9.707671,"geojson_lat":52.424481},"geometry":{"type":"Point","coordinates":[9.707671,52.424481]}},{"type":"Feature","properties":{"SeqNo":"722471","Type":"Q","DHID":"de:03241:4121:1:1","Parent":"de:03241:4121:1","Name":"Zug1","MunicipalityCode":"00000000","Municipality":"-","DistrictCode":"-","District":"-","Description":"","Authority":"HannIT","DelfiName":"-","THID":"-","LastOperationDate":"","SEV":"nein","longitude":"9,707581","latitude":"52,423889","geojson_lng":9.707581,"geojson_lat":52.423889},"geometry":{"type":"Point","coordinates":[9.707581,52.423889]}},{"type":"Feature","properties":{"SeqNo":"722472","Type":"Q","DHID":"de:03241:4121:1:2","Parent":"de:03241:4121:1","Name":"Zug2","MunicipalityCode":"00000000","Municipality":"-","DistrictCode":"-","District":"-","Description":"","Authority":"HannIT","DelfiName":"-","THID":"-","LastOperationDate":"","SEV":"nein","longitude":"9,70742","latitude":"52,423939","geojson_lng":9.70742,"geojson_lat":52.423939},"geometry":{"type":"Point","coordinates":[9.70742,52.423939]}},{"type":"Feature","properties":{"SeqNo":"722473","Type":"Q","DHID":"de:03241:4121:2:4121","Parent":"de:03241:4121:2","Name":"Mecklenheidestraße","MunicipalityCode":"00000000","Municipality":"-","DistrictCode":"-","District":"-","Description":"","Authority":"HannIT","DelfiName":"-","THID":"-","LastOperationDate":"","SEV":"nein","longitude":"9,706252","latitude":"52,42401","geojson_lng":9.706252,"geojson_lat":52.42401},"geometry":{"type":"Point","coordinates":[9.706252,52.42401]}},{"type":"Feature","properties":{"SeqNo":"722474","Type":"Q","DHID":"de:03241:4121:2:4122","Parent":"de:03241:4121:2","Name":"Godshorn/Le-Trait-Platz","MunicipalityCode":"00000000","Municipality":"-","DistrictCode":"-","District":"-","Description":"","Authority":"HannIT","DelfiName":"-","THID":"-","LastOperationDate":"","SEV":"nein","longitude":"9,706845","latitude":"52,424169","geojson_lng":9.706845,"geojson_lat":52.424169},"geometry":{"type":"Point","coordinates":[9.706845,52.424169]}}]}