{"type":"FeatureCollection","features":[{"type":"Feature","properties":{"SeqNo":"590425","Type":"S","DHID":"de:05378:35145","Parent":"de:05378:35145","Name":"K端rten Furth","MunicipalityCode":"05378012","Municipality":"K端rten","DistrictCode":"","District":"","Description":"","Authority":"VRR","DelfiName":"-","THID":"D91502008949","LastOperationDate":"2025-01-06T00:00:00","SEV":"nein","longitude":"7,330917","latitude":"51,071483","geojson_lng":7.330917,"geojson_lat":51.071483},"geometry":{"type":"Point","coordinates":[7.330917,51.071483]}},{"type":"Feature","properties":{"SeqNo":"590426","Type":"A","DHID":"de:05378:35145:2","Parent":"de:05378:35145","Name":"Furth","MunicipalityCode":"00000000","Municipality":"-","DistrictCode":"-","District":"-","Description":"","Authority":"VRR","DelfiName":"-","THID":"-","LastOperationDate":"","SEV":"nein","longitude":"7,330917","latitude":"51,071483","geojson_lng":7.330917,"geojson_lat":51.071483},"geometry":{"type":"Point","coordinates":[7.330917,51.071483]}},{"type":"Feature","properties":{"SeqNo":"590427","Type":"Q","DHID":"de:05378:35145:2:21","Parent":"de:05378:35145:2","Name":"","MunicipalityCode":"00000000","Municipality":"-","DistrictCode":"-","District":"-","Description":"","Authority":"VRR","DelfiName":"-","THID":"-","LastOperationDate":"","SEV":"nein","longitude":"7,330711","latitude":"51,071709","geojson_lng":7.330711,"geojson_lat":51.071709},"geometry":{"type":"Point","coordinates":[7.330711,51.071709]}},{"type":"Feature","properties":{"SeqNo":"590428","Type":"Q","DHID":"de:05378:35145:2:22","Parent":"de:05378:35145:2","Name":"","MunicipalityCode":"00000000","Municipality":"-","DistrictCode":"-","District":"-","Description":"","Authority":"VRR","DelfiName":"-","THID":"-","LastOperationDate":"","SEV":"nein","longitude":"7,331088","latitude":"51,071297","geojson_lng":7.331088,"geojson_lat":51.071297},"geometry":{"type":"Point","coordinates":[7.331088,51.071297]}},{"type":"Feature","properties":{"SeqNo":"590429","Type":"S","DHID":"de:05378:35146","Parent":"de:05378:35146","Name":"K端rten Furth Abzw.","MunicipalityCode":"05378012","Municipality":"K端rten","DistrictCode":"","District":"","Description":"","Authority":"VRR","DelfiName":"-","THID":"D9150200894A","LastOperationDate":"2024-12-20T00:00:00","SEV":"nein","longitude":"7,330684","latitude":"51,072228","geojson_lng":7.330684,"geojson_lat":51.072228},"geometry":{"type":"Point","coordinates":[7.330684,51.072228]}},{"type":"Feature","properties":{"SeqNo":"590430","Type":"A","DHID":"de:05378:35146:2","Parent":"de:05378:35146","Name":"Furth Abzw.","MunicipalityCode":"00000000","Municipality":"-","DistrictCode":"-","District":"-","Description":"","Authority":"VRR","DelfiName":"-","THID":"-","LastOperationDate":"","SEV":"nein","longitude":"7,330684","latitude":"51,072228","geojson_lng":7.330684,"geojson_lat":51.072228},"geometry":{"type":"Point","coordinates":[7.330684,51.072228]}},{"type":"Feature","properties":{"SeqNo":"590431","Type":"Q","DHID":"de:05378:35146:2:21","Parent":"de:05378:35146:2","Name":"","MunicipalityCode":"00000000","Municipality":"-","DistrictCode":"-","District":"-","Description":"","Authority":"VRR","DelfiName":"-","THID":"-","LastOperationDate":"","SEV":"nein","longitude":"7,330801","latitude":"51,072335","geojson_lng":7.330801,"geojson_lat":51.072335},"geometry":{"type":"Point","coordinates":[7.330801,51.072335]}},{"type":"Feature","properties":{"SeqNo":"590432","Type":"Q","DHID":"de:05378:35146:2:22","Parent":"de:05378:35146:2","Name":"","MunicipalityCode":"00000000","Municipality":"-","DistrictCode":"-","District":"-","Description":"","Authority":"VRR","DelfiName":"-","THID":"-","LastOperationDate":"","SEV":"nein","longitude":"7,330612","latitude":"51,072222","geojson_lng":7.330612,"geojson_lat":51.072222},"geometry":{"type":"Point","coordinates":[7.330612,51.072222]}}]}