{"type":"FeatureCollection","features":[{"type":"Feature","properties":{"highway":"bus_stop","public_transport":"platform","name":"Bushof","ref:IFOPT":"DE:Q:66467101","_quaycode":"DE:Q:66467101","_town":"Aachen","_status":"available","_mode":"bus","_direction":320,"_visuallyAccessible":false,"_disabledAccessible":false,"geojson_lng":6.089146234170766,"geojson_lat":50.777124656798854},"geometry":{"type":"Point","coordinates":[6.089146234170766,50.777124656798854]}},{"type":"Feature","properties":{"highway":"bus_stop","public_transport":"platform","name":"Bushof","ref:IFOPT":"DE:Q:66467104","_quaycode":"DE:Q:66467104","_town":"Aachen","_status":"available","_mode":"bus","_direction":140,"_visuallyAccessible":false,"_disabledAccessible":true,"geojson_lng":6.088669002510691,"geojson_lat":50.77744217281666},"geometry":{"type":"Point","coordinates":[6.088669002510691,50.77744217281666]}},{"type":"Feature","properties":{"highway":"bus_stop","public_transport":"platform","name":"Bushof","ref:IFOPT":"DE:Q:66467110","_quaycode":"DE:Q:66467110","_town":"Aachen","_status":"available","_mode":"bus","_direction":45,"_visuallyAccessible":false,"_disabledAccessible":false,"geojson_lng":6.090489280317507,"geojson_lat":50.776873781396304},"geometry":{"type":"Point","coordinates":[6.090489280317507,50.776873781396304]}},{"type":"Feature","properties":{"highway":"bus_stop","public_transport":"platform","name":"Bushof","ref:IFOPT":"DE:Q:66467115","_quaycode":"DE:Q:66467115","_town":"Aachen","_status":"available","_mode":"bus","_direction":239,"_visuallyAccessible":false,"_disabledAccessible":false,"geojson_lng":6.090337428854222,"geojson_lat":50.77714437712878},"geometry":{"type":"Point","coordinates":[6.090337428854222,50.77714437712878]}},{"type":"Feature","properties":{"highway":"bus_stop","public_transport":"platform","name":"Hauptbahnhof","ref:IFOPT":"DE:Q:66467330","_quaycode":"DE:Q:66467330","_town":"Aachen","_status":"available","_mode":"bus","_direction":262,"_visuallyAccessible":false,"_disabledAccessible":false,"geojson_lng":6.089882140383058,"geojson_lat":50.768607567161986},"geometry":{"type":"Point","coordinates":[6.089882140383058,50.768607567161986]}},{"type":"Feature","properties":{"highway":"bus_stop","public_transport":"platform","name":"Hauptbahnhof","ref:IFOPT":"DE:Q:66467660","_quaycode":"DE:Q:66467660","_town":"Aachen","_status":"available","_mode":"bus","_direction":54,"_visuallyAccessible":true,"_disabledAccessible":false,"geojson_lng":6.090009837274319,"geojson_lat":50.7686157790116},"geometry":{"type":"Point","coordinates":[6.090009837274319,50.7686157790116]}},{"type":"Feature","properties":{"highway":"bus_stop","public_transport":"platform","name":"Theater","ref:IFOPT":"DE:Q:66467670","_quaycode":"DE:Q:66467670","_town":"Aachen","_status":"available","_mode":"bus","_direction":301,"_visuallyAccessible":false,"_disabledAccessible":false,"geojson_lng":6.088236963971418,"geojson_lat":50.77230306990173},"geometry":{"type":"Point","coordinates":[6.088236963971418,50.77230306990173]}},{"type":"Feature","properties":{"highway":"bus_stop","public_transport":"platform","name":"Elisenbrunnen","ref:IFOPT":"DE:Q:66467690","_quaycode":"DE:Q:66467690","_town":"Aachen","_status":"available","_mode":"bus","_direction":20,"_visuallyAccessible":false,"_disabledAccessible":false,"geojson_lng":6.087441950510276,"geojson_lat":50.77410569991069},"geometry":{"type":"Point","coordinates":[6.087441950510276,50.77410569991069]}},{"type":"Feature","properties":{"highway":"bus_stop","public_transport":"platform","name":"Elisenbrunnen","ref:IFOPT":"DE:Q:66468900","_quaycode":"DE:Q:66468900","_town":"Aachen","_status":"available","_mode":"bus","_direction":200,"_visuallyAccessible":false,"_disabledAccessible":false,"geojson_lng":6.087531204137249,"geojson_lat":50.774383818619526},"geometry":{"type":"Point","coordinates":[6.087531204137249,50.774383818619526]}}]}