{"type":"FeatureCollection","features":[{"type":"Feature","properties":{"SeqNo":"689799","Type":"S","DHID":"de:05966:32593","Parent":"de:05966:32593","Name":"Dünschede Schützenhalle","MunicipalityCode":"05966004","Municipality":"Attendorn","DistrictCode":"","District":"","Description":"","Authority":"VRR","DelfiName":"-","THID":"D9174E007F51","LastOperationDate":"2025-01-06T00:00:00","SEV":"nein","longitude":"7,979438","latitude":"51,135268","geojson_lng":7.979438,"geojson_lat":51.135268},"geometry":{"type":"Point","coordinates":[7.979438,51.135268]}},{"type":"Feature","properties":{"SeqNo":"689800","Type":"A","DHID":"de:05966:32593:1","Parent":"de:05966:32593","Name":"ÖV","MunicipalityCode":"00000000","Municipality":"-","DistrictCode":"-","District":"-","Description":"","Authority":"VRR","DelfiName":"-","THID":"-","LastOperationDate":"","SEV":"nein","longitude":"7,979438","latitude":"51,135268","geojson_lng":7.979438,"geojson_lat":51.135268},"geometry":{"type":"Point","coordinates":[7.979438,51.135268]}},{"type":"Feature","properties":{"SeqNo":"689801","Type":"Q","DHID":"de:05966:32593:1:1","Parent":"de:05966:32593:1","Name":"Ri. Grevenbrück - Attendorn","MunicipalityCode":"00000000","Municipality":"-","DistrictCode":"-","District":"-","Description":"","Authority":"VRR","DelfiName":"-","THID":"-","LastOperationDate":"","SEV":"nein","longitude":"7,980247","latitude":"51,134924","geojson_lng":7.980247,"geojson_lat":51.134924},"geometry":{"type":"Point","coordinates":[7.980247,51.134924]}},{"type":"Feature","properties":{"SeqNo":"689802","Type":"Q","DHID":"de:05966:32593:1:2","Parent":"de:05966:32593:1","Name":"Ri. Dünschede","MunicipalityCode":"00000000","Municipality":"-","DistrictCode":"-","District":"-","Description":"","Authority":"VRR","DelfiName":"-","THID":"-","LastOperationDate":"","SEV":"nein","longitude":"7,978899","latitude":"51,135505","geojson_lng":7.978899,"geojson_lat":51.135505},"geometry":{"type":"Point","coordinates":[7.978899,51.135505]}},{"type":"Feature","properties":{"SeqNo":"689896","Type":"S","DHID":"de:05966:32620","Parent":"de:05966:32620","Name":"St. Claas","MunicipalityCode":"05966004","Municipality":"Attendorn","DistrictCode":"-","District":"-","Description":"","Authority":"VRR","DelfiName":"-","THID":"D9174E007F6C","LastOperationDate":"2025-01-06T00:00:00","SEV":"nein","longitude":"7,984442","latitude":"51,132291","geojson_lng":7.984442,"geojson_lat":51.132291},"geometry":{"type":"Point","coordinates":[7.984442,51.132291]}},{"type":"Feature","properties":{"SeqNo":"689897","Type":"A","DHID":"de:05966:32620:1","Parent":"de:05966:32620","Name":"1","MunicipalityCode":"00000000","Municipality":"-","DistrictCode":"-","District":"-","Description":"ÖV","Authority":"VRR","DelfiName":"-","THID":"-","LastOperationDate":"","SEV":"nein","longitude":"7,984442","latitude":"51,132291","geojson_lng":7.984442,"geojson_lat":51.132291},"geometry":{"type":"Point","coordinates":[7.984442,51.132291]}},{"type":"Feature","properties":{"SeqNo":"689898","Type":"Q","DHID":"de:05966:32620:1:1","Parent":"de:05966:32620:1","Name":"1","MunicipalityCode":"00000000","Municipality":"-","DistrictCode":"-","District":"-","Description":"Ri. Attendorn","Authority":"VRR","DelfiName":"-","THID":"-","LastOperationDate":"","SEV":"nein","longitude":"7,984648","latitude":"51,132523","geojson_lng":7.984648,"geojson_lat":51.132523},"geometry":{"type":"Point","coordinates":[7.984648,51.132523]}},{"type":"Feature","properties":{"SeqNo":"689899","Type":"Q","DHID":"de:05966:32620:1:2","Parent":"de:05966:32620:1","Name":"2","MunicipalityCode":"00000000","Municipality":"-","DistrictCode":"-","District":"-","Description":"Ri. Grevenbrück","Authority":"VRR","DelfiName":"-","THID":"-","LastOperationDate":"","SEV":"nein","longitude":"7,984226","latitude":"51,131987","geojson_lng":7.984226,"geojson_lat":51.131987},"geometry":{"type":"Point","coordinates":[7.984226,51.131987]}}]}