{"type":"FeatureCollection","features":[{"type":"Feature","properties":{"SeqNo":"573431","Type":"S","DHID":"de:05362:83453","Parent":"de:05362:83453","Name":"Hürth Alstädten/Burbach Alstädten Kirche","MunicipalityCode":"05362028","Municipality":"Hürth","DistrictCode":"","District":"","Description":"","Authority":"VRR","DelfiName":"-","THID":"D914F20145FD","LastOperationDate":"2025-01-06T00:00:00","SEV":"nein","longitude":"6,858323","latitude":"50,882519","geojson_lng":6.858323,"geojson_lat":50.882519},"geometry":{"type":"Point","coordinates":[6.858323,50.882519]}},{"type":"Feature","properties":{"SeqNo":"573432","Type":"A","DHID":"de:05362:83453:2","Parent":"de:05362:83453","Name":"Alstädten Kirche","MunicipalityCode":"00000000","Municipality":"-","DistrictCode":"-","District":"-","Description":"","Authority":"VRR","DelfiName":"-","THID":"-","LastOperationDate":"","SEV":"nein","longitude":"6,858323","latitude":"50,882519","geojson_lng":6.858323,"geojson_lat":50.882519},"geometry":{"type":"Point","coordinates":[6.858323,50.882519]}},{"type":"Feature","properties":{"SeqNo":"573433","Type":"Q","DHID":"de:05362:83453:2:21","Parent":"de:05362:83453:2","Name":"","MunicipalityCode":"00000000","Municipality":"-","DistrictCode":"-","District":"-","Description":"","Authority":"VRR","DelfiName":"-","THID":"-","LastOperationDate":"","SEV":"nein","longitude":"6,858341","latitude":"50,882525","geojson_lng":6.858341,"geojson_lat":50.882525},"geometry":{"type":"Point","coordinates":[6.858341,50.882525]}},{"type":"Feature","properties":{"SeqNo":"573434","Type":"Q","DHID":"de:05362:83453:2:22","Parent":"de:05362:83453:2","Name":"","MunicipalityCode":"00000000","Municipality":"-","DistrictCode":"-","District":"-","Description":"","Authority":"VRR","DelfiName":"-","THID":"-","LastOperationDate":"","SEV":"nein","longitude":"6,858269","latitude":"50,882565","geojson_lng":6.858269,"geojson_lat":50.882565},"geometry":{"type":"Point","coordinates":[6.858269,50.882565]}},{"type":"Feature","properties":{"SeqNo":"573439","Type":"S","DHID":"de:05362:83455","Parent":"de:05362:83455","Name":"Hürth Alstädten/Burbach Stotzheimer Str.","MunicipalityCode":"05362028","Municipality":"Hürth","DistrictCode":"","District":"","Description":"","Authority":"VRR","DelfiName":"-","THID":"D914F20145FF","LastOperationDate":"2025-01-06T00:00:00","SEV":"nein","longitude":"6,861943","latitude":"50,882508","geojson_lng":6.861943,"geojson_lat":50.882508},"geometry":{"type":"Point","coordinates":[6.861943,50.882508]}},{"type":"Feature","properties":{"SeqNo":"573440","Type":"A","DHID":"de:05362:83455:2","Parent":"de:05362:83455","Name":"Stotzheimer Str.","MunicipalityCode":"00000000","Municipality":"-","DistrictCode":"-","District":"-","Description":"","Authority":"VRR","DelfiName":"-","THID":"-","LastOperationDate":"","SEV":"nein","longitude":"6,861943","latitude":"50,882508","geojson_lng":6.861943,"geojson_lat":50.882508},"geometry":{"type":"Point","coordinates":[6.861943,50.882508]}},{"type":"Feature","properties":{"SeqNo":"573441","Type":"Q","DHID":"de:05362:83455:2:21","Parent":"de:05362:83455:2","Name":"","MunicipalityCode":"00000000","Municipality":"-","DistrictCode":"-","District":"-","Description":"","Authority":"VRR","DelfiName":"-","THID":"-","LastOperationDate":"","SEV":"nein","longitude":"6,861287","latitude":"50,882395","geojson_lng":6.861287,"geojson_lat":50.882395},"geometry":{"type":"Point","coordinates":[6.861287,50.882395]}},{"type":"Feature","properties":{"SeqNo":"573442","Type":"Q","DHID":"de:05362:83455:2:22","Parent":"de:05362:83455:2","Name":"","MunicipalityCode":"00000000","Municipality":"-","DistrictCode":"-","District":"-","Description":"","Authority":"VRR","DelfiName":"-","THID":"-","LastOperationDate":"","SEV":"nein","longitude":"6,862464","latitude":"50,88261","geojson_lng":6.862464,"geojson_lat":50.88261},"geometry":{"type":"Point","coordinates":[6.862464,50.88261]}}]}