{"type":"FeatureCollection","features":[{"type":"Feature","properties":{"highway":"bus_stop","public_transport":"platform","name":"Twenteroute","ref:IFOPT":"NL:Q:44022040","_quaycode":"NL:Q:44022040","_town":"Varsseveld","_status":"available","_mode":"bus","_direction":345,"_visuallyAccessible":false,"_disabledAccessible":false,"geojson_lng":6.459624805298698,"geojson_lat":51.95038546944706},"geometry":{"type":"Point","coordinates":[6.459624805298698,51.95038546944706]}},{"type":"Feature","properties":{"highway":"bus_stop","public_transport":"platform","name":"Radstake","ref:IFOPT":"NL:Q:44900100","_quaycode":"NL:Q:44900100","_town":"Heelweg","_status":"available","_mode":"bus","_direction":45,"_visuallyAccessible":false,"_disabledAccessible":false,"geojson_lng":6.5022904438948,"geojson_lat":51.966159601246744},"geometry":{"type":"Point","coordinates":[6.5022904438948,51.966159601246744]}},{"type":"Feature","properties":{"highway":"bus_stop","public_transport":"platform","name":"Duthler","ref:IFOPT":"NL:Q:44020320","_quaycode":"NL:Q:44020320","_town":"Varsseveld","_status":"available","_mode":"bus","_direction":41,"_visuallyAccessible":false,"_disabledAccessible":false,"geojson_lng":6.464646204545242,"geojson_lat":51.94443384822927},"geometry":{"type":"Point","coordinates":[6.464646204545242,51.94443384822927]}},{"type":"Feature","properties":{"highway":"bus_stop","public_transport":"platform","name":"Twenteroute","ref:IFOPT":"NL:Q:44022030","_quaycode":"NL:Q:44022030","_town":"Varsseveld","_status":"available","_mode":"bus","_direction":169,"_visuallyAccessible":false,"_disabledAccessible":false,"geojson_lng":6.45960747015953,"geojson_lat":51.95026877197369},"geometry":{"type":"Point","coordinates":[6.45960747015953,51.95026877197369]}},{"type":"Feature","properties":{"highway":"bus_stop","public_transport":"platform","name":"Radstake","ref:IFOPT":"NL:Q:44900090","_quaycode":"NL:Q:44900090","_town":"Heelweg","_status":"available","_mode":"bus","_direction":236,"_visuallyAccessible":false,"_disabledAccessible":false,"geojson_lng":6.500268501832265,"geojson_lat":51.96501918720485},"geometry":{"type":"Point","coordinates":[6.500268501832265,51.96501918720485]}}]}