{"type":"FeatureCollection","features":[{"type":"Feature","properties":{"SeqNo":"796421","Type":"S","DHID":"de:14713:10823","Parent":"de:14713:10823","Name":"Leipzig, Georg-Herwegh-Str.","MunicipalityCode":"14713000","Municipality":"Leipzig","DistrictCode":"","District":"","Description":"","Authority":"NASA","DelfiName":"Leipzig, Georg-Herwegh-Str.","THID":"D93979002A47","LastOperationDate":"2025-06-01T00:00:00","SEV":"nein","longitude":"12,383034","latitude":"51,39489","geojson_lng":12.383034,"geojson_lat":51.39489},"geometry":{"type":"Point","coordinates":[12.383034,51.39489]}},{"type":"Feature","properties":{"SeqNo":"796422","Type":"Q","DHID":"de:14713:10823::01","Parent":"de:14713:10823","Name":"Steig 01","MunicipalityCode":"00000000","Municipality":"-","DistrictCode":"-","District":"-","Description":"","Authority":"NASA","DelfiName":"-","THID":"-","LastOperationDate":"","SEV":"nein","longitude":"12,38415","latitude":"51,395121","geojson_lng":12.38415,"geojson_lat":51.395121},"geometry":{"type":"Point","coordinates":[12.38415,51.395121]}},{"type":"Feature","properties":{"SeqNo":"796423","Type":"Q","DHID":"de:14713:10823::02","Parent":"de:14713:10823","Name":"Steig 02","MunicipalityCode":"00000000","Municipality":"-","DistrictCode":"-","District":"-","Description":"","Authority":"NASA","DelfiName":"-","THID":"-","LastOperationDate":"","SEV":"nein","longitude":"12,38356","latitude":"51,39497","geojson_lng":12.38356,"geojson_lat":51.39497},"geometry":{"type":"Point","coordinates":[12.38356,51.39497]}},{"type":"Feature","properties":{"SeqNo":"796424","Type":"S","DHID":"de:14713:10824","Parent":"de:14713:10824","Name":"Leipzig, S-Bahnhof Messe (Tram/Bus)","MunicipalityCode":"14713000","Municipality":"Leipzig","DistrictCode":"","District":"","Description":"","Authority":"NASA","DelfiName":"Leipzig, S-Bahnhof Messe (Tram/Bus)","THID":"D93979002A48","LastOperationDate":"2025-06-01T00:00:00","SEV":"nein","longitude":"12,389561","latitude":"51,396196","geojson_lng":12.389561,"geojson_lat":51.396196},"geometry":{"type":"Point","coordinates":[12.389561,51.396196]}},{"type":"Feature","properties":{"SeqNo":"796425","Type":"Q","DHID":"de:14713:10824::01","Parent":"de:14713:10824","Name":"Steig A","MunicipalityCode":"00000000","Municipality":"-","DistrictCode":"-","District":"-","Description":"","Authority":"NASA","DelfiName":"-","THID":"-","LastOperationDate":"","SEV":"nein","longitude":"12,388856","latitude":"51,396067","geojson_lng":12.388856,"geojson_lat":51.396067},"geometry":{"type":"Point","coordinates":[12.388856,51.396067]}},{"type":"Feature","properties":{"SeqNo":"796426","Type":"Q","DHID":"de:14713:10824::02","Parent":"de:14713:10824","Name":"Steig B","MunicipalityCode":"00000000","Municipality":"-","DistrictCode":"-","District":"-","Description":"","Authority":"NASA","DelfiName":"-","THID":"-","LastOperationDate":"","SEV":"nein","longitude":"12,389504","latitude":"51,396146","geojson_lng":12.389504,"geojson_lat":51.396146},"geometry":{"type":"Point","coordinates":[12.389504,51.396146]}},{"type":"Feature","properties":{"SeqNo":"796427","Type":"Q","DHID":"de:14713:10824::03","Parent":"de:14713:10824","Name":"Steig C","MunicipalityCode":"00000000","Municipality":"-","DistrictCode":"-","District":"-","Description":"","Authority":"NASA","DelfiName":"-","THID":"-","LastOperationDate":"","SEV":"nein","longitude":"12,390554","latitude":"51,396331","geojson_lng":12.390554,"geojson_lat":51.396331},"geometry":{"type":"Point","coordinates":[12.390554,51.396331]}},{"type":"Feature","properties":{"SeqNo":"796428","Type":"Q","DHID":"de:14713:10824::04","Parent":"de:14713:10824","Name":"Steig D","MunicipalityCode":"00000000","Municipality":"-","DistrictCode":"-","District":"-","Description":"","Authority":"NASA","DelfiName":"-","THID":"-","LastOperationDate":"","SEV":"nein","longitude":"12,390311","latitude":"51,396422","geojson_lng":12.390311,"geojson_lat":51.396422},"geometry":{"type":"Point","coordinates":[12.390311,51.396422]}},{"type":"Feature","properties":{"SeqNo":"798690","Type":"S","DHID":"de:14713:8012478","Parent":"de:14713:8012478","Name":"Leipzig Messe","MunicipalityCode":"14713000","Municipality":"Leipzig","DistrictCode":"","District":"","Description":"","Authority":"NASA","DelfiName":"Leipzig, Bahnhof Messe","THID":"D939797A42BE","LastOperationDate":"2025-06-14T00:00:00","SEV":"nein","longitude":"12,389278","latitude":"51,396145","geojson_lng":12.389278,"geojson_lat":51.396145},"geometry":{"type":"Point","coordinates":[12.389278,51.396145]}},{"type":"Feature","properties":{"SeqNo":"798691","Type":"A","DHID":"de:14713:8012478:1","Parent":"de:14713:8012478","Name":"Bahnsteig Gleis 1+2","MunicipalityCode":"00000000","Municipality":"-","DistrictCode":"-","District":"-","Description":"","Authority":"NASA","DelfiName":"-","THID":"-","LastOperationDate":"","SEV":"nein","longitude":"12,389293","latitude":"51,396148","geojson_lng":12.389293,"geojson_lat":51.396148},"geometry":{"type":"Point","coordinates":[12.389293,51.396148]}},{"type":"Feature","properties":{"SeqNo":"798692","Type":"A","DHID":"de:14713:8012478:2","Parent":"de:14713:8012478","Name":"Bahnsteig Gleis 3+4","MunicipalityCode":"00000000","Municipality":"-","DistrictCode":"-","District":"-","Description":"","Authority":"NASA","DelfiName":"-","THID":"-","LastOperationDate":"","SEV":"nein","longitude":"12,389293","latitude":"51,396148","geojson_lng":12.389293,"geojson_lat":51.396148},"geometry":{"type":"Point","coordinates":[12.389293,51.396148]}},{"type":"Feature","properties":{"SeqNo":"798693","Type":"Q","DHID":"de:14713:8012478:1:01","Parent":"de:14713:8012478:1","Name":"Gleis 1","MunicipalityCode":"00000000","Municipality":"-","DistrictCode":"-","District":"-","Description":"","Authority":"NASA","DelfiName":"-","THID":"-","LastOperationDate":"","SEV":"nein","longitude":"12,389059","latitude":"51,396101","geojson_lng":12.389059,"geojson_lat":51.396101},"geometry":{"type":"Point","coordinates":[12.389059,51.396101]}},{"type":"Feature","properties":{"SeqNo":"798694","Type":"Q","DHID":"de:14713:8012478:1:02","Parent":"de:14713:8012478:1","Name":"Gleis 2","MunicipalityCode":"00000000","Municipality":"-","DistrictCode":"-","District":"-","Description":"","Authority":"NASA","DelfiName":"-","THID":"-","LastOperationDate":"","SEV":"nein","longitude":"12,38919","latitude":"51,396124","geojson_lng":12.38919,"geojson_lat":51.396124},"geometry":{"type":"Point","coordinates":[12.38919,51.396124]}},{"type":"Feature","properties":{"SeqNo":"798695","Type":"Q","DHID":"de:14713:8012478:2:03","Parent":"de:14713:8012478:2","Name":"Gleis 3","MunicipalityCode":"00000000","Municipality":"-","DistrictCode":"-","District":"-","Description":"","Authority":"NASA","DelfiName":"-","THID":"-","LastOperationDate":"","SEV":"nein","longitude":"12,389337","latitude":"51,396165","geojson_lng":12.389337,"geojson_lat":51.396165},"geometry":{"type":"Point","coordinates":[12.389337,51.396165]}},{"type":"Feature","properties":{"SeqNo":"798696","Type":"Q","DHID":"de:14713:8012478:2:04","Parent":"de:14713:8012478:2","Name":"Gleis 4","MunicipalityCode":"00000000","Municipality":"-","DistrictCode":"-","District":"-","Description":"","Authority":"NASA","DelfiName":"-","THID":"-","LastOperationDate":"","SEV":"nein","longitude":"12,389482","latitude":"51,396187","geojson_lng":12.389482,"geojson_lat":51.396187},"geometry":{"type":"Point","coordinates":[12.389482,51.396187]}}]}