{"type":"FeatureCollection","features":[{"type":"Feature","properties":{"SeqNo":"535107","Type":"S","DHID":"de:05154:35406","Parent":"de:05154:35406","Name":"Straelen Venloer Tor","MunicipalityCode":"05154052","Municipality":"Straelen","DistrictCode":"","District":"","Description":"","Authority":"VRR","DelfiName":"-","THID":"D91422008A4E","LastOperationDate":"2025-06-14T00:00:00","SEV":"nein","longitude":"6,265695","latitude":"51,443288","geojson_lng":6.265695,"geojson_lat":51.443288},"geometry":{"type":"Point","coordinates":[6.265695,51.443288]}},{"type":"Feature","properties":{"SeqNo":"535108","Type":"Q","DHID":"de:05154:35406:0:1","Parent":"de:05154:35406","Name":"Südwall","MunicipalityCode":"00000000","Municipality":"-","DistrictCode":"-","District":"-","Description":"","Authority":"VRR","DelfiName":"-","THID":"-","LastOperationDate":"","SEV":"nein","longitude":"6,265704","latitude":"51,443221","geojson_lng":6.265704,"geojson_lat":51.443221},"geometry":{"type":"Point","coordinates":[6.265704,51.443221]}},{"type":"Feature","properties":{"SeqNo":"535109","Type":"S","DHID":"de:05154:35407","Parent":"de:05154:35407","Name":"Straelen Südwall","MunicipalityCode":"05154052","Municipality":"Straelen","DistrictCode":"","District":"","Description":"","Authority":"VRR","DelfiName":"-","THID":"D91422008A4F","LastOperationDate":"2025-06-14T00:00:00","SEV":"nein","longitude":"6,267546","latitude":"51,443405","geojson_lng":6.267546,"geojson_lat":51.443405},"geometry":{"type":"Point","coordinates":[6.267546,51.443405]}},{"type":"Feature","properties":{"SeqNo":"535110","Type":"Q","DHID":"de:05154:35407:0:1","Parent":"de:05154:35407","Name":"Straelen Rathaus","MunicipalityCode":"00000000","Municipality":"-","DistrictCode":"-","District":"-","Description":"","Authority":"VRR","DelfiName":"-","THID":"-","LastOperationDate":"","SEV":"nein","longitude":"6,267779","latitude":"51,443428","geojson_lng":6.267779,"geojson_lat":51.443428},"geometry":{"type":"Point","coordinates":[6.267779,51.443428]}},{"type":"Feature","properties":{"SeqNo":"535111","Type":"S","DHID":"de:05154:35408","Parent":"de:05154:35408","Name":"Straelen Gelderner Tor","MunicipalityCode":"05154052","Municipality":"Straelen","DistrictCode":"","District":"","Description":"","Authority":"VRR","DelfiName":"-","THID":"D91422008A50","LastOperationDate":"2025-06-14T00:00:00","SEV":"nein","longitude":"6,26733","latitude":"51,44681","geojson_lng":6.26733,"geojson_lat":51.44681},"geometry":{"type":"Point","coordinates":[6.26733,51.44681]}},{"type":"Feature","properties":{"SeqNo":"535112","Type":"Q","DHID":"de:05154:35408:0:1","Parent":"de:05154:35408","Name":"Venloer Tor/Schulzentrum","MunicipalityCode":"00000000","Municipality":"-","DistrictCode":"-","District":"-","Description":"","Authority":"VRR","DelfiName":"-","THID":"-","LastOperationDate":"","SEV":"nein","longitude":"6,267375","latitude":"51,446966","geojson_lng":6.267375,"geojson_lat":51.446966},"geometry":{"type":"Point","coordinates":[6.267375,51.446966]}},{"type":"Feature","properties":{"SeqNo":"535310","Type":"S","DHID":"de:05154:35478","Parent":"de:05154:35478","Name":"Straelen Rathaus","MunicipalityCode":"05154052","Municipality":"Straelen","DistrictCode":"","District":"","Description":"","Authority":"VRR","DelfiName":"-","THID":"D91422008A96","LastOperationDate":"2025-06-14T00:00:00","SEV":"nein","longitude":"6,269935","latitude":"51,443601","geojson_lng":6.269935,"geojson_lat":51.443601},"geometry":{"type":"Point","coordinates":[6.269935,51.443601]}},{"type":"Feature","properties":{"SeqNo":"535311","Type":"Q","DHID":"de:05154:35478:0:1","Parent":"de:05154:35478","Name":"Straelen Friedhof","MunicipalityCode":"00000000","Municipality":"-","DistrictCode":"-","District":"-","Description":"","Authority":"VRR","DelfiName":"-","THID":"-","LastOperationDate":"","SEV":"nein","longitude":"6,270286","latitude":"51,443439","geojson_lng":6.270286,"geojson_lat":51.443439},"geometry":{"type":"Point","coordinates":[6.270286,51.443439]}},{"type":"Feature","properties":{"SeqNo":"535312","Type":"Q","DHID":"de:05154:35478:0:2","Parent":"de:05154:35478","Name":"An der Oelmühle","MunicipalityCode":"00000000","Municipality":"-","DistrictCode":"-","District":"-","Description":"","Authority":"VRR","DelfiName":"-","THID":"-","LastOperationDate":"","SEV":"nein","longitude":"6,269702","latitude":"51,443669","geojson_lng":6.269702,"geojson_lat":51.443669},"geometry":{"type":"Point","coordinates":[6.269702,51.443669]}},{"type":"Feature","properties":{"SeqNo":"535313","Type":"S","DHID":"de:05154:35479","Parent":"de:05154:35479","Name":"Straelen Friedhof","MunicipalityCode":"05154052","Municipality":"Straelen","DistrictCode":"","District":"","Description":"","Authority":"VRR","DelfiName":"-","THID":"D91422008A97","LastOperationDate":"2025-06-14T00:00:00","SEV":"nein","longitude":"6,268309","latitude":"51,445628","geojson_lng":6.268309,"geojson_lat":51.445628},"geometry":{"type":"Point","coordinates":[6.268309,51.445628]}},{"type":"Feature","properties":{"SeqNo":"535314","Type":"Q","DHID":"de:05154:35479:0:1","Parent":"de:05154:35479","Name":"Schulzentrum/Venloer Tor/Glasweg","MunicipalityCode":"00000000","Municipality":"-","DistrictCode":"-","District":"-","Description":"","Authority":"VRR","DelfiName":"-","THID":"-","LastOperationDate":"","SEV":"nein","longitude":"6,268273","latitude":"51,445712","geojson_lng":6.268273,"geojson_lat":51.445712},"geometry":{"type":"Point","coordinates":[6.268273,51.445712]}},{"type":"Feature","properties":{"SeqNo":"535315","Type":"S","DHID":"de:05154:35480","Parent":"de:05154:35480","Name":"Straelen Schulzentrum","MunicipalityCode":"05154052","Municipality":"Straelen","DistrictCode":"","District":"","Description":"","Authority":"VRR","DelfiName":"-","THID":"D91422008A98","LastOperationDate":"2025-06-13T00:00:00","SEV":"nein","longitude":"6,263665","latitude":"51,445511","geojson_lng":6.263665,"geojson_lat":51.445511},"geometry":{"type":"Point","coordinates":[6.263665,51.445511]}},{"type":"Feature","properties":{"SeqNo":"535316","Type":"Q","DHID":"de:05154:35480:0:1","Parent":"de:05154:35480","Name":"063 beide Richtungen","MunicipalityCode":"00000000","Municipality":"-","DistrictCode":"-","District":"-","Description":"","Authority":"VRR","DelfiName":"-","THID":"-","LastOperationDate":"","SEV":"nein","longitude":"6,263306","latitude":"51,445544","geojson_lng":6.263306,"geojson_lat":51.445544},"geometry":{"type":"Point","coordinates":[6.263306,51.445544]}},{"type":"Feature","properties":{"SeqNo":"535317","Type":"Q","DHID":"de:05154:35480:0:2","Parent":"de:05154:35480","Name":"69 beide Richtungen","MunicipalityCode":"00000000","Municipality":"-","DistrictCode":"-","District":"-","Description":"","Authority":"VRR","DelfiName":"-","THID":"-","LastOperationDate":"","SEV":"nein","longitude":"6,26318","latitude":"51,445516","geojson_lng":6.26318,"geojson_lat":51.445516},"geometry":{"type":"Point","coordinates":[6.26318,51.445516]}},{"type":"Feature","properties":{"SeqNo":"535318","Type":"Q","DHID":"de:05154:35480:0:3","Parent":"de:05154:35480","Name":"33 Aldekerk, 35 Geldern","MunicipalityCode":"00000000","Municipality":"-","DistrictCode":"-","District":"-","Description":"","Authority":"VRR","DelfiName":"-","THID":"-","LastOperationDate":"","SEV":"nein","longitude":"6,263054","latitude":"51,445499","geojson_lng":6.263054,"geojson_lat":51.445499},"geometry":{"type":"Point","coordinates":[6.263054,51.445499]}},{"type":"Feature","properties":{"SeqNo":"535319","Type":"Q","DHID":"de:05154:35480:0:4","Parent":"de:05154:35480","Name":"SL65 Holt, SL68 Ausstieg","MunicipalityCode":"00000000","Municipality":"-","DistrictCode":"-","District":"-","Description":"","Authority":"VRR","DelfiName":"-","THID":"-","LastOperationDate":"","SEV":"nein","longitude":"6,262928","latitude":"51,445472","geojson_lng":6.262928,"geojson_lat":51.445472},"geometry":{"type":"Point","coordinates":[6.262928,51.445472]}},{"type":"Feature","properties":{"SeqNo":"535320","Type":"Q","DHID":"de:05154:35480:0:5","Parent":"de:05154:35480","Name":"SL63 Auwel, Holt, SL67 Ausstieg","MunicipalityCode":"00000000","Municipality":"-","DistrictCode":"-","District":"-","Description":"","Authority":"VRR","DelfiName":"-","THID":"-","LastOperationDate":"","SEV":"nein","longitude":"6,262776","latitude":"51,445455","geojson_lng":6.262776,"geojson_lat":51.445455},"geometry":{"type":"Point","coordinates":[6.262776,51.445455]}},{"type":"Feature","properties":{"SeqNo":"535321","Type":"Q","DHID":"de:05154:35480:0:6","Parent":"de:05154:35480","Name":"SL62 Dammerbruch, SL66 Ausstieg","MunicipalityCode":"00000000","Municipality":"-","DistrictCode":"-","District":"-","Description":"","Authority":"VRR","DelfiName":"-","THID":"-","LastOperationDate":"","SEV":"nein","longitude":"6,26318","latitude":"51,44536","geojson_lng":6.26318,"geojson_lat":51.44536},"geometry":{"type":"Point","coordinates":[6.26318,51.44536]}},{"type":"Feature","properties":{"SeqNo":"535322","Type":"Q","DHID":"de:05154:35480:0:7","Parent":"de:05154:35480","Name":"SL61 Herongen, SL64 Ausstieg","MunicipalityCode":"00000000","Municipality":"-","DistrictCode":"-","District":"-","Description":"","Authority":"VRR","DelfiName":"-","THID":"-","LastOperationDate":"","SEV":"nein","longitude":"6,263333","latitude":"51,445399","geojson_lng":6.263333,"geojson_lat":51.445399},"geometry":{"type":"Point","coordinates":[6.263333,51.445399]}},{"type":"Feature","properties":{"SeqNo":"535323","Type":"Q","DHID":"de:05154:35480:0:8","Parent":"de:05154:35480","Name":"35 Venloer Tor","MunicipalityCode":"00000000","Municipality":"-","DistrictCode":"-","District":"-","Description":"","Authority":"VRR","DelfiName":"-","THID":"-","LastOperationDate":"","SEV":"nein","longitude":"6,263503","latitude":"51,445572","geojson_lng":6.263503,"geojson_lat":51.445572},"geometry":{"type":"Point","coordinates":[6.263503,51.445572]}}]}