{"type":"FeatureCollection","features":[{"type":"Feature","properties":{"SeqNo":"87339","Type":"S","DHID":"de:08435:22","Parent":"de:08435:22","Name":"Meckenbeuren Zeppelinplatz","MunicipalityCode":"08435035","Municipality":"Meckenbeuren","DistrictCode":"","District":"","Description":"","Authority":"NVBW","DelfiName":"-","THID":"D920F3000016","LastOperationDate":"2023-12-08T00:00:00","SEV":"nein","longitude":"9,571136","latitude":"47,691433","geojson_lng":9.571136,"geojson_lat":47.691433},"geometry":{"type":"Point","coordinates":[9.571136,47.691433]}},{"type":"Feature","properties":{"SeqNo":"87340","Type":"Q","DHID":"de:08435:22:0:1","Parent":"de:08435:22","Name":"Steig 1","MunicipalityCode":"00000000","Municipality":"-","DistrictCode":"-","District":"-","Description":"","Authority":"NVBW","DelfiName":"-","THID":"-","LastOperationDate":"","SEV":"nein","longitude":"9,571163","latitude":"47,691433","geojson_lng":9.571163,"geojson_lat":47.691433},"geometry":{"type":"Point","coordinates":[9.571163,47.691433]}},{"type":"Feature","properties":{"SeqNo":"87416","Type":"S","DHID":"de:08435:278","Parent":"de:08435:278","Name":"Meckenbeuren Kratzerach","MunicipalityCode":"08435035","Municipality":"Meckenbeuren","DistrictCode":"","District":"","Description":"","Authority":"NVBW","DelfiName":"-","THID":"D920F3000116","LastOperationDate":"2025-06-13T00:00:00","SEV":"nein","longitude":"9,575232","latitude":"47,68821","geojson_lng":9.575232,"geojson_lat":47.68821},"geometry":{"type":"Point","coordinates":[9.575232,47.68821]}},{"type":"Feature","properties":{"SeqNo":"87417","Type":"Q","DHID":"de:08435:278:0:1","Parent":"de:08435:278","Name":"Steig 1","MunicipalityCode":"00000000","Municipality":"-","DistrictCode":"-","District":"-","Description":"","Authority":"NVBW","DelfiName":"-","THID":"-","LastOperationDate":"","SEV":"nein","longitude":"9,575232","latitude":"47,68821","geojson_lng":9.575232,"geojson_lat":47.68821},"geometry":{"type":"Point","coordinates":[9.575232,47.68821]}},{"type":"Feature","properties":{"SeqNo":"88787","Type":"S","DHID":"de:08435:44640","Parent":"de:08435:44640","Name":"Meckenb. Habacht","MunicipalityCode":"08435035","Municipality":"Meckenbeuren","DistrictCode":"","District":"","Description":"","Authority":"NVBW","DelfiName":"-","THID":"D920F300AE60","LastOperationDate":"2025-06-14T00:00:00","SEV":"nein","longitude":"9,572609","latitude":"47,692141","geojson_lng":9.572609,"geojson_lat":47.692141},"geometry":{"type":"Point","coordinates":[9.572609,47.692141]}},{"type":"Feature","properties":{"SeqNo":"88788","Type":"Q","DHID":"de:08435:44640:0:1","Parent":"de:08435:44640","Name":"Steig 1","MunicipalityCode":"00000000","Municipality":"-","DistrictCode":"-","District":"-","Description":"","Authority":"NVBW","DelfiName":"-","THID":"-","LastOperationDate":"","SEV":"nein","longitude":"9,572636","latitude":"47,692171","geojson_lng":9.572636,"geojson_lat":47.692171},"geometry":{"type":"Point","coordinates":[9.572636,47.692171]}},{"type":"Feature","properties":{"SeqNo":"88789","Type":"Q","DHID":"de:08435:44640:0:2","Parent":"de:08435:44640","Name":"Steig 2","MunicipalityCode":"00000000","Municipality":"-","DistrictCode":"-","District":"-","Description":"","Authority":"NVBW","DelfiName":"-","THID":"-","LastOperationDate":"","SEV":"nein","longitude":"9,572627","latitude":"47,692044","geojson_lng":9.572627,"geojson_lat":47.692044},"geometry":{"type":"Point","coordinates":[9.572627,47.692044]}}]}