{"type":"FeatureCollection","features":[{"type":"Feature","properties":{"SeqNo":"723460","Type":"S","DHID":"de:03241:4800","Parent":"de:03241:4800","Name":"Berenbostel Stadtpark","MunicipalityCode":"03241005","Municipality":"Garbsen","DistrictCode":"","District":"","Description":"","Authority":"HannIT","DelfiName":"-","THID":"D90CA90012C0","LastOperationDate":"2025-06-14T00:00:00","SEV":"nein","longitude":"9,599954","latitude":"52,435173","geojson_lng":9.599954,"geojson_lat":52.435173},"geometry":{"type":"Point","coordinates":[9.599954,52.435173]}},{"type":"Feature","properties":{"SeqNo":"723461","Type":"A","DHID":"de:03241:4800:1","Parent":"de:03241:4800","Name":"von Garbsen","MunicipalityCode":"00000000","Municipality":"-","DistrictCode":"-","District":"-","Description":"","Authority":"HannIT","DelfiName":"-","THID":"-","LastOperationDate":"","SEV":"nein","longitude":"9,600619","latitude":"52,434866","geojson_lng":9.600619,"geojson_lat":52.434866},"geometry":{"type":"Point","coordinates":[9.600619,52.434866]}},{"type":"Feature","properties":{"SeqNo":"723462","Type":"A","DHID":"de:03241:4800:2","Parent":"de:03241:4800","Name":"nach Garbsen","MunicipalityCode":"00000000","Municipality":"-","DistrictCode":"-","District":"-","Description":"","Authority":"HannIT","DelfiName":"-","THID":"-","LastOperationDate":"","SEV":"nein","longitude":"9,599334","latitude":"52,435512","geojson_lng":9.599334,"geojson_lat":52.435512},"geometry":{"type":"Point","coordinates":[9.599334,52.435512]}},{"type":"Feature","properties":{"SeqNo":"723463","Type":"Q","DHID":"de:03241:4800:1:4801","Parent":"de:03241:4800:1","Name":"Marienw./Wiss.(400); Stelingen (430)","MunicipalityCode":"00000000","Municipality":"-","DistrictCode":"-","District":"-","Description":"","Authority":"HannIT","DelfiName":"-","THID":"-","LastOperationDate":"","SEV":"nein","longitude":"9,600691","latitude":"52,434872","geojson_lng":9.600691,"geojson_lat":52.434872},"geometry":{"type":"Point","coordinates":[9.600691,52.434872]}},{"type":"Feature","properties":{"SeqNo":"723464","Type":"Q","DHID":"de:03241:4800:2:4800","Parent":"de:03241:4800:2","Name":"Neustadt (400); B./SZ-III (430)","MunicipalityCode":"00000000","Municipality":"-","DistrictCode":"-","District":"-","Description":"","Authority":"HannIT","DelfiName":"-","THID":"-","LastOperationDate":"","SEV":"nein","longitude":"9,599173","latitude":"52,435534","geojson_lng":9.599173,"geojson_lat":52.435534},"geometry":{"type":"Point","coordinates":[9.599173,52.435534]}},{"type":"Feature","properties":{"SeqNo":"723465","Type":"S","DHID":"de:03241:4802","Parent":"de:03241:4802","Name":"Berenbostel Kahlriethe/FBZ","MunicipalityCode":"03241005","Municipality":"Garbsen","DistrictCode":"","District":"","Description":"","Authority":"HannIT","DelfiName":"-","THID":"D90CA90012C2","LastOperationDate":"2025-06-14T00:00:00","SEV":"nein","longitude":"9,596963","latitude":"52,434855","geojson_lng":9.596963,"geojson_lat":52.434855},"geometry":{"type":"Point","coordinates":[9.596963,52.434855]}},{"type":"Feature","properties":{"SeqNo":"723466","Type":"A","DHID":"de:03241:4802:1","Parent":"de:03241:4802","Name":"Bus","MunicipalityCode":"00000000","Municipality":"-","DistrictCode":"-","District":"-","Description":"","Authority":"HannIT","DelfiName":"-","THID":"-","LastOperationDate":"","SEV":"nein","longitude":"9,596972","latitude":"52,434855","geojson_lng":9.596972,"geojson_lat":52.434855},"geometry":{"type":"Point","coordinates":[9.596972,52.434855]}},{"type":"Feature","properties":{"SeqNo":"723467","Type":"Q","DHID":"de:03241:4802:1:4802","Parent":"de:03241:4802:1","Name":"Meyenfeld (421); Stelingen (430)","MunicipalityCode":"00000000","Municipality":"-","DistrictCode":"-","District":"-","Description":"","Authority":"HannIT","DelfiName":"-","THID":"-","LastOperationDate":"","SEV":"nein","longitude":"9,596963","latitude":"52,434844","geojson_lng":9.596963,"geojson_lat":52.434844},"geometry":{"type":"Point","coordinates":[9.596963,52.434844]}},{"type":"Feature","properties":{"SeqNo":"723468","Type":"Q","DHID":"de:03241:4802:1:4803","Parent":"de:03241:4802:1","Name":"Garbsen (421,430)","MunicipalityCode":"00000000","Municipality":"-","DistrictCode":"-","District":"-","Description":"","Authority":"HannIT","DelfiName":"-","THID":"-","LastOperationDate":"","SEV":"nein","longitude":"9,596918","latitude":"52,434844","geojson_lng":9.596918,"geojson_lat":52.434844},"geometry":{"type":"Point","coordinates":[9.596918,52.434844]}},{"type":"Feature","properties":{"SeqNo":"723469","Type":"S","DHID":"de:03241:4804","Parent":"de:03241:4804","Name":"Garbsen-Mitte Kastendamm","MunicipalityCode":"03241005","Municipality":"Garbsen","DistrictCode":"","District":"","Description":"","Authority":"HannIT","DelfiName":"-","THID":"D90CA90012C4","LastOperationDate":"2025-06-14T00:00:00","SEV":"nein","longitude":"9,595606","latitude":"52,430528","geojson_lng":9.595606,"geojson_lat":52.430528},"geometry":{"type":"Point","coordinates":[9.595606,52.430528]}},{"type":"Feature","properties":{"SeqNo":"723470","Type":"A","DHID":"de:03241:4804:1","Parent":"de:03241:4804","Name":"Bus","MunicipalityCode":"00000000","Municipality":"-","DistrictCode":"-","District":"-","Description":"","Authority":"HannIT","DelfiName":"-","THID":"-","LastOperationDate":"","SEV":"nein","longitude":"9,595624","latitude":"52,430534","geojson_lng":9.595624,"geojson_lat":52.430534},"geometry":{"type":"Point","coordinates":[9.595624,52.430534]}},{"type":"Feature","properties":{"SeqNo":"723471","Type":"Q","DHID":"de:03241:4804:1:4804","Parent":"de:03241:4804:1","Name":"Berenbostel (421,430)","MunicipalityCode":"00000000","Municipality":"-","DistrictCode":"-","District":"-","Description":"","Authority":"HannIT","DelfiName":"-","THID":"-","LastOperationDate":"","SEV":"nein","longitude":"9,595597","latitude":"52,430331","geojson_lng":9.595597,"geojson_lat":52.430331},"geometry":{"type":"Point","coordinates":[9.595597,52.430331]}},{"type":"Feature","properties":{"SeqNo":"723472","Type":"Q","DHID":"de:03241:4804:1:4805","Parent":"de:03241:4804:1","Name":"Garbsen (421,430)","MunicipalityCode":"00000000","Municipality":"-","DistrictCode":"-","District":"-","Description":"","Authority":"HannIT","DelfiName":"-","THID":"-","LastOperationDate":"","SEV":"nein","longitude":"9,595516","latitude":"52,430808","geojson_lng":9.595516,"geojson_lat":52.430808},"geometry":{"type":"Point","coordinates":[9.595516,52.430808]}},{"type":"Feature","properties":{"SeqNo":"723866","Type":"S","DHID":"de:03241:4990","Parent":"de:03241:4990","Name":"Berenbostel Feuerwache","MunicipalityCode":"03241005","Municipality":"Garbsen","DistrictCode":"","District":"","Description":"","Authority":"HannIT","DelfiName":"-","THID":"D90CA900137E","LastOperationDate":"1999-12-31T00:00:00","SEV":"nein","longitude":"9,600834","latitude":"52,435753","geojson_lng":9.600834,"geojson_lat":52.435753},"geometry":{"type":"Point","coordinates":[9.600834,52.435753]}}]}