{"type":"FeatureCollection","features":[{"type":"Feature","properties":{"SeqNo":"92657","Type":"S","DHID":"de:08436:8064","Parent":"de:08436:8064","Name":"Ravensburg Schubertstraße","MunicipalityCode":"08436064","Municipality":"Ravensburg","DistrictCode":"","District":"","Description":"","Authority":"NVBW","DelfiName":"-","THID":"D920F4001F80","LastOperationDate":"1999-12-31T00:00:00","SEV":"nein","longitude":"9,600763","latitude":"47,774727","geojson_lng":9.600763,"geojson_lat":47.774727},"geometry":{"type":"Point","coordinates":[9.600763,47.774727]}},{"type":"Feature","properties":{"SeqNo":"92658","Type":"Q","DHID":"de:08436:8064:0:1","Parent":"de:08436:8064","Name":"Steig 1","MunicipalityCode":"00000000","Municipality":"-","DistrictCode":"-","District":"-","Description":"","Authority":"NVBW","DelfiName":"-","THID":"-","LastOperationDate":"","SEV":"nein","longitude":"9,600763","latitude":"47,774727","geojson_lng":9.600763,"geojson_lat":47.774727},"geometry":{"type":"Point","coordinates":[9.600763,47.774727]}},{"type":"Feature","properties":{"SeqNo":"92659","Type":"S","DHID":"de:08436:8065","Parent":"de:08436:8065","Name":"Ravensburg Robert-Bosch-Straße","MunicipalityCode":"08436064","Municipality":"Ravensburg","DistrictCode":"","District":"","Description":"","Authority":"NVBW","DelfiName":"-","THID":"D920F4001F81","LastOperationDate":"1999-12-31T00:00:00","SEV":"nein","longitude":"9,59999","latitude":"47,771129","geojson_lng":9.59999,"geojson_lat":47.771129},"geometry":{"type":"Point","coordinates":[9.59999,47.771129]}},{"type":"Feature","properties":{"SeqNo":"92660","Type":"Q","DHID":"de:08436:8065:0:1","Parent":"de:08436:8065","Name":"Steig 1","MunicipalityCode":"00000000","Municipality":"-","DistrictCode":"-","District":"-","Description":"","Authority":"NVBW","DelfiName":"-","THID":"-","LastOperationDate":"","SEV":"nein","longitude":"9,59999","latitude":"47,771129","geojson_lng":9.59999,"geojson_lat":47.771129},"geometry":{"type":"Point","coordinates":[9.59999,47.771129]}},{"type":"Feature","properties":{"SeqNo":"92664","Type":"S","DHID":"de:08436:8067","Parent":"de:08436:8067","Name":"Ravensburg Raiffeisenstraße","MunicipalityCode":"08436064","Municipality":"Ravensburg","DistrictCode":"","District":"","Description":"","Authority":"NVBW","DelfiName":"-","THID":"D920F4001F83","LastOperationDate":"2025-06-14T00:00:00","SEV":"nein","longitude":"9,599002","latitude":"47,773641","geojson_lng":9.599002,"geojson_lat":47.773641},"geometry":{"type":"Point","coordinates":[9.599002,47.773641]}},{"type":"Feature","properties":{"SeqNo":"92665","Type":"Q","DHID":"de:08436:8067:0:1","Parent":"de:08436:8067","Name":"Steig 1","MunicipalityCode":"00000000","Municipality":"-","DistrictCode":"-","District":"-","Description":"","Authority":"NVBW","DelfiName":"-","THID":"-","LastOperationDate":"","SEV":"nein","longitude":"9,599164","latitude":"47,773786","geojson_lng":9.599164,"geojson_lat":47.773786},"geometry":{"type":"Point","coordinates":[9.599164,47.773786]}},{"type":"Feature","properties":{"SeqNo":"92666","Type":"Q","DHID":"de:08436:8067:0:2","Parent":"de:08436:8067","Name":"Steig 2","MunicipalityCode":"00000000","Municipality":"-","DistrictCode":"-","District":"-","Description":"","Authority":"NVBW","DelfiName":"-","THID":"-","LastOperationDate":"","SEV":"nein","longitude":"9,598804","latitude":"47,773478","geojson_lng":9.598804,"geojson_lat":47.773478},"geometry":{"type":"Point","coordinates":[9.598804,47.773478]}},{"type":"Feature","properties":{"SeqNo":"92667","Type":"S","DHID":"de:08436:8068","Parent":"de:08436:8068","Name":"Ravensburg Adolf-Aich","MunicipalityCode":"08436064","Municipality":"Ravensburg","DistrictCode":"","District":"","Description":"","Authority":"NVBW","DelfiName":"-","THID":"D920F4001F84","LastOperationDate":"2025-06-14T00:00:00","SEV":"nein","longitude":"9,597088","latitude":"47,770574","geojson_lng":9.597088,"geojson_lat":47.770574},"geometry":{"type":"Point","coordinates":[9.597088,47.770574]}},{"type":"Feature","properties":{"SeqNo":"92668","Type":"Q","DHID":"de:08436:8068:0:1","Parent":"de:08436:8068","Name":"Steig 1","MunicipalityCode":"00000000","Municipality":"-","DistrictCode":"-","District":"-","Description":"","Authority":"NVBW","DelfiName":"-","THID":"-","LastOperationDate":"","SEV":"nein","longitude":"9,597304","latitude":"47,770743","geojson_lng":9.597304,"geojson_lat":47.770743},"geometry":{"type":"Point","coordinates":[9.597304,47.770743]}},{"type":"Feature","properties":{"SeqNo":"92669","Type":"Q","DHID":"de:08436:8068:0:2","Parent":"de:08436:8068","Name":"Steig 2","MunicipalityCode":"00000000","Municipality":"-","DistrictCode":"-","District":"-","Description":"","Authority":"NVBW","DelfiName":"-","THID":"-","LastOperationDate":"","SEV":"nein","longitude":"9,596909","latitude":"47,770314","geojson_lng":9.596909,"geojson_lat":47.770314},"geometry":{"type":"Point","coordinates":[9.596909,47.770314]}}]}