{"type":"FeatureCollection","features":[{"type":"Feature","properties":{"SeqNo":"588823","Type":"S","DHID":"de:05378:31512","Parent":"de:05378:31512","Name":"Bergisch Gladbach Bensberg Im Hoppenkamp","MunicipalityCode":"05378004","Municipality":"Bergisch Gladbach","DistrictCode":"","District":"","Description":"","Authority":"VRR","DelfiName":"-","THID":"D91502007B18","LastOperationDate":"2025-01-06T00:00:00","SEV":"nein","longitude":"7,156222","latitude":"50,96289","geojson_lng":7.156222,"geojson_lat":50.96289},"geometry":{"type":"Point","coordinates":[7.156222,50.96289]}},{"type":"Feature","properties":{"SeqNo":"588824","Type":"A","DHID":"de:05378:31512:1","Parent":"de:05378:31512","Name":"Bahnsteig 2","MunicipalityCode":"00000000","Municipality":"-","DistrictCode":"-","District":"-","Description":"","Authority":"VRR","DelfiName":"-","THID":"-","LastOperationDate":"","SEV":"nein","longitude":"7,156078","latitude":"50,962856","geojson_lng":7.156078,"geojson_lat":50.962856},"geometry":{"type":"Point","coordinates":[7.156078,50.962856]}},{"type":"Feature","properties":{"SeqNo":"588825","Type":"A","DHID":"de:05378:31512:11","Parent":"de:05378:31512","Name":"Bahnsteig 1","MunicipalityCode":"00000000","Municipality":"-","DistrictCode":"-","District":"-","Description":"","Authority":"VRR","DelfiName":"-","THID":"-","LastOperationDate":"","SEV":"nein","longitude":"7,15633","latitude":"50,962941","geojson_lng":7.15633,"geojson_lat":50.962941},"geometry":{"type":"Point","coordinates":[7.15633,50.962941]}},{"type":"Feature","properties":{"SeqNo":"588826","Type":"A","DHID":"de:05378:31512:12","Parent":"de:05378:31512","Name":"Bahnsteig 2","MunicipalityCode":"00000000","Municipality":"-","DistrictCode":"-","District":"-","Description":"","Authority":"VRR","DelfiName":"-","THID":"-","LastOperationDate":"","SEV":"nein","longitude":"7,156078","latitude":"50,962856","geojson_lng":7.156078,"geojson_lat":50.962856},"geometry":{"type":"Point","coordinates":[7.156078,50.962856]}},{"type":"Feature","properties":{"SeqNo":"588827","Type":"A","DHID":"de:05378:31512:2","Parent":"de:05378:31512","Name":"Im Hoppenkamp","MunicipalityCode":"00000000","Municipality":"-","DistrictCode":"-","District":"-","Description":"","Authority":"VRR","DelfiName":"-","THID":"-","LastOperationDate":"","SEV":"nein","longitude":"7,156222","latitude":"50,96289","geojson_lng":7.156222,"geojson_lat":50.96289},"geometry":{"type":"Point","coordinates":[7.156222,50.96289]}},{"type":"Feature","properties":{"SeqNo":"588828","Type":"A","DHID":"de:05378:31512:G1","Parent":"de:05378:31512","Name":"Bahnsteig","MunicipalityCode":"00000000","Municipality":"-","DistrictCode":"-","District":"-","Description":"","Authority":"VRR","DelfiName":"-","THID":"-","LastOperationDate":"","SEV":"nein","longitude":"7,156078","latitude":"50,962856","geojson_lng":7.156078,"geojson_lat":50.962856},"geometry":{"type":"Point","coordinates":[7.156078,50.962856]}},{"type":"Feature","properties":{"SeqNo":"588829","Type":"Q","DHID":"de:05378:31512:1:11","Parent":"de:05378:31512:11","Name":"","MunicipalityCode":"00000000","Municipality":"-","DistrictCode":"-","District":"-","Description":"","Authority":"VRR","DelfiName":"-","THID":"-","LastOperationDate":"","SEV":"nein","longitude":"7,156572","latitude":"50,963201","geojson_lng":7.156572,"geojson_lat":50.963201},"geometry":{"type":"Point","coordinates":[7.156572,50.963201]}},{"type":"Feature","properties":{"SeqNo":"588830","Type":"Q","DHID":"de:05378:31512:1:12","Parent":"de:05378:31512:12","Name":"","MunicipalityCode":"00000000","Municipality":"-","DistrictCode":"-","District":"-","Description":"","Authority":"VRR","DelfiName":"-","THID":"-","LastOperationDate":"","SEV":"nein","longitude":"7,156096","latitude":"50,962816","geojson_lng":7.156096,"geojson_lat":50.962816},"geometry":{"type":"Point","coordinates":[7.156096,50.962816]}},{"type":"Feature","properties":{"SeqNo":"588831","Type":"Q","DHID":"de:05378:31512:2:31","Parent":"de:05378:31512:2","Name":"","MunicipalityCode":"00000000","Municipality":"-","DistrictCode":"-","District":"-","Description":"","Authority":"VRR","DelfiName":"-","THID":"-","LastOperationDate":"","SEV":"nein","longitude":"7,156438","latitude":"50,962771","geojson_lng":7.156438,"geojson_lat":50.962771},"geometry":{"type":"Point","coordinates":[7.156438,50.962771]}},{"type":"Feature","properties":{"SeqNo":"588832","Type":"Q","DHID":"de:05378:31512:2:32","Parent":"de:05378:31512:2","Name":"","MunicipalityCode":"00000000","Municipality":"-","DistrictCode":"-","District":"-","Description":"","Authority":"VRR","DelfiName":"-","THID":"-","LastOperationDate":"","SEV":"nein","longitude":"7,156411","latitude":"50,962748","geojson_lng":7.156411,"geojson_lat":50.962748},"geometry":{"type":"Point","coordinates":[7.156411,50.962748]}},{"type":"Feature","properties":{"SeqNo":"588857","Type":"S","DHID":"de:05378:31515","Parent":"de:05378:31515","Name":"Bergisch Gladbach Bensberg","MunicipalityCode":"05378004","Municipality":"Bergisch Gladbach","DistrictCode":"","District":"","Description":"","Authority":"VRR","DelfiName":"-","THID":"D91502007B1B","LastOperationDate":"2025-01-06T00:00:00","SEV":"nein","longitude":"7,161145","latitude":"50,963818","geojson_lng":7.161145,"geojson_lat":50.963818},"geometry":{"type":"Point","coordinates":[7.161145,50.963818]}},{"type":"Feature","properties":{"SeqNo":"588858","Type":"A","DHID":"de:05378:31515:1","Parent":"de:05378:31515","Name":"Bensberg","MunicipalityCode":"00000000","Municipality":"-","DistrictCode":"-","District":"-","Description":"","Authority":"VRR","DelfiName":"-","THID":"-","LastOperationDate":"","SEV":"nein","longitude":"7,161495","latitude":"50,963716","geojson_lng":7.161495,"geojson_lat":50.963716},"geometry":{"type":"Point","coordinates":[7.161495,50.963716]}},{"type":"Feature","properties":{"SeqNo":"588859","Type":"A","DHID":"de:05378:31515:2","Parent":"de:05378:31515","Name":"Bensberg","MunicipalityCode":"00000000","Municipality":"-","DistrictCode":"-","District":"-","Description":"","Authority":"VRR","DelfiName":"-","THID":"-","LastOperationDate":"","SEV":"nein","longitude":"7,161846","latitude":"50,963524","geojson_lng":7.161846,"geojson_lat":50.963524},"geometry":{"type":"Point","coordinates":[7.161846,50.963524]}},{"type":"Feature","properties":{"SeqNo":"588860","Type":"A","DHID":"de:05378:31515:3","Parent":"de:05378:31515","Name":"Bensberg","MunicipalityCode":"00000000","Municipality":"-","DistrictCode":"-","District":"-","Description":"","Authority":"VRR","DelfiName":"-","THID":"-","LastOperationDate":"","SEV":"nein","longitude":"7,161145","latitude":"50,963818","geojson_lng":7.161145,"geojson_lat":50.963818},"geometry":{"type":"Point","coordinates":[7.161145,50.963818]}},{"type":"Feature","properties":{"SeqNo":"588861","Type":"Q","DHID":"de:05378:31515:1:11","Parent":"de:05378:31515:1","Name":"","MunicipalityCode":"00000000","Municipality":"-","DistrictCode":"-","District":"-","Description":"","Authority":"VRR","DelfiName":"-","THID":"-","LastOperationDate":"","SEV":"nein","longitude":"7,161944","latitude":"50,963473","geojson_lng":7.161944,"geojson_lat":50.963473},"geometry":{"type":"Point","coordinates":[7.161944,50.963473]}},{"type":"Feature","properties":{"SeqNo":"588862","Type":"Q","DHID":"de:05378:31515:1:12","Parent":"de:05378:31515:1","Name":"","MunicipalityCode":"00000000","Municipality":"-","DistrictCode":"-","District":"-","Description":"","Authority":"VRR","DelfiName":"-","THID":"-","LastOperationDate":"","SEV":"nein","longitude":"7,161603","latitude":"50,963761","geojson_lng":7.161603,"geojson_lat":50.963761},"geometry":{"type":"Point","coordinates":[7.161603,50.963761]}},{"type":"Feature","properties":{"SeqNo":"588863","Type":"Q","DHID":"de:05378:31515:2:21","Parent":"de:05378:31515:2","Name":"","MunicipalityCode":"00000000","Municipality":"-","DistrictCode":"-","District":"-","Description":"","Authority":"VRR","DelfiName":"-","THID":"-","LastOperationDate":"","SEV":"nein","longitude":"7,16189","latitude":"50,963563","geojson_lng":7.16189,"geojson_lat":50.963563},"geometry":{"type":"Point","coordinates":[7.16189,50.963563]}},{"type":"Feature","properties":{"SeqNo":"588864","Type":"Q","DHID":"de:05378:31515:2:22","Parent":"de:05378:31515:2","Name":"","MunicipalityCode":"00000000","Municipality":"-","DistrictCode":"-","District":"-","Description":"","Authority":"VRR","DelfiName":"-","THID":"-","LastOperationDate":"","SEV":"nein","longitude":"7,16181","latitude":"50,963524","geojson_lng":7.16181,"geojson_lat":50.963524},"geometry":{"type":"Point","coordinates":[7.16181,50.963524]}},{"type":"Feature","properties":{"SeqNo":"588865","Type":"Q","DHID":"de:05378:31515:2:23","Parent":"de:05378:31515:2","Name":"","MunicipalityCode":"00000000","Municipality":"-","DistrictCode":"-","District":"-","Description":"","Authority":"VRR","DelfiName":"-","THID":"-","LastOperationDate":"","SEV":"nein","longitude":"7,161765","latitude":"50,963473","geojson_lng":7.161765,"geojson_lat":50.963473},"geometry":{"type":"Point","coordinates":[7.161765,50.963473]}},{"type":"Feature","properties":{"SeqNo":"588866","Type":"Q","DHID":"de:05378:31515:2:24","Parent":"de:05378:31515:2","Name":"","MunicipalityCode":"00000000","Municipality":"-","DistrictCode":"-","District":"-","Description":"","Authority":"VRR","DelfiName":"-","THID":"-","LastOperationDate":"","SEV":"nein","longitude":"7,161855","latitude":"50,963337","geojson_lng":7.161855,"geojson_lat":50.963337},"geometry":{"type":"Point","coordinates":[7.161855,50.963337]}},{"type":"Feature","properties":{"SeqNo":"588867","Type":"Q","DHID":"de:05378:31515:2:25","Parent":"de:05378:31515:2","Name":"","MunicipalityCode":"00000000","Municipality":"-","DistrictCode":"-","District":"-","Description":"","Authority":"VRR","DelfiName":"-","THID":"-","LastOperationDate":"","SEV":"nein","longitude":"7,161351","latitude":"50,96405","geojson_lng":7.161351,"geojson_lat":50.96405},"geometry":{"type":"Point","coordinates":[7.161351,50.96405]}},{"type":"Feature","properties":{"SeqNo":"588868","Type":"Q","DHID":"de:05378:31515:2:28","Parent":"de:05378:31515:2","Name":"","MunicipalityCode":"00000000","Municipality":"-","DistrictCode":"-","District":"-","Description":"","Authority":"VRR","DelfiName":"-","THID":"-","LastOperationDate":"","SEV":"nein","longitude":"7,161873","latitude":"50,963456","geojson_lng":7.161873,"geojson_lat":50.963456},"geometry":{"type":"Point","coordinates":[7.161873,50.963456]}},{"type":"Feature","properties":{"SeqNo":"588869","Type":"Q","DHID":"de:05378:31515:2:29","Parent":"de:05378:31515:2","Name":"","MunicipalityCode":"00000000","Municipality":"-","DistrictCode":"-","District":"-","Description":"","Authority":"VRR","DelfiName":"-","THID":"-","LastOperationDate":"","SEV":"nein","longitude":"7,161873","latitude":"50,963456","geojson_lng":7.161873,"geojson_lat":50.963456},"geometry":{"type":"Point","coordinates":[7.161873,50.963456]}},{"type":"Feature","properties":{"SeqNo":"588870","Type":"Q","DHID":"de:05378:31515:2:31","Parent":"de:05378:31515:2","Name":"","MunicipalityCode":"00000000","Municipality":"-","DistrictCode":"-","District":"-","Description":"","Authority":"VRR","DelfiName":"-","THID":"-","LastOperationDate":"","SEV":"nein","longitude":"7,161873","latitude":"50,963456","geojson_lng":7.161873,"geojson_lat":50.963456},"geometry":{"type":"Point","coordinates":[7.161873,50.963456]}},{"type":"Feature","properties":{"SeqNo":"588871","Type":"Q","DHID":"de:05378:31515:2:32","Parent":"de:05378:31515:2","Name":"","MunicipalityCode":"00000000","Municipality":"-","DistrictCode":"-","District":"-","Description":"","Authority":"VRR","DelfiName":"-","THID":"-","LastOperationDate":"","SEV":"nein","longitude":"7,161873","latitude":"50,963456","geojson_lng":7.161873,"geojson_lat":50.963456},"geometry":{"type":"Point","coordinates":[7.161873,50.963456]}},{"type":"Feature","properties":{"SeqNo":"588872","Type":"Q","DHID":"de:05378:31515:2:33","Parent":"de:05378:31515:2","Name":"","MunicipalityCode":"00000000","Municipality":"-","DistrictCode":"-","District":"-","Description":"","Authority":"VRR","DelfiName":"-","THID":"-","LastOperationDate":"","SEV":"nein","longitude":"7,161873","latitude":"50,963456","geojson_lng":7.161873,"geojson_lat":50.963456},"geometry":{"type":"Point","coordinates":[7.161873,50.963456]}},{"type":"Feature","properties":{"SeqNo":"588873","Type":"Q","DHID":"de:05378:31515:2:20","Parent":"de:05378:31515:3","Name":"","MunicipalityCode":"00000000","Municipality":"-","DistrictCode":"-","District":"-","Description":"","Authority":"VRR","DelfiName":"-","THID":"-","LastOperationDate":"","SEV":"nein","longitude":"7,162313","latitude":"50,963371","geojson_lng":7.162313,"geojson_lat":50.963371},"geometry":{"type":"Point","coordinates":[7.162313,50.963371]}},{"type":"Feature","properties":{"SeqNo":"588874","Type":"Q","DHID":"de:05378:665:3:34","Parent":"de:05378:31515:3","Name":"","MunicipalityCode":"00000000","Municipality":"-","DistrictCode":"-","District":"-","Description":"","Authority":"VRR","DelfiName":"-","THID":"-","LastOperationDate":"","SEV":"nein","longitude":"7,162313","latitude":"50,963371","geojson_lng":7.162313,"geojson_lat":50.963371},"geometry":{"type":"Point","coordinates":[7.162313,50.963371]}},{"type":"Feature","properties":{"SeqNo":"588875","Type":"Q","DHID":"de:05378:665:3:35","Parent":"de:05378:31515:3","Name":"","MunicipalityCode":"00000000","Municipality":"-","DistrictCode":"-","District":"-","Description":"","Authority":"VRR","DelfiName":"-","THID":"-","LastOperationDate":"","SEV":"nein","longitude":"7,16189","latitude":"50,963563","geojson_lng":7.16189,"geojson_lat":50.963563},"geometry":{"type":"Point","coordinates":[7.16189,50.963563]}},{"type":"Feature","properties":{"SeqNo":"588876","Type":"Q","DHID":"de:05378:665:3:36","Parent":"de:05378:31515:3","Name":"","MunicipalityCode":"00000000","Municipality":"-","DistrictCode":"-","District":"-","Description":"","Authority":"VRR","DelfiName":"-","THID":"-","LastOperationDate":"","SEV":"nein","longitude":"7,16181","latitude":"50,963524","geojson_lng":7.16181,"geojson_lat":50.963524},"geometry":{"type":"Point","coordinates":[7.16181,50.963524]}},{"type":"Feature","properties":{"SeqNo":"588877","Type":"Q","DHID":"de:05378:665:3:37","Parent":"de:05378:31515:3","Name":"","MunicipalityCode":"00000000","Municipality":"-","DistrictCode":"-","District":"-","Description":"","Authority":"VRR","DelfiName":"-","THID":"-","LastOperationDate":"","SEV":"nein","longitude":"7,161765","latitude":"50,963473","geojson_lng":7.161765,"geojson_lat":50.963473},"geometry":{"type":"Point","coordinates":[7.161765,50.963473]}},{"type":"Feature","properties":{"SeqNo":"588878","Type":"Q","DHID":"de:05378:665:3:38","Parent":"de:05378:31515:3","Name":"","MunicipalityCode":"00000000","Municipality":"-","DistrictCode":"-","District":"-","Description":"","Authority":"VRR","DelfiName":"-","THID":"-","LastOperationDate":"","SEV":"nein","longitude":"7,161729","latitude":"50,963399","geojson_lng":7.161729,"geojson_lat":50.963399},"geometry":{"type":"Point","coordinates":[7.161729,50.963399]}},{"type":"Feature","properties":{"SeqNo":"588879","Type":"Q","DHID":"de:05378:665:3:39","Parent":"de:05378:31515:3","Name":"","MunicipalityCode":"00000000","Municipality":"-","DistrictCode":"-","District":"-","Description":"","Authority":"VRR","DelfiName":"-","THID":"-","LastOperationDate":"","SEV":"nein","longitude":"7,161351","latitude":"50,96405","geojson_lng":7.161351,"geojson_lat":50.96405},"geometry":{"type":"Point","coordinates":[7.161351,50.96405]}},{"type":"Feature","properties":{"SeqNo":"588880","Type":"Q","DHID":"de:05378:665:3:40","Parent":"de:05378:31515:3","Name":"","MunicipalityCode":"00000000","Municipality":"-","DistrictCode":"-","District":"-","Description":"","Authority":"VRR","DelfiName":"-","THID":"-","LastOperationDate":"","SEV":"nein","longitude":"7,161873","latitude":"50,963456","geojson_lng":7.161873,"geojson_lat":50.963456},"geometry":{"type":"Point","coordinates":[7.161873,50.963456]}},{"type":"Feature","properties":{"SeqNo":"588881","Type":"Q","DHID":"de:05378:665:3:41","Parent":"de:05378:31515:3","Name":"","MunicipalityCode":"00000000","Municipality":"-","DistrictCode":"-","District":"-","Description":"","Authority":"VRR","DelfiName":"-","THID":"-","LastOperationDate":"","SEV":"nein","longitude":"7,161873","latitude":"50,963456","geojson_lng":7.161873,"geojson_lat":50.963456},"geometry":{"type":"Point","coordinates":[7.161873,50.963456]}},{"type":"Feature","properties":{"SeqNo":"588882","Type":"Q","DHID":"de:05378:665:3:42","Parent":"de:05378:31515:3","Name":"","MunicipalityCode":"00000000","Municipality":"-","DistrictCode":"-","District":"-","Description":"","Authority":"VRR","DelfiName":"-","THID":"-","LastOperationDate":"","SEV":"nein","longitude":"7,161873","latitude":"50,963456","geojson_lng":7.161873,"geojson_lat":50.963456},"geometry":{"type":"Point","coordinates":[7.161873,50.963456]}},{"type":"Feature","properties":{"SeqNo":"588883","Type":"Q","DHID":"de:05378:665:3:43","Parent":"de:05378:31515:3","Name":"","MunicipalityCode":"00000000","Municipality":"-","DistrictCode":"-","District":"-","Description":"","Authority":"VRR","DelfiName":"-","THID":"-","LastOperationDate":"","SEV":"nein","longitude":"7,161873","latitude":"50,963456","geojson_lng":7.161873,"geojson_lat":50.963456},"geometry":{"type":"Point","coordinates":[7.161873,50.963456]}},{"type":"Feature","properties":{"SeqNo":"588884","Type":"Q","DHID":"de:05378:665:3:44","Parent":"de:05378:31515:3","Name":"","MunicipalityCode":"00000000","Municipality":"-","DistrictCode":"-","District":"-","Description":"","Authority":"VRR","DelfiName":"-","THID":"-","LastOperationDate":"","SEV":"nein","longitude":"7,161873","latitude":"50,963456","geojson_lng":7.161873,"geojson_lat":50.963456},"geometry":{"type":"Point","coordinates":[7.161873,50.963456]}},{"type":"Feature","properties":{"SeqNo":"588937","Type":"S","DHID":"de:05378:31550","Parent":"de:05378:31550","Name":"Bergisch Gladbach Bensberg Friedrich-Offermann-Str.","MunicipalityCode":"05378004","Municipality":"Bergisch Gladbach","DistrictCode":"","District":"","Description":"","Authority":"VRR","DelfiName":"-","THID":"D91502007B3E","LastOperationDate":"2025-01-06T00:00:00","SEV":"nein","longitude":"7,161989","latitude":"50,960683","geojson_lng":7.161989,"geojson_lat":50.960683},"geometry":{"type":"Point","coordinates":[7.161989,50.960683]}},{"type":"Feature","properties":{"SeqNo":"588938","Type":"A","DHID":"de:05378:31550:2","Parent":"de:05378:31550","Name":"Friedrich-Offerma","MunicipalityCode":"00000000","Municipality":"-","DistrictCode":"-","District":"-","Description":"","Authority":"VRR","DelfiName":"-","THID":"-","LastOperationDate":"","SEV":"nein","longitude":"7,161989","latitude":"50,960683","geojson_lng":7.161989,"geojson_lat":50.960683},"geometry":{"type":"Point","coordinates":[7.161989,50.960683]}},{"type":"Feature","properties":{"SeqNo":"588939","Type":"Q","DHID":"de:05378:31550:2:21","Parent":"de:05378:31550:2","Name":"","MunicipalityCode":"00000000","Municipality":"-","DistrictCode":"-","District":"-","Description":"","Authority":"VRR","DelfiName":"-","THID":"-","LastOperationDate":"","SEV":"nein","longitude":"7,161801","latitude":"50,960287","geojson_lng":7.161801,"geojson_lat":50.960287},"geometry":{"type":"Point","coordinates":[7.161801,50.960287]}},{"type":"Feature","properties":{"SeqNo":"588940","Type":"Q","DHID":"de:05378:31550:2:22","Parent":"de:05378:31550:2","Name":"","MunicipalityCode":"00000000","Municipality":"-","DistrictCode":"-","District":"-","Description":"","Authority":"VRR","DelfiName":"-","THID":"-","LastOperationDate":"","SEV":"nein","longitude":"7,162672","latitude":"50,958692","geojson_lng":7.162672,"geojson_lat":50.958692},"geometry":{"type":"Point","coordinates":[7.162672,50.958692]}},{"type":"Feature","properties":{"SeqNo":"589026","Type":"S","DHID":"de:05378:31575","Parent":"de:05378:31575","Name":"Bergisch Gladbach Bensberg Rosenhecke","MunicipalityCode":"05378004","Municipality":"Bergisch Gladbach","DistrictCode":"","District":"","Description":"","Authority":"VRR","DelfiName":"-","THID":"D91502007B57","LastOperationDate":"2025-01-06T00:00:00","SEV":"nein","longitude":"7,160812","latitude":"50,961781","geojson_lng":7.160812,"geojson_lat":50.961781},"geometry":{"type":"Point","coordinates":[7.160812,50.961781]}},{"type":"Feature","properties":{"SeqNo":"589027","Type":"A","DHID":"de:05378:31575:2","Parent":"de:05378:31575","Name":"Rosenhecke","MunicipalityCode":"00000000","Municipality":"-","DistrictCode":"-","District":"-","Description":"","Authority":"VRR","DelfiName":"-","THID":"-","LastOperationDate":"","SEV":"nein","longitude":"7,160795","latitude":"50,961781","geojson_lng":7.160795,"geojson_lat":50.961781},"geometry":{"type":"Point","coordinates":[7.160795,50.961781]}},{"type":"Feature","properties":{"SeqNo":"589028","Type":"Q","DHID":"de:05378:31575:2:21","Parent":"de:05378:31575:2","Name":"","MunicipalityCode":"00000000","Municipality":"-","DistrictCode":"-","District":"-","Description":"","Authority":"VRR","DelfiName":"-","THID":"-","LastOperationDate":"","SEV":"nein","longitude":"7,160812","latitude":"50,961781","geojson_lng":7.160812,"geojson_lat":50.961781},"geometry":{"type":"Point","coordinates":[7.160812,50.961781]}},{"type":"Feature","properties":{"SeqNo":"589029","Type":"Q","DHID":"de:05378:31575:2:22","Parent":"de:05378:31575:2","Name":"","MunicipalityCode":"00000000","Municipality":"-","DistrictCode":"-","District":"-","Description":"","Authority":"VRR","DelfiName":"-","THID":"-","LastOperationDate":"","SEV":"nein","longitude":"7,160812","latitude":"50,961781","geojson_lng":7.160812,"geojson_lat":50.961781},"geometry":{"type":"Point","coordinates":[7.160812,50.961781]}},{"type":"Feature","properties":{"SeqNo":"589032","Type":"S","DHID":"de:05378:31578","Parent":"de:05378:31578","Name":"Bergisch Gladbach Bensberg Kauler Str.","MunicipalityCode":"05378004","Municipality":"Bergisch Gladbach","DistrictCode":"","District":"","Description":"","Authority":"VRR","DelfiName":"-","THID":"D91502007B5A","LastOperationDate":"2025-01-06T00:00:00","SEV":"nein","longitude":"7,157031","latitude":"50,96216","geojson_lng":7.157031,"geojson_lat":50.96216},"geometry":{"type":"Point","coordinates":[7.157031,50.96216]}},{"type":"Feature","properties":{"SeqNo":"589033","Type":"A","DHID":"de:05378:31578:2","Parent":"de:05378:31578","Name":"Kauler Str.","MunicipalityCode":"00000000","Municipality":"-","DistrictCode":"-","District":"-","Description":"","Authority":"VRR","DelfiName":"-","THID":"-","LastOperationDate":"","SEV":"nein","longitude":"7,157022","latitude":"50,96216","geojson_lng":7.157022,"geojson_lat":50.96216},"geometry":{"type":"Point","coordinates":[7.157022,50.96216]}},{"type":"Feature","properties":{"SeqNo":"589034","Type":"Q","DHID":"de:05378:31578:2:21","Parent":"de:05378:31578:2","Name":"","MunicipalityCode":"00000000","Municipality":"-","DistrictCode":"-","District":"-","Description":"","Authority":"VRR","DelfiName":"-","THID":"-","LastOperationDate":"","SEV":"nein","longitude":"7,157031","latitude":"50,96216","geojson_lng":7.157031,"geojson_lat":50.96216},"geometry":{"type":"Point","coordinates":[7.157031,50.96216]}},{"type":"Feature","properties":{"SeqNo":"589035","Type":"Q","DHID":"de:05378:31578:2:22","Parent":"de:05378:31578:2","Name":"","MunicipalityCode":"00000000","Municipality":"-","DistrictCode":"-","District":"-","Description":"","Authority":"VRR","DelfiName":"-","THID":"-","LastOperationDate":"","SEV":"nein","longitude":"7,157031","latitude":"50,96216","geojson_lng":7.157031,"geojson_lat":50.96216},"geometry":{"type":"Point","coordinates":[7.157031,50.96216]}}]}