{"type":"FeatureCollection","features":[{"type":"Feature","properties":{"SeqNo":"600567","Type":"S","DHID":"de:05378:31512","Parent":"de:05378:31512","Name":"Bergisch Gladbach Bensberg Im Hoppenkamp","Latitude":"50,96289","Longitude":"7,156222","MunicipalityCode":"05378004","Municipality":"Bergisch Gladbach","DistrictCode":"","District":"","Description":"","Authority":"VRR","DelfiName":"-","THID":"D91502007B18","TariffProvider":"-","LastOperationDate":"2025-08-26T00:00:00","SEV":"nein","geojson_lng":7.156222,"geojson_lat":50.96289},"geometry":{"type":"Point","coordinates":[7.156222,50.96289]}},{"type":"Feature","properties":{"SeqNo":"600568","Type":"A","DHID":"de:05378:31512:1","Parent":"de:05378:31512","Name":"Bahnsteig 2","Latitude":"50,962856","Longitude":"7,156078","MunicipalityCode":"00000000","Municipality":"-","DistrictCode":"-","District":"-","Description":"","Authority":"VRR","DelfiName":"-","THID":"-","TariffProvider":"-","LastOperationDate":"","SEV":"nein","geojson_lng":7.156078,"geojson_lat":50.962856},"geometry":{"type":"Point","coordinates":[7.156078,50.962856]}},{"type":"Feature","properties":{"SeqNo":"600569","Type":"A","DHID":"de:05378:31512:11","Parent":"de:05378:31512","Name":"Bahnsteig 1","Latitude":"50,962941","Longitude":"7,15633","MunicipalityCode":"00000000","Municipality":"-","DistrictCode":"-","District":"-","Description":"","Authority":"VRR","DelfiName":"-","THID":"-","TariffProvider":"-","LastOperationDate":"","SEV":"nein","geojson_lng":7.15633,"geojson_lat":50.962941},"geometry":{"type":"Point","coordinates":[7.15633,50.962941]}},{"type":"Feature","properties":{"SeqNo":"600570","Type":"A","DHID":"de:05378:31512:12","Parent":"de:05378:31512","Name":"Bahnsteig 2","Latitude":"50,962856","Longitude":"7,156078","MunicipalityCode":"00000000","Municipality":"-","DistrictCode":"-","District":"-","Description":"","Authority":"VRR","DelfiName":"-","THID":"-","TariffProvider":"-","LastOperationDate":"","SEV":"nein","geojson_lng":7.156078,"geojson_lat":50.962856},"geometry":{"type":"Point","coordinates":[7.156078,50.962856]}},{"type":"Feature","properties":{"SeqNo":"600571","Type":"A","DHID":"de:05378:31512:2","Parent":"de:05378:31512","Name":"Im Hoppenkamp","Latitude":"50,96289","Longitude":"7,156222","MunicipalityCode":"00000000","Municipality":"-","DistrictCode":"-","District":"-","Description":"","Authority":"VRR","DelfiName":"-","THID":"-","TariffProvider":"-","LastOperationDate":"","SEV":"nein","geojson_lng":7.156222,"geojson_lat":50.96289},"geometry":{"type":"Point","coordinates":[7.156222,50.96289]}},{"type":"Feature","properties":{"SeqNo":"600572","Type":"A","DHID":"de:05378:31512:G1","Parent":"de:05378:31512","Name":"Bahnsteig","Latitude":"50,962856","Longitude":"7,156078","MunicipalityCode":"00000000","Municipality":"-","DistrictCode":"-","District":"-","Description":"","Authority":"VRR","DelfiName":"-","THID":"-","TariffProvider":"-","LastOperationDate":"","SEV":"nein","geojson_lng":7.156078,"geojson_lat":50.962856},"geometry":{"type":"Point","coordinates":[7.156078,50.962856]}},{"type":"Feature","properties":{"SeqNo":"600573","Type":"Q","DHID":"de:05378:31512:1:11","Parent":"de:05378:31512:11","Name":"-","Latitude":"50,963201","Longitude":"7,156572","MunicipalityCode":"00000000","Municipality":"-","DistrictCode":"-","District":"-","Description":"","Authority":"VRR","DelfiName":"-","THID":"-","TariffProvider":"-","LastOperationDate":"","SEV":"nein","geojson_lng":7.156572,"geojson_lat":50.963201},"geometry":{"type":"Point","coordinates":[7.156572,50.963201]}},{"type":"Feature","properties":{"SeqNo":"600574","Type":"Q","DHID":"de:05378:31512:1:12","Parent":"de:05378:31512:12","Name":"-","Latitude":"50,962816","Longitude":"7,156096","MunicipalityCode":"00000000","Municipality":"-","DistrictCode":"-","District":"-","Description":"","Authority":"VRR","DelfiName":"-","THID":"-","TariffProvider":"-","LastOperationDate":"","SEV":"nein","geojson_lng":7.156096,"geojson_lat":50.962816},"geometry":{"type":"Point","coordinates":[7.156096,50.962816]}},{"type":"Feature","properties":{"SeqNo":"600575","Type":"Q","DHID":"de:05378:31512:2:31","Parent":"de:05378:31512:2","Name":"-","Latitude":"50,962771","Longitude":"7,156438","MunicipalityCode":"00000000","Municipality":"-","DistrictCode":"-","District":"-","Description":"","Authority":"VRR","DelfiName":"-","THID":"-","TariffProvider":"-","LastOperationDate":"","SEV":"nein","geojson_lng":7.156438,"geojson_lat":50.962771},"geometry":{"type":"Point","coordinates":[7.156438,50.962771]}},{"type":"Feature","properties":{"SeqNo":"600576","Type":"Q","DHID":"de:05378:31512:2:32","Parent":"de:05378:31512:2","Name":"-","Latitude":"50,962748","Longitude":"7,156411","MunicipalityCode":"00000000","Municipality":"-","DistrictCode":"-","District":"-","Description":"","Authority":"VRR","DelfiName":"-","THID":"-","TariffProvider":"-","LastOperationDate":"","SEV":"nein","geojson_lng":7.156411,"geojson_lat":50.962748},"geometry":{"type":"Point","coordinates":[7.156411,50.962748]}},{"type":"Feature","properties":{"SeqNo":"600601","Type":"S","DHID":"de:05378:31515","Parent":"de:05378:31515","Name":"Bergisch Gladbach Bensberg","Latitude":"50,963818","Longitude":"7,161145","MunicipalityCode":"05378004","Municipality":"Bergisch Gladbach","DistrictCode":"","District":"","Description":"","Authority":"VRR","DelfiName":"-","THID":"D91502007B1B","TariffProvider":"-","LastOperationDate":"2025-08-26T00:00:00","SEV":"nein","geojson_lng":7.161145,"geojson_lat":50.963818},"geometry":{"type":"Point","coordinates":[7.161145,50.963818]}},{"type":"Feature","properties":{"SeqNo":"600602","Type":"A","DHID":"de:05378:31515:1","Parent":"de:05378:31515","Name":"Bensberg","Latitude":"50,963716","Longitude":"7,161495","MunicipalityCode":"00000000","Municipality":"-","DistrictCode":"-","District":"-","Description":"","Authority":"VRR","DelfiName":"-","THID":"-","TariffProvider":"-","LastOperationDate":"","SEV":"nein","geojson_lng":7.161495,"geojson_lat":50.963716},"geometry":{"type":"Point","coordinates":[7.161495,50.963716]}},{"type":"Feature","properties":{"SeqNo":"600603","Type":"A","DHID":"de:05378:31515:2","Parent":"de:05378:31515","Name":"Bensberg","Latitude":"50,963524","Longitude":"7,161846","MunicipalityCode":"00000000","Municipality":"-","DistrictCode":"-","District":"-","Description":"","Authority":"VRR","DelfiName":"-","THID":"-","TariffProvider":"-","LastOperationDate":"","SEV":"nein","geojson_lng":7.161846,"geojson_lat":50.963524},"geometry":{"type":"Point","coordinates":[7.161846,50.963524]}},{"type":"Feature","properties":{"SeqNo":"600604","Type":"A","DHID":"de:05378:31515:3","Parent":"de:05378:31515","Name":"Bensberg","Latitude":"50,963818","Longitude":"7,161145","MunicipalityCode":"00000000","Municipality":"-","DistrictCode":"-","District":"-","Description":"","Authority":"VRR","DelfiName":"-","THID":"-","TariffProvider":"-","LastOperationDate":"","SEV":"nein","geojson_lng":7.161145,"geojson_lat":50.963818},"geometry":{"type":"Point","coordinates":[7.161145,50.963818]}},{"type":"Feature","properties":{"SeqNo":"600605","Type":"Q","DHID":"de:05378:31515:1:11","Parent":"de:05378:31515:1","Name":"-","Latitude":"50,963473","Longitude":"7,161944","MunicipalityCode":"00000000","Municipality":"-","DistrictCode":"-","District":"-","Description":"","Authority":"VRR","DelfiName":"-","THID":"-","TariffProvider":"-","LastOperationDate":"","SEV":"nein","geojson_lng":7.161944,"geojson_lat":50.963473},"geometry":{"type":"Point","coordinates":[7.161944,50.963473]}},{"type":"Feature","properties":{"SeqNo":"600606","Type":"Q","DHID":"de:05378:31515:1:12","Parent":"de:05378:31515:1","Name":"-","Latitude":"50,963761","Longitude":"7,161603","MunicipalityCode":"00000000","Municipality":"-","DistrictCode":"-","District":"-","Description":"","Authority":"VRR","DelfiName":"-","THID":"-","TariffProvider":"-","LastOperationDate":"","SEV":"nein","geojson_lng":7.161603,"geojson_lat":50.963761},"geometry":{"type":"Point","coordinates":[7.161603,50.963761]}},{"type":"Feature","properties":{"SeqNo":"600607","Type":"Q","DHID":"de:05378:31515:2:21","Parent":"de:05378:31515:2","Name":"-","Latitude":"50,963563","Longitude":"7,16189","MunicipalityCode":"00000000","Municipality":"-","DistrictCode":"-","District":"-","Description":"","Authority":"VRR","DelfiName":"-","THID":"-","TariffProvider":"-","LastOperationDate":"","SEV":"nein","geojson_lng":7.16189,"geojson_lat":50.963563},"geometry":{"type":"Point","coordinates":[7.16189,50.963563]}},{"type":"Feature","properties":{"SeqNo":"600608","Type":"Q","DHID":"de:05378:31515:2:22","Parent":"de:05378:31515:2","Name":"-","Latitude":"50,963524","Longitude":"7,16181","MunicipalityCode":"00000000","Municipality":"-","DistrictCode":"-","District":"-","Description":"","Authority":"VRR","DelfiName":"-","THID":"-","TariffProvider":"-","LastOperationDate":"","SEV":"nein","geojson_lng":7.16181,"geojson_lat":50.963524},"geometry":{"type":"Point","coordinates":[7.16181,50.963524]}},{"type":"Feature","properties":{"SeqNo":"600609","Type":"Q","DHID":"de:05378:31515:2:23","Parent":"de:05378:31515:2","Name":"-","Latitude":"50,963473","Longitude":"7,161765","MunicipalityCode":"00000000","Municipality":"-","DistrictCode":"-","District":"-","Description":"","Authority":"VRR","DelfiName":"-","THID":"-","TariffProvider":"-","LastOperationDate":"","SEV":"nein","geojson_lng":7.161765,"geojson_lat":50.963473},"geometry":{"type":"Point","coordinates":[7.161765,50.963473]}},{"type":"Feature","properties":{"SeqNo":"600610","Type":"Q","DHID":"de:05378:31515:2:24","Parent":"de:05378:31515:2","Name":"-","Latitude":"50,963337","Longitude":"7,161855","MunicipalityCode":"00000000","Municipality":"-","DistrictCode":"-","District":"-","Description":"","Authority":"VRR","DelfiName":"-","THID":"-","TariffProvider":"-","LastOperationDate":"","SEV":"nein","geojson_lng":7.161855,"geojson_lat":50.963337},"geometry":{"type":"Point","coordinates":[7.161855,50.963337]}},{"type":"Feature","properties":{"SeqNo":"600611","Type":"Q","DHID":"de:05378:31515:2:25","Parent":"de:05378:31515:2","Name":"-","Latitude":"50,96405","Longitude":"7,161351","MunicipalityCode":"00000000","Municipality":"-","DistrictCode":"-","District":"-","Description":"","Authority":"VRR","DelfiName":"-","THID":"-","TariffProvider":"-","LastOperationDate":"","SEV":"nein","geojson_lng":7.161351,"geojson_lat":50.96405},"geometry":{"type":"Point","coordinates":[7.161351,50.96405]}},{"type":"Feature","properties":{"SeqNo":"600612","Type":"Q","DHID":"de:05378:31515:2:28","Parent":"de:05378:31515:2","Name":"-","Latitude":"50,963456","Longitude":"7,161873","MunicipalityCode":"00000000","Municipality":"-","DistrictCode":"-","District":"-","Description":"","Authority":"VRR","DelfiName":"-","THID":"-","TariffProvider":"-","LastOperationDate":"","SEV":"nein","geojson_lng":7.161873,"geojson_lat":50.963456},"geometry":{"type":"Point","coordinates":[7.161873,50.963456]}},{"type":"Feature","properties":{"SeqNo":"600613","Type":"Q","DHID":"de:05378:31515:2:29","Parent":"de:05378:31515:2","Name":"-","Latitude":"50,963456","Longitude":"7,161873","MunicipalityCode":"00000000","Municipality":"-","DistrictCode":"-","District":"-","Description":"","Authority":"VRR","DelfiName":"-","THID":"-","TariffProvider":"-","LastOperationDate":"","SEV":"nein","geojson_lng":7.161873,"geojson_lat":50.963456},"geometry":{"type":"Point","coordinates":[7.161873,50.963456]}},{"type":"Feature","properties":{"SeqNo":"600614","Type":"Q","DHID":"de:05378:31515:2:31","Parent":"de:05378:31515:2","Name":"-","Latitude":"50,963456","Longitude":"7,161873","MunicipalityCode":"00000000","Municipality":"-","DistrictCode":"-","District":"-","Description":"","Authority":"VRR","DelfiName":"-","THID":"-","TariffProvider":"-","LastOperationDate":"","SEV":"nein","geojson_lng":7.161873,"geojson_lat":50.963456},"geometry":{"type":"Point","coordinates":[7.161873,50.963456]}},{"type":"Feature","properties":{"SeqNo":"600615","Type":"Q","DHID":"de:05378:31515:2:32","Parent":"de:05378:31515:2","Name":"-","Latitude":"50,963456","Longitude":"7,161873","MunicipalityCode":"00000000","Municipality":"-","DistrictCode":"-","District":"-","Description":"","Authority":"VRR","DelfiName":"-","THID":"-","TariffProvider":"-","LastOperationDate":"","SEV":"nein","geojson_lng":7.161873,"geojson_lat":50.963456},"geometry":{"type":"Point","coordinates":[7.161873,50.963456]}},{"type":"Feature","properties":{"SeqNo":"600616","Type":"Q","DHID":"de:05378:31515:2:33","Parent":"de:05378:31515:2","Name":"-","Latitude":"50,963456","Longitude":"7,161873","MunicipalityCode":"00000000","Municipality":"-","DistrictCode":"-","District":"-","Description":"","Authority":"VRR","DelfiName":"-","THID":"-","TariffProvider":"-","LastOperationDate":"","SEV":"nein","geojson_lng":7.161873,"geojson_lat":50.963456},"geometry":{"type":"Point","coordinates":[7.161873,50.963456]}},{"type":"Feature","properties":{"SeqNo":"600617","Type":"Q","DHID":"de:05378:31515:2:20","Parent":"de:05378:31515:3","Name":"-","Latitude":"50,963371","Longitude":"7,162313","MunicipalityCode":"00000000","Municipality":"-","DistrictCode":"-","District":"-","Description":"","Authority":"VRR","DelfiName":"-","THID":"-","TariffProvider":"-","LastOperationDate":"","SEV":"nein","geojson_lng":7.162313,"geojson_lat":50.963371},"geometry":{"type":"Point","coordinates":[7.162313,50.963371]}},{"type":"Feature","properties":{"SeqNo":"600618","Type":"Q","DHID":"de:05378:665:3:34","Parent":"de:05378:31515:3","Name":"-","Latitude":"50,963371","Longitude":"7,162313","MunicipalityCode":"00000000","Municipality":"-","DistrictCode":"-","District":"-","Description":"","Authority":"VRR","DelfiName":"-","THID":"-","TariffProvider":"-","LastOperationDate":"","SEV":"nein","geojson_lng":7.162313,"geojson_lat":50.963371},"geometry":{"type":"Point","coordinates":[7.162313,50.963371]}},{"type":"Feature","properties":{"SeqNo":"600619","Type":"Q","DHID":"de:05378:665:3:35","Parent":"de:05378:31515:3","Name":"-","Latitude":"50,963563","Longitude":"7,16189","MunicipalityCode":"00000000","Municipality":"-","DistrictCode":"-","District":"-","Description":"","Authority":"VRR","DelfiName":"-","THID":"-","TariffProvider":"-","LastOperationDate":"","SEV":"nein","geojson_lng":7.16189,"geojson_lat":50.963563},"geometry":{"type":"Point","coordinates":[7.16189,50.963563]}},{"type":"Feature","properties":{"SeqNo":"600620","Type":"Q","DHID":"de:05378:665:3:36","Parent":"de:05378:31515:3","Name":"-","Latitude":"50,963524","Longitude":"7,16181","MunicipalityCode":"00000000","Municipality":"-","DistrictCode":"-","District":"-","Description":"","Authority":"VRR","DelfiName":"-","THID":"-","TariffProvider":"-","LastOperationDate":"","SEV":"nein","geojson_lng":7.16181,"geojson_lat":50.963524},"geometry":{"type":"Point","coordinates":[7.16181,50.963524]}},{"type":"Feature","properties":{"SeqNo":"600621","Type":"Q","DHID":"de:05378:665:3:37","Parent":"de:05378:31515:3","Name":"-","Latitude":"50,963473","Longitude":"7,161765","MunicipalityCode":"00000000","Municipality":"-","DistrictCode":"-","District":"-","Description":"","Authority":"VRR","DelfiName":"-","THID":"-","TariffProvider":"-","LastOperationDate":"","SEV":"nein","geojson_lng":7.161765,"geojson_lat":50.963473},"geometry":{"type":"Point","coordinates":[7.161765,50.963473]}},{"type":"Feature","properties":{"SeqNo":"600622","Type":"Q","DHID":"de:05378:665:3:38","Parent":"de:05378:31515:3","Name":"-","Latitude":"50,963399","Longitude":"7,161729","MunicipalityCode":"00000000","Municipality":"-","DistrictCode":"-","District":"-","Description":"","Authority":"VRR","DelfiName":"-","THID":"-","TariffProvider":"-","LastOperationDate":"","SEV":"nein","geojson_lng":7.161729,"geojson_lat":50.963399},"geometry":{"type":"Point","coordinates":[7.161729,50.963399]}},{"type":"Feature","properties":{"SeqNo":"600623","Type":"Q","DHID":"de:05378:665:3:39","Parent":"de:05378:31515:3","Name":"-","Latitude":"50,96405","Longitude":"7,161351","MunicipalityCode":"00000000","Municipality":"-","DistrictCode":"-","District":"-","Description":"","Authority":"VRR","DelfiName":"-","THID":"-","TariffProvider":"-","LastOperationDate":"","SEV":"nein","geojson_lng":7.161351,"geojson_lat":50.96405},"geometry":{"type":"Point","coordinates":[7.161351,50.96405]}},{"type":"Feature","properties":{"SeqNo":"600624","Type":"Q","DHID":"de:05378:665:3:40","Parent":"de:05378:31515:3","Name":"-","Latitude":"50,963456","Longitude":"7,161873","MunicipalityCode":"00000000","Municipality":"-","DistrictCode":"-","District":"-","Description":"","Authority":"VRR","DelfiName":"-","THID":"-","TariffProvider":"-","LastOperationDate":"","SEV":"nein","geojson_lng":7.161873,"geojson_lat":50.963456},"geometry":{"type":"Point","coordinates":[7.161873,50.963456]}},{"type":"Feature","properties":{"SeqNo":"600625","Type":"Q","DHID":"de:05378:665:3:41","Parent":"de:05378:31515:3","Name":"-","Latitude":"50,963456","Longitude":"7,161873","MunicipalityCode":"00000000","Municipality":"-","DistrictCode":"-","District":"-","Description":"","Authority":"VRR","DelfiName":"-","THID":"-","TariffProvider":"-","LastOperationDate":"","SEV":"nein","geojson_lng":7.161873,"geojson_lat":50.963456},"geometry":{"type":"Point","coordinates":[7.161873,50.963456]}},{"type":"Feature","properties":{"SeqNo":"600626","Type":"Q","DHID":"de:05378:665:3:42","Parent":"de:05378:31515:3","Name":"-","Latitude":"50,963456","Longitude":"7,161873","MunicipalityCode":"00000000","Municipality":"-","DistrictCode":"-","District":"-","Description":"","Authority":"VRR","DelfiName":"-","THID":"-","TariffProvider":"-","LastOperationDate":"","SEV":"nein","geojson_lng":7.161873,"geojson_lat":50.963456},"geometry":{"type":"Point","coordinates":[7.161873,50.963456]}},{"type":"Feature","properties":{"SeqNo":"600627","Type":"Q","DHID":"de:05378:665:3:43","Parent":"de:05378:31515:3","Name":"-","Latitude":"50,963456","Longitude":"7,161873","MunicipalityCode":"00000000","Municipality":"-","DistrictCode":"-","District":"-","Description":"","Authority":"VRR","DelfiName":"-","THID":"-","TariffProvider":"-","LastOperationDate":"","SEV":"nein","geojson_lng":7.161873,"geojson_lat":50.963456},"geometry":{"type":"Point","coordinates":[7.161873,50.963456]}},{"type":"Feature","properties":{"SeqNo":"600628","Type":"Q","DHID":"de:05378:665:3:44","Parent":"de:05378:31515:3","Name":"-","Latitude":"50,963456","Longitude":"7,161873","MunicipalityCode":"00000000","Municipality":"-","DistrictCode":"-","District":"-","Description":"","Authority":"VRR","DelfiName":"-","THID":"-","TariffProvider":"-","LastOperationDate":"","SEV":"nein","geojson_lng":7.161873,"geojson_lat":50.963456},"geometry":{"type":"Point","coordinates":[7.161873,50.963456]}},{"type":"Feature","properties":{"SeqNo":"600681","Type":"S","DHID":"de:05378:31550","Parent":"de:05378:31550","Name":"Bergisch Gladbach Bensberg Friedrich-Offermann-Str.","Latitude":"50,960683","Longitude":"7,161989","MunicipalityCode":"05378004","Municipality":"Bergisch Gladbach","DistrictCode":"","District":"","Description":"","Authority":"VRR","DelfiName":"-","THID":"D91502007B3E","TariffProvider":"-","LastOperationDate":"2025-12-13T00:00:00","SEV":"nein","geojson_lng":7.161989,"geojson_lat":50.960683},"geometry":{"type":"Point","coordinates":[7.161989,50.960683]}},{"type":"Feature","properties":{"SeqNo":"600682","Type":"A","DHID":"de:05378:31550:2","Parent":"de:05378:31550","Name":"Friedrich-Offerma","Latitude":"50,960683","Longitude":"7,161989","MunicipalityCode":"00000000","Municipality":"-","DistrictCode":"-","District":"-","Description":"","Authority":"VRR","DelfiName":"-","THID":"-","TariffProvider":"-","LastOperationDate":"","SEV":"nein","geojson_lng":7.161989,"geojson_lat":50.960683},"geometry":{"type":"Point","coordinates":[7.161989,50.960683]}},{"type":"Feature","properties":{"SeqNo":"600683","Type":"Q","DHID":"de:05378:31550:2:21","Parent":"de:05378:31550:2","Name":"-","Latitude":"50,960287","Longitude":"7,161801","MunicipalityCode":"00000000","Municipality":"-","DistrictCode":"-","District":"-","Description":"","Authority":"VRR","DelfiName":"-","THID":"-","TariffProvider":"-","LastOperationDate":"","SEV":"nein","geojson_lng":7.161801,"geojson_lat":50.960287},"geometry":{"type":"Point","coordinates":[7.161801,50.960287]}},{"type":"Feature","properties":{"SeqNo":"600684","Type":"Q","DHID":"de:05378:31550:2:22","Parent":"de:05378:31550:2","Name":"-","Latitude":"50,958692","Longitude":"7,162672","MunicipalityCode":"00000000","Municipality":"-","DistrictCode":"-","District":"-","Description":"","Authority":"VRR","DelfiName":"-","THID":"-","TariffProvider":"-","LastOperationDate":"","SEV":"nein","geojson_lng":7.162672,"geojson_lat":50.958692},"geometry":{"type":"Point","coordinates":[7.162672,50.958692]}},{"type":"Feature","properties":{"SeqNo":"600772","Type":"S","DHID":"de:05378:31575","Parent":"de:05378:31575","Name":"Bergisch Gladbach Bensberg Rosenhecke","Latitude":"50,961781","Longitude":"7,160812","MunicipalityCode":"05378004","Municipality":"Bergisch Gladbach","DistrictCode":"","District":"","Description":"","Authority":"VRR","DelfiName":"-","THID":"D91502007B57","TariffProvider":"-","LastOperationDate":"2025-10-31T00:00:00","SEV":"nein","geojson_lng":7.160812,"geojson_lat":50.961781},"geometry":{"type":"Point","coordinates":[7.160812,50.961781]}},{"type":"Feature","properties":{"SeqNo":"600773","Type":"A","DHID":"de:05378:31575:2","Parent":"de:05378:31575","Name":"Rosenhecke","Latitude":"50,961781","Longitude":"7,160795","MunicipalityCode":"00000000","Municipality":"-","DistrictCode":"-","District":"-","Description":"","Authority":"VRR","DelfiName":"-","THID":"-","TariffProvider":"-","LastOperationDate":"","SEV":"nein","geojson_lng":7.160795,"geojson_lat":50.961781},"geometry":{"type":"Point","coordinates":[7.160795,50.961781]}},{"type":"Feature","properties":{"SeqNo":"600774","Type":"Q","DHID":"de:05378:31575:2:21","Parent":"de:05378:31575:2","Name":"-","Latitude":"50,961781","Longitude":"7,160812","MunicipalityCode":"00000000","Municipality":"-","DistrictCode":"-","District":"-","Description":"","Authority":"VRR","DelfiName":"-","THID":"-","TariffProvider":"-","LastOperationDate":"","SEV":"nein","geojson_lng":7.160812,"geojson_lat":50.961781},"geometry":{"type":"Point","coordinates":[7.160812,50.961781]}},{"type":"Feature","properties":{"SeqNo":"600775","Type":"Q","DHID":"de:05378:31575:2:22","Parent":"de:05378:31575:2","Name":"-","Latitude":"50,961781","Longitude":"7,160812","MunicipalityCode":"00000000","Municipality":"-","DistrictCode":"-","District":"-","Description":"","Authority":"VRR","DelfiName":"-","THID":"-","TariffProvider":"-","LastOperationDate":"","SEV":"nein","geojson_lng":7.160812,"geojson_lat":50.961781},"geometry":{"type":"Point","coordinates":[7.160812,50.961781]}},{"type":"Feature","properties":{"SeqNo":"600778","Type":"S","DHID":"de:05378:31578","Parent":"de:05378:31578","Name":"Bergisch Gladbach Bensberg Kauler Str.","Latitude":"50,96216","Longitude":"7,157031","MunicipalityCode":"05378004","Municipality":"Bergisch Gladbach","DistrictCode":"","District":"","Description":"","Authority":"VRR","DelfiName":"-","THID":"D91502007B5A","TariffProvider":"-","LastOperationDate":"2025-10-31T00:00:00","SEV":"nein","geojson_lng":7.157031,"geojson_lat":50.96216},"geometry":{"type":"Point","coordinates":[7.157031,50.96216]}},{"type":"Feature","properties":{"SeqNo":"600779","Type":"A","DHID":"de:05378:31578:2","Parent":"de:05378:31578","Name":"Kauler Str.","Latitude":"50,96216","Longitude":"7,157022","MunicipalityCode":"00000000","Municipality":"-","DistrictCode":"-","District":"-","Description":"","Authority":"VRR","DelfiName":"-","THID":"-","TariffProvider":"-","LastOperationDate":"","SEV":"nein","geojson_lng":7.157022,"geojson_lat":50.96216},"geometry":{"type":"Point","coordinates":[7.157022,50.96216]}},{"type":"Feature","properties":{"SeqNo":"600780","Type":"Q","DHID":"de:05378:31578:2:21","Parent":"de:05378:31578:2","Name":"-","Latitude":"50,96216","Longitude":"7,157031","MunicipalityCode":"00000000","Municipality":"-","DistrictCode":"-","District":"-","Description":"","Authority":"VRR","DelfiName":"-","THID":"-","TariffProvider":"-","LastOperationDate":"","SEV":"nein","geojson_lng":7.157031,"geojson_lat":50.96216},"geometry":{"type":"Point","coordinates":[7.157031,50.96216]}},{"type":"Feature","properties":{"SeqNo":"600781","Type":"Q","DHID":"de:05378:31578:2:22","Parent":"de:05378:31578:2","Name":"-","Latitude":"50,96216","Longitude":"7,157031","MunicipalityCode":"00000000","Municipality":"-","DistrictCode":"-","District":"-","Description":"","Authority":"VRR","DelfiName":"-","THID":"-","TariffProvider":"-","LastOperationDate":"","SEV":"nein","geojson_lng":7.157031,"geojson_lat":50.96216},"geometry":{"type":"Point","coordinates":[7.157031,50.96216]}}]}