{"type":"FeatureCollection","features":[{"type":"Feature","properties":{"SeqNo":"510296","Type":"S","DHID":"de:05111:18110","Parent":"de:05111:18110","Name":"D-Hammer Dorfstraße","MunicipalityCode":"05111000","Municipality":"Düsseldorf","DistrictCode":"","District":"","Description":"","Authority":"VRR","DelfiName":"-","THID":"D913F70046BE","LastOperationDate":"2025-06-14T00:00:00","SEV":"nein","longitude":"6,742054","latitude":"51,209816","geojson_lng":6.742054,"geojson_lat":51.209816},"geometry":{"type":"Point","coordinates":[6.742054,51.209816]}},{"type":"Feature","properties":{"SeqNo":"510297","Type":"A","DHID":"de:05111:18110:1","Parent":"de:05111:18110","Name":"für Steig 1","MunicipalityCode":"00000000","Municipality":"-","DistrictCode":"-","District":"-","Description":"","Authority":"VRR","DelfiName":"-","THID":"-","LastOperationDate":"","SEV":"nein","longitude":"6,742207","latitude":"51,209833","geojson_lng":6.742207,"geojson_lat":51.209833},"geometry":{"type":"Point","coordinates":[6.742207,51.209833]}},{"type":"Feature","properties":{"SeqNo":"510298","Type":"A","DHID":"de:05111:18110:2","Parent":"de:05111:18110","Name":"für Steig 2","MunicipalityCode":"00000000","Municipality":"-","DistrictCode":"-","District":"-","Description":"","Authority":"VRR","DelfiName":"-","THID":"-","LastOperationDate":"","SEV":"nein","longitude":"6,741802","latitude":"51,209799","geojson_lng":6.741802,"geojson_lat":51.209799},"geometry":{"type":"Point","coordinates":[6.741802,51.209799]}},{"type":"Feature","properties":{"SeqNo":"510299","Type":"Q","DHID":"de:05111:18110:0:1","Parent":"de:05111:18110:1","Name":"Ri. Endstelle","MunicipalityCode":"00000000","Municipality":"-","DistrictCode":"-","District":"-","Description":"","Authority":"VRR","DelfiName":"-","THID":"-","LastOperationDate":"","SEV":"nein","longitude":"6,742198","latitude":"51,209822","geojson_lng":6.742198,"geojson_lat":51.209822},"geometry":{"type":"Point","coordinates":[6.742198,51.209822]}},{"type":"Feature","properties":{"SeqNo":"510300","Type":"Q","DHID":"de:05111:18110:0:2","Parent":"de:05111:18110:2","Name":"Ri. GAP-ASB","MunicipalityCode":"00000000","Municipality":"-","DistrictCode":"-","District":"-","Description":"","Authority":"VRR","DelfiName":"-","THID":"-","LastOperationDate":"","SEV":"nein","longitude":"6,741829","latitude":"51,209827","geojson_lng":6.741829,"geojson_lat":51.209827},"geometry":{"type":"Point","coordinates":[6.741829,51.209827]}},{"type":"Feature","properties":{"SeqNo":"510301","Type":"S","DHID":"de:05111:18111","Parent":"de:05111:18111","Name":"D-Hamm S","MunicipalityCode":"05111000","Municipality":"Düsseldorf","DistrictCode":"","District":"","Description":"","Authority":"VRR","DelfiName":"-","THID":"D913F70046BF","LastOperationDate":"2025-02-28T00:00:00","SEV":"nein","longitude":"6,739233","latitude":"51,210503","geojson_lng":6.739233,"geojson_lat":51.210503},"geometry":{"type":"Point","coordinates":[6.739233,51.210503]}},{"type":"Feature","properties":{"SeqNo":"510302","Type":"A","DHID":"de:05111:18111:1","Parent":"de:05111:18111","Name":"Zugang","MunicipalityCode":"00000000","Municipality":"-","DistrictCode":"-","District":"-","Description":"","Authority":"VRR","DelfiName":"-","THID":"-","LastOperationDate":"","SEV":"nein","longitude":"6,739188","latitude":"51,210384","geojson_lng":6.739188,"geojson_lat":51.210384},"geometry":{"type":"Point","coordinates":[6.739188,51.210384]}},{"type":"Feature","properties":{"SeqNo":"510303","Type":"A","DHID":"de:05111:18111:2","Parent":"de:05111:18111","Name":"für Steig 2","MunicipalityCode":"00000000","Municipality":"-","DistrictCode":"-","District":"-","Description":"","Authority":"VRR","DelfiName":"-","THID":"-","LastOperationDate":"","SEV":"nein","longitude":"6,739332","latitude":"51,210007","geojson_lng":6.739332,"geojson_lat":51.210007},"geometry":{"type":"Point","coordinates":[6.739332,51.210007]}},{"type":"Feature","properties":{"SeqNo":"510304","Type":"A","DHID":"de:05111:18111:3","Parent":"de:05111:18111","Name":"für Steig 3","MunicipalityCode":"00000000","Municipality":"-","DistrictCode":"-","District":"-","Description":"","Authority":"VRR","DelfiName":"-","THID":"-","LastOperationDate":"","SEV":"nein","longitude":"6,738452","latitude":"51,210891","geojson_lng":6.738452,"geojson_lat":51.210891},"geometry":{"type":"Point","coordinates":[6.738452,51.210891]}},{"type":"Feature","properties":{"SeqNo":"510305","Type":"A","DHID":"de:05111:18111:4","Parent":"de:05111:18111","Name":"für Steig 1","MunicipalityCode":"00000000","Municipality":"-","DistrictCode":"-","District":"-","Description":"","Authority":"VRR","DelfiName":"-","THID":"-","LastOperationDate":"","SEV":"nein","longitude":"6,740634","latitude":"51,210069","geojson_lng":6.740634,"geojson_lat":51.210069},"geometry":{"type":"Point","coordinates":[6.740634,51.210069]}},{"type":"Feature","properties":{"SeqNo":"510306","Type":"A","DHID":"de:05111:18111:5","Parent":"de:05111:18111","Name":"für Steig 4","MunicipalityCode":"00000000","Municipality":"-","DistrictCode":"-","District":"-","Description":"","Authority":"VRR","DelfiName":"-","THID":"-","LastOperationDate":"","SEV":"nein","longitude":"6,73944","latitude":"51,211116","geojson_lng":6.73944,"geojson_lat":51.211116},"geometry":{"type":"Point","coordinates":[6.73944,51.211116]}},{"type":"Feature","properties":{"SeqNo":"510307","Type":"A","DHID":"de:05111:18111:89","Parent":"de:05111:18111","Name":"Schienenersatzv.","MunicipalityCode":"00000000","Municipality":"-","DistrictCode":"-","District":"-","Description":"","Authority":"VRR","DelfiName":"-","THID":"-","LastOperationDate":"","SEV":"nein","longitude":"6,739395","latitude":"51,211093","geojson_lng":6.739395,"geojson_lat":51.211093},"geometry":{"type":"Point","coordinates":[6.739395,51.211093]}},{"type":"Feature","properties":{"SeqNo":"510308","Type":"A","DHID":"de:05111:18111:90","Parent":"de:05111:18111","Name":"DB","MunicipalityCode":"00000000","Municipality":"-","DistrictCode":"-","District":"-","Description":"","Authority":"VRR","DelfiName":"-","THID":"-","LastOperationDate":"","SEV":"nein","longitude":"6,739188","latitude":"51,210396","geojson_lng":6.739188,"geojson_lat":51.210396},"geometry":{"type":"Point","coordinates":[6.739188,51.210396]}},{"type":"Feature","properties":{"SeqNo":"510309","Type":"A","DHID":"de:05111:18111:98","Parent":"de:05111:18111","Name":"S-Bahn","MunicipalityCode":"00000000","Municipality":"-","DistrictCode":"-","District":"-","Description":"","Authority":"VRR","DelfiName":"-","THID":"-","LastOperationDate":"","SEV":"nein","longitude":"6,740464","latitude":"51,21075","geojson_lng":6.740464,"geojson_lat":51.21075},"geometry":{"type":"Point","coordinates":[6.740464,51.21075]}},{"type":"Feature","properties":{"SeqNo":"510310","Type":"Q","DHID":"de:05111:18111:2:2","Parent":"de:05111:18111:2","Name":"Abfahrt","MunicipalityCode":"00000000","Municipality":"-","DistrictCode":"-","District":"-","Description":"","Authority":"VRR","DelfiName":"-","THID":"-","LastOperationDate":"","SEV":"nein","longitude":"6,739296","latitude":"51,210052","geojson_lng":6.739296,"geojson_lat":51.210052},"geometry":{"type":"Point","coordinates":[6.739296,51.210052]}},{"type":"Feature","properties":{"SeqNo":"510311","Type":"Q","DHID":"de:05111:18111:3:3","Parent":"de:05111:18111:3","Name":"732 Ri. Lausward","MunicipalityCode":"00000000","Municipality":"-","DistrictCode":"-","District":"-","Description":"","Authority":"VRR","DelfiName":"-","THID":"-","LastOperationDate":"","SEV":"nein","longitude":"6,738461","latitude":"51,210874","geojson_lng":6.738461,"geojson_lat":51.210874},"geometry":{"type":"Point","coordinates":[6.738461,51.210874]}},{"type":"Feature","properties":{"SeqNo":"510312","Type":"Q","DHID":"de:05111:18111:2:1","Parent":"de:05111:18111:4","Name":"Ankunft","MunicipalityCode":"00000000","Municipality":"-","DistrictCode":"-","District":"-","Description":"","Authority":"VRR","DelfiName":"-","THID":"-","LastOperationDate":"","SEV":"nein","longitude":"6,740626","latitude":"51,210052","geojson_lng":6.740626,"geojson_lat":51.210052},"geometry":{"type":"Point","coordinates":[6.740626,51.210052]}},{"type":"Feature","properties":{"SeqNo":"510313","Type":"Q","DHID":"de:05111:18111:3:4","Parent":"de:05111:18111:5","Name":"732 Ri. VNA","MunicipalityCode":"00000000","Municipality":"-","DistrictCode":"-","District":"-","Description":"","Authority":"VRR","DelfiName":"-","THID":"-","LastOperationDate":"","SEV":"nein","longitude":"6,739404","latitude":"51,211144","geojson_lng":6.739404,"geojson_lat":51.211144},"geometry":{"type":"Point","coordinates":[6.739404,51.211144]}},{"type":"Feature","properties":{"SeqNo":"510314","Type":"Q","DHID":"de:05111:18111:89:SEV","Parent":"de:05111:18111:89","Name":"SEV","MunicipalityCode":"00000000","Municipality":"-","DistrictCode":"-","District":"-","Description":"","Authority":"VRR","DelfiName":"-","THID":"-","LastOperationDate":"","SEV":"nein","longitude":"6,73935","latitude":"51,211127","geojson_lng":6.73935,"geojson_lat":51.211127},"geometry":{"type":"Point","coordinates":[6.73935,51.211127]}},{"type":"Feature","properties":{"SeqNo":"510315","Type":"Q","DHID":"de:05111:18111:98:1","Parent":"de:05111:18111:98","Name":"Ri. ME","MunicipalityCode":"00000000","Municipality":"-","DistrictCode":"-","District":"-","Description":"","Authority":"VRR","DelfiName":"-","THID":"-","LastOperationDate":"","SEV":"nein","longitude":"6,741173","latitude":"51,210863","geojson_lng":6.741173,"geojson_lat":51.210863},"geometry":{"type":"Point","coordinates":[6.741173,51.210863]}},{"type":"Feature","properties":{"SeqNo":"510316","Type":"Q","DHID":"de:05111:18111:98:2","Parent":"de:05111:18111:98","Name":"Ri. Kaarst","MunicipalityCode":"00000000","Municipality":"-","DistrictCode":"-","District":"-","Description":"","Authority":"VRR","DelfiName":"-","THID":"-","LastOperationDate":"","SEV":"nein","longitude":"6,739772","latitude":"51,210632","geojson_lng":6.739772,"geojson_lat":51.210632},"geometry":{"type":"Point","coordinates":[6.739772,51.210632]}},{"type":"Feature","properties":{"SeqNo":"512538","Type":"S","DHID":"de:05111:18532","Parent":"de:05111:18532","Name":"D-Hamburger Straße","MunicipalityCode":"05111000","Municipality":"Düsseldorf","DistrictCode":"","District":"","Description":"","Authority":"VRR","DelfiName":"-","THID":"D913F7004864","LastOperationDate":"2025-06-14T00:00:00","SEV":"nein","longitude":"6,734526","latitude":"51,211651","geojson_lng":6.734526,"geojson_lat":51.211651},"geometry":{"type":"Point","coordinates":[6.734526,51.211651]}},{"type":"Feature","properties":{"SeqNo":"512539","Type":"A","DHID":"de:05111:18532:1","Parent":"de:05111:18532","Name":"für Steig 1","MunicipalityCode":"00000000","Municipality":"-","DistrictCode":"-","District":"-","Description":"","Authority":"VRR","DelfiName":"-","THID":"-","LastOperationDate":"","SEV":"nein","longitude":"6,734867","latitude":"51,211836","geojson_lng":6.734867,"geojson_lat":51.211836},"geometry":{"type":"Point","coordinates":[6.734867,51.211836]}},{"type":"Feature","properties":{"SeqNo":"512541","Type":"Q","DHID":"de:05111:18532:1:1","Parent":"de:05111:18532:1","Name":"732-LWD","MunicipalityCode":"00000000","Municipality":"-","DistrictCode":"-","District":"-","Description":"","Authority":"VRR","DelfiName":"-","THID":"-","LastOperationDate":"","SEV":"nein","longitude":"6,734822","latitude":"51,211859","geojson_lng":6.734822,"geojson_lat":51.211859},"geometry":{"type":"Point","coordinates":[6.734822,51.211859]}},{"type":"Feature","properties":{"SeqNo":"512543","Type":"S","DHID":"de:05111:18534","Parent":"de:05111:18534","Name":"D-Weizenmühlenstraße","MunicipalityCode":"05111000","Municipality":"Düsseldorf","DistrictCode":"","District":"","Description":"","Authority":"VRR","DelfiName":"-","THID":"D913F7004866","LastOperationDate":"2025-06-14T00:00:00","SEV":"nein","longitude":"6,742117","latitude":"51,212163","geojson_lng":6.742117,"geojson_lat":51.212163},"geometry":{"type":"Point","coordinates":[6.742117,51.212163]}},{"type":"Feature","properties":{"SeqNo":"512544","Type":"A","DHID":"de:05111:18534:1","Parent":"de:05111:18534","Name":"für Steig 1","MunicipalityCode":"00000000","Municipality":"-","DistrictCode":"-","District":"-","Description":"","Authority":"VRR","DelfiName":"-","THID":"-","LastOperationDate":"","SEV":"nein","longitude":"6,742045","latitude":"51,212264","geojson_lng":6.742045,"geojson_lat":51.212264},"geometry":{"type":"Point","coordinates":[6.742045,51.212264]}},{"type":"Feature","properties":{"SeqNo":"512545","Type":"A","DHID":"de:05111:18534:2","Parent":"de:05111:18534","Name":"für Steig 2","MunicipalityCode":"00000000","Municipality":"-","DistrictCode":"-","District":"-","Description":"","Authority":"VRR","DelfiName":"-","THID":"-","LastOperationDate":"","SEV":"nein","longitude":"6,742198","latitude":"51,212078","geojson_lng":6.742198,"geojson_lat":51.212078},"geometry":{"type":"Point","coordinates":[6.742198,51.212078]}},{"type":"Feature","properties":{"SeqNo":"512546","Type":"Q","DHID":"de:05111:18534:1:1","Parent":"de:05111:18534:1","Name":"723 Ri. PLange Mühle","MunicipalityCode":"00000000","Municipality":"-","DistrictCode":"-","District":"-","Description":"","Authority":"VRR","DelfiName":"-","THID":"-","LastOperationDate":"","SEV":"nein","longitude":"6,742009","latitude":"51,212208","geojson_lng":6.742009,"geojson_lat":51.212208},"geometry":{"type":"Point","coordinates":[6.742009,51.212208]}},{"type":"Feature","properties":{"SeqNo":"512547","Type":"Q","DHID":"de:05111:18534:2:2","Parent":"de:05111:18534:2","Name":"723 Ri. Eller","MunicipalityCode":"00000000","Municipality":"-","DistrictCode":"-","District":"-","Description":"","Authority":"VRR","DelfiName":"-","THID":"-","LastOperationDate":"","SEV":"nein","longitude":"6,742225","latitude":"51,212123","geojson_lng":6.742225,"geojson_lat":51.212123},"geometry":{"type":"Point","coordinates":[6.742225,51.212123]}}]}