{"type":"FeatureCollection","features":[{"type":"Feature","properties":{"SeqNo":"831038","Type":"S","DHID":"de:14523:1377","Parent":"de:14523:1377","Name":"Plauen, Gneisenaustraße","MunicipalityCode":"14523320","Municipality":"Plauen","DistrictCode":"","District":"","Description":"","Authority":"VVO","DelfiName":"-","THID":"D938BB000561","LastOperationDate":"2025-06-14T00:00:00","SEV":"nein","longitude":"12,096399","latitude":"50,49446","geojson_lng":12.096399,"geojson_lat":50.49446},"geometry":{"type":"Point","coordinates":[12.096399,50.49446]}},{"type":"Feature","properties":{"SeqNo":"831039","Type":"A","DHID":"de:14523:1377:2","Parent":"de:14523:1377","Name":"Bus","MunicipalityCode":"00000000","Municipality":"-","DistrictCode":"-","District":"-","Description":"","Authority":"VVO","DelfiName":"-","THID":"-","LastOperationDate":"","SEV":"nein","longitude":"12,096399","latitude":"50,49446","geojson_lng":12.096399,"geojson_lat":50.49446},"geometry":{"type":"Point","coordinates":[12.096399,50.49446]}},{"type":"Feature","properties":{"SeqNo":"831040","Type":"A","DHID":"de:14523:1377:3","Parent":"de:14523:1377","Name":"PSB","MunicipalityCode":"00000000","Municipality":"-","DistrictCode":"-","District":"-","Description":"","Authority":"VVO","DelfiName":"-","THID":"-","LastOperationDate":"","SEV":"nein","longitude":"12,097145","latitude":"50,493065","geojson_lng":12.097145,"geojson_lat":50.493065},"geometry":{"type":"Point","coordinates":[12.097145,50.493065]}},{"type":"Feature","properties":{"SeqNo":"831041","Type":"Q","DHID":"de:14523:1377:2:1","Parent":"de:14523:1377:2","Name":"A R Eichhübel","MunicipalityCode":"00000000","Municipality":"-","DistrictCode":"-","District":"-","Description":"","Authority":"VVO","DelfiName":"-","THID":"-","LastOperationDate":"","SEV":"nein","longitude":"12,096417","latitude":"50,494265","geojson_lng":12.096417,"geojson_lat":50.494265},"geometry":{"type":"Point","coordinates":[12.096417,50.494265]}},{"type":"Feature","properties":{"SeqNo":"831609","Type":"S","DHID":"de:14523:172","Parent":"de:14523:172","Name":"Plauen, Kath. Seniorenheim","MunicipalityCode":"14523320","Municipality":"Plauen","DistrictCode":"","District":"","Description":"","Authority":"VVO","DelfiName":"-","THID":"D938BB0000AC","LastOperationDate":"1999-12-31T00:00:00","SEV":"nein","longitude":"12,105751","latitude":"50,497951","geojson_lng":12.105751,"geojson_lat":50.497951},"geometry":{"type":"Point","coordinates":[12.105751,50.497951]}},{"type":"Feature","properties":{"SeqNo":"831610","Type":"A","DHID":"de:14523:172:2","Parent":"de:14523:172","Name":"Bus","MunicipalityCode":"00000000","Municipality":"-","DistrictCode":"-","District":"-","Description":"","Authority":"VVO","DelfiName":"-","THID":"-","LastOperationDate":"","SEV":"nein","longitude":"12,105751","latitude":"50,497951","geojson_lng":12.105751,"geojson_lat":50.497951},"geometry":{"type":"Point","coordinates":[12.105751,50.497951]}},{"type":"Feature","properties":{"SeqNo":"831611","Type":"Q","DHID":"de:14523:172:2:1","Parent":"de:14523:172:2","Name":"A R Plauen","MunicipalityCode":"00000000","Municipality":"-","DistrictCode":"-","District":"-","Description":"","Authority":"VVO","DelfiName":"-","THID":"-","LastOperationDate":"","SEV":"nein","longitude":"12,105903","latitude":"50,497888","geojson_lng":12.105903,"geojson_lat":50.497888},"geometry":{"type":"Point","coordinates":[12.105903,50.497888]}},{"type":"Feature","properties":{"SeqNo":"831612","Type":"Q","DHID":"de:14523:172:2:2","Parent":"de:14523:172:2","Name":"B R Zwoschwitz","MunicipalityCode":"00000000","Municipality":"-","DistrictCode":"-","District":"-","Description":"","Authority":"VVO","DelfiName":"-","THID":"-","LastOperationDate":"","SEV":"nein","longitude":"12,105885","latitude":"50,497997","geojson_lng":12.105885,"geojson_lat":50.497997},"geometry":{"type":"Point","coordinates":[12.105885,50.497997]}},{"type":"Feature","properties":{"SeqNo":"831850","Type":"S","DHID":"de:14523:179","Parent":"de:14523:179","Name":"Plauen, R-Luxemburg-Platz","MunicipalityCode":"14523320","Municipality":"Plauen","DistrictCode":"","District":"","Description":"","Authority":"VVO","DelfiName":"-","THID":"D938BB0000B3","LastOperationDate":"2025-06-14T00:00:00","SEV":"nein","longitude":"12,102939","latitude":"50,494814","geojson_lng":12.102939,"geojson_lat":50.494814},"geometry":{"type":"Point","coordinates":[12.102939,50.494814]}},{"type":"Feature","properties":{"SeqNo":"831851","Type":"A","DHID":"de:14523:179:2","Parent":"de:14523:179","Name":"Bus","MunicipalityCode":"00000000","Municipality":"-","DistrictCode":"-","District":"-","Description":"","Authority":"VVO","DelfiName":"-","THID":"-","LastOperationDate":"","SEV":"nein","longitude":"12,102939","latitude":"50,494814","geojson_lng":12.102939,"geojson_lat":50.494814},"geometry":{"type":"Point","coordinates":[12.102939,50.494814]}},{"type":"Feature","properties":{"SeqNo":"831852","Type":"Q","DHID":"de:14523:179:2:31","Parent":"de:14523:179:2","Name":"A R Neundorfer Str","MunicipalityCode":"00000000","Municipality":"-","DistrictCode":"-","District":"-","Description":"","Authority":"VVO","DelfiName":"-","THID":"-","LastOperationDate":"","SEV":"nein","longitude":"12,102894","latitude":"50,494757","geojson_lng":12.102894,"geojson_lat":50.494757},"geometry":{"type":"Point","coordinates":[12.102894,50.494757]}},{"type":"Feature","properties":{"SeqNo":"831853","Type":"Q","DHID":"de:14523:179:2:32","Parent":"de:14523:179:2","Name":"B R Mommsenstr","MunicipalityCode":"00000000","Municipality":"-","DistrictCode":"-","District":"-","Description":"","Authority":"VVO","DelfiName":"-","THID":"-","LastOperationDate":"","SEV":"nein","longitude":"12,10302","latitude":"50,494608","geojson_lng":12.10302,"geojson_lat":50.494608},"geometry":{"type":"Point","coordinates":[12.10302,50.494608]}},{"type":"Feature","properties":{"SeqNo":"832129","Type":"S","DHID":"de:14523:2017","Parent":"de:14523:2017","Name":"Plauen, Neundorf","MunicipalityCode":"14523320","Municipality":"Plauen","DistrictCode":"","District":"","Description":"","Authority":"VVO","DelfiName":"-","THID":"D938BB0007E1","LastOperationDate":"2025-06-14T00:00:00","SEV":"nein","longitude":"12,103631","latitude":"50,49486","geojson_lng":12.103631,"geojson_lat":50.49486},"geometry":{"type":"Point","coordinates":[12.103631,50.49486]}},{"type":"Feature","properties":{"SeqNo":"832130","Type":"A","DHID":"de:14523:2017:2","Parent":"de:14523:2017","Name":"Bus","MunicipalityCode":"00000000","Municipality":"-","DistrictCode":"-","District":"-","Description":"","Authority":"VVO","DelfiName":"-","THID":"-","LastOperationDate":"","SEV":"nein","longitude":"12,103541","latitude":"50,494705","geojson_lng":12.103541,"geojson_lat":50.494705},"geometry":{"type":"Point","coordinates":[12.103541,50.494705]}},{"type":"Feature","properties":{"SeqNo":"832131","Type":"A","DHID":"de:14523:2017:3","Parent":"de:14523:2017","Name":"PSB","MunicipalityCode":"00000000","Municipality":"-","DistrictCode":"-","District":"-","Description":"","Authority":"VVO","DelfiName":"-","THID":"-","LastOperationDate":"","SEV":"nein","longitude":"12,103631","latitude":"50,49486","geojson_lng":12.103631,"geojson_lat":50.49486},"geometry":{"type":"Point","coordinates":[12.103631,50.49486]}},{"type":"Feature","properties":{"SeqNo":"832132","Type":"Q","DHID":"de:14523:2017:3:1","Parent":"de:14523:2017:3","Name":"A R Tunnel","MunicipalityCode":"00000000","Municipality":"-","DistrictCode":"-","District":"-","Description":"","Authority":"VVO","DelfiName":"-","THID":"-","LastOperationDate":"","SEV":"nein","longitude":"12,103604","latitude":"50,494751","geojson_lng":12.103604,"geojson_lat":50.494751},"geometry":{"type":"Point","coordinates":[12.103604,50.494751]}},{"type":"Feature","properties":{"SeqNo":"832133","Type":"Q","DHID":"de:14523:2017:3:2","Parent":"de:14523:2017:3","Name":"B","MunicipalityCode":"00000000","Municipality":"-","DistrictCode":"-","District":"-","Description":"","Authority":"VVO","DelfiName":"-","THID":"-","LastOperationDate":"","SEV":"nein","longitude":"12,103289","latitude":"50,494814","geojson_lng":12.103289,"geojson_lat":50.494814},"geometry":{"type":"Point","coordinates":[12.103289,50.494814]}},{"type":"Feature","properties":{"SeqNo":"833419","Type":"S","DHID":"de:14523:416","Parent":"de:14523:416","Name":"Plauen, Eichhübel","MunicipalityCode":"14523320","Municipality":"Plauen","DistrictCode":"","District":"","Description":"","Authority":"VVO","DelfiName":"-","THID":"D938BB0001A0","LastOperationDate":"2025-06-14T00:00:00","SEV":"nein","longitude":"12,097127","latitude":"50,493094","geojson_lng":12.097127,"geojson_lat":50.493094},"geometry":{"type":"Point","coordinates":[12.097127,50.493094]}},{"type":"Feature","properties":{"SeqNo":"833420","Type":"A","DHID":"de:14523:416:2","Parent":"de:14523:416","Name":"Bus","MunicipalityCode":"00000000","Municipality":"-","DistrictCode":"-","District":"-","Description":"","Authority":"VVO","DelfiName":"-","THID":"-","LastOperationDate":"","SEV":"nein","longitude":"12,097127","latitude":"50,493105","geojson_lng":12.097127,"geojson_lat":50.493105},"geometry":{"type":"Point","coordinates":[12.097127,50.493105]}},{"type":"Feature","properties":{"SeqNo":"833421","Type":"Q","DHID":"de:14523:416:2:1","Parent":"de:14523:416:2","Name":"A R Luxemburgplatz","MunicipalityCode":"00000000","Municipality":"-","DistrictCode":"-","District":"-","Description":"","Authority":"VVO","DelfiName":"-","THID":"-","LastOperationDate":"","SEV":"nein","longitude":"12,097351","latitude":"50,493088","geojson_lng":12.097351,"geojson_lat":50.493088},"geometry":{"type":"Point","coordinates":[12.097351,50.493088]}},{"type":"Feature","properties":{"SeqNo":"833422","Type":"Q","DHID":"de:14523:416:2:2","Parent":"de:14523:416:2","Name":"B R  Neundorf","MunicipalityCode":"00000000","Municipality":"-","DistrictCode":"-","District":"-","Description":"","Authority":"VVO","DelfiName":"-","THID":"-","LastOperationDate":"","SEV":"nein","longitude":"12,097603","latitude":"50,493088","geojson_lng":12.097603,"geojson_lat":50.493088},"geometry":{"type":"Point","coordinates":[12.097603,50.493088]}}]}