{"type":"FeatureCollection","features":[{"type":"Feature","properties":{"highway":"bus_stop","public_transport":"platform","name":"Hagelkruisstraat","ref:IFOPT":"NL:Q:60410030","_quaycode":"NL:Q:60410030","_town":"Beugen","_status":"available","_mode":"bus","_direction":333,"_visuallyAccessible":true,"_disabledAccessible":true,"geojson_lng":5.943822153794793,"geojson_lat":51.67355260445301},"geometry":{"type":"Point","coordinates":[5.943822153794793,51.67355260445301]}},{"type":"Feature","properties":{"highway":"bus_stop","public_transport":"platform","name":"Wilhelminaplein","ref:IFOPT":"NL:Q:60500290","_quaycode":"NL:Q:60500290","_town":"Gennep","_status":"available","_mode":"bus","_direction":172,"_visuallyAccessible":false,"_disabledAccessible":true,"geojson_lng":5.972254880750971,"geojson_lat":51.69668567269222},"geometry":{"type":"Point","coordinates":[5.972254880750971,51.69668567269222]}},{"type":"Feature","properties":{"highway":"bus_stop","public_transport":"platform","name":"Veerweg","ref:IFOPT":"NL:Q:60410020","_quaycode":"NL:Q:60410020","_town":"Oeffelt","_status":"available","_mode":"bus","_direction":270,"_visuallyAccessible":false,"_disabledAccessible":false,"geojson_lng":5.9492678281117986,"geojson_lat":51.692960115970905},"geometry":{"type":"Point","coordinates":[5.9492678281117986,51.692960115970905]}},{"type":"Feature","properties":{"highway":"bus_stop","public_transport":"platform","name":"Veerweg","ref:IFOPT":"NL:Q:60410130","_quaycode":"NL:Q:60410130","_town":"Oeffelt","_status":"available","_mode":"bus","_direction":90,"_visuallyAccessible":false,"_disabledAccessible":false,"geojson_lng":5.948297839392855,"geojson_lat":51.69288387065705},"geometry":{"type":"Point","coordinates":[5.948297839392855,51.69288387065705]}},{"type":"Feature","properties":{"highway":"bus_stop","public_transport":"platform","name":"Zuid-Oostwal","ref:IFOPT":"NL:Q:60500320","_quaycode":"NL:Q:60500320","_town":"Gennep","_status":"available","_mode":"bus","_direction":238,"_visuallyAccessible":false,"_disabledAccessible":false,"geojson_lng":5.971165608116217,"geojson_lat":51.69970232046035},"geometry":{"type":"Point","coordinates":[5.971165608116217,51.69970232046035]}},{"type":"Feature","properties":{"highway":"bus_stop","public_transport":"platform","name":"Kwekerij","ref:IFOPT":"NL:Q:60410060","_quaycode":"NL:Q:60410060","_town":"Oeffelt","_status":"available","_mode":"bus","_direction":330,"_visuallyAccessible":false,"_disabledAccessible":true,"geojson_lng":5.939992834191485,"geojson_lat":51.691449236595},"geometry":{"type":"Point","coordinates":[5.939992834191485,51.691449236595]}},{"type":"Feature","properties":{"highway":"bus_stop","public_transport":"platform","name":"Kwekerij","ref:IFOPT":"NL:Q:60410070","_quaycode":"NL:Q:60410070","_town":"Oeffelt","_status":"available","_mode":"bus","_direction":152,"_visuallyAccessible":false,"_disabledAccessible":true,"geojson_lng":5.939720801736385,"geojson_lat":51.6916752375336},"geometry":{"type":"Point","coordinates":[5.939720801736385,51.6916752375336]}},{"type":"Feature","properties":{"highway":"bus_stop","public_transport":"platform","name":"Oeffeltseweg","ref:IFOPT":"NL:Q:60410080","_quaycode":"NL:Q:60410080","_town":"Beugen","_status":"available","_mode":"bus","_direction":146,"_visuallyAccessible":true,"_disabledAccessible":true,"geojson_lng":5.939135792312358,"geojson_lat":51.68047810705925},"geometry":{"type":"Point","coordinates":[5.939135792312358,51.68047810705925]}},{"type":"Feature","properties":{"highway":"bus_stop","public_transport":"platform","name":"Raadhuisplein","ref:IFOPT":"NL:Q:60410090","_quaycode":"NL:Q:60410090","_town":"Oeffelt","_status":"available","_mode":"bus","_direction":302,"_visuallyAccessible":true,"_disabledAccessible":true,"geojson_lng":5.934422803229993,"geojson_lat":51.696077601403594},"geometry":{"type":"Point","coordinates":[5.934422803229993,51.696077601403594]}},{"type":"Feature","properties":{"highway":"bus_stop","public_transport":"platform","name":"Hagelkruisstraat","ref:IFOPT":"NL:Q:60410100","_quaycode":"NL:Q:60410100","_town":"Beugen","_status":"available","_mode":"bus","_direction":177,"_visuallyAccessible":false,"_disabledAccessible":true,"geojson_lng":5.943866819241354,"geojson_lat":51.67248273787873},"geometry":{"type":"Point","coordinates":[5.943866819241354,51.67248273787873]}},{"type":"Feature","properties":{"highway":"bus_stop","public_transport":"platform","name":"Oeffeltseweg","ref:IFOPT":"NL:Q:60410170","_quaycode":"NL:Q:60410170","_town":"Beugen","_status":"available","_mode":"bus","_direction":340,"_visuallyAccessible":true,"_disabledAccessible":true,"geojson_lng":5.938699413879939,"geojson_lat":51.68145094131508},"geometry":{"type":"Point","coordinates":[5.938699413879939,51.68145094131508]}},{"type":"Feature","properties":{"highway":"bus_stop","public_transport":"platform","name":"De Groote Heeze","ref:IFOPT":"NL:Q:60500340","_quaycode":"NL:Q:60500340","_town":"Heijen","_status":"available","_mode":"bus","_direction":314,"_visuallyAccessible":false,"_disabledAccessible":false,"geojson_lng":5.974676624384822,"geojson_lat":51.682687135096316},"geometry":{"type":"Point","coordinates":[5.974676624384822,51.682687135096316]}},{"type":"Feature","properties":{"highway":"bus_stop","public_transport":"platform","name":"Heijenseweg","ref:IFOPT":"NL:Q:60500220","_quaycode":"NL:Q:60500220","_town":"Gennep","_status":"available","_mode":"bus","_direction":3,"_visuallyAccessible":false,"_disabledAccessible":true,"geojson_lng":5.973241292854868,"geojson_lat":51.691323479476615},"geometry":{"type":"Point","coordinates":[5.973241292854868,51.691323479476615]}},{"type":"Feature","properties":{"highway":"bus_stop","public_transport":"platform","name":"Brabantweg","ref:IFOPT":"NL:Q:60500090","_quaycode":"NL:Q:60500090","_town":"Gennep","_status":"available","_mode":"bus","_direction":53,"_visuallyAccessible":false,"_disabledAccessible":false,"geojson_lng":5.968180728286861,"geojson_lat":51.69368576105173},"geometry":{"type":"Point","coordinates":[5.968180728286861,51.69368576105173]}},{"type":"Feature","properties":{"highway":"bus_stop","public_transport":"platform","name":"Stiemensweg","ref:IFOPT":"NL:Q:60500270","_quaycode":"NL:Q:60500270","_town":"Gennep","_status":"available","_mode":"bus","_direction":159,"_visuallyAccessible":false,"_disabledAccessible":false,"geojson_lng":5.9741972746893035,"geojson_lat":51.68697714982933},"geometry":{"type":"Point","coordinates":[5.9741972746893035,51.68697714982933]}},{"type":"Feature","properties":{"highway":"bus_stop","public_transport":"platform","name":"Heijenseweg","ref:IFOPT":"NL:Q:60500210","_quaycode":"NL:Q:60500210","_town":"Gennep","_status":"available","_mode":"bus","_direction":280,"_visuallyAccessible":false,"_disabledAccessible":true,"geojson_lng":5.9732030513993175,"geojson_lat":51.69060457536605},"geometry":{"type":"Point","coordinates":[5.9732030513993175,51.69060457536605]}},{"type":"Feature","properties":{"highway":"bus_stop","public_transport":"platform","name":"Busstation","ref:IFOPT":"NL:Q:60500010","_quaycode":"NL:Q:60500010","_town":"Gennep","_status":"available","_mode":"bus","_direction":265,"_visuallyAccessible":true,"_disabledAccessible":true,"geojson_lng":5.9740038086637455,"geojson_lat":51.69435783829339},"geometry":{"type":"Point","coordinates":[5.9740038086637455,51.69435783829339]}},{"type":"Feature","properties":{"highway":"bus_stop","public_transport":"platform","name":"Heesweg","ref:IFOPT":"NL:Q:60500360","_quaycode":"NL:Q:60500360","_town":"Heijen","_status":"available","_mode":"bus","_direction":327,"_visuallyAccessible":false,"_disabledAccessible":true,"geojson_lng":5.976083771580392,"geojson_lat":51.67636999287607},"geometry":{"type":"Point","coordinates":[5.976083771580392,51.67636999287607]}},{"type":"Feature","properties":{"highway":"bus_stop","public_transport":"platform","name":"Brabantweg","ref:IFOPT":"NL:Q:60500080","_quaycode":"NL:Q:60500080","_town":"Gennep","_status":"available","_mode":"bus","_direction":315,"_visuallyAccessible":false,"_disabledAccessible":false,"geojson_lng":5.9692820881325845,"geojson_lat":51.69385107566976},"geometry":{"type":"Point","coordinates":[5.9692820881325845,51.69385107566976]}},{"type":"Feature","properties":{"highway":"bus_stop","public_transport":"platform","name":"Stiemensweg","ref:IFOPT":"NL:Q:60500280","_quaycode":"NL:Q:60500280","_town":"Gennep","_status":"available","_mode":"bus","_direction":339,"_visuallyAccessible":false,"_disabledAccessible":false,"geojson_lng":5.974357777654973,"geojson_lat":51.687093196538505},"geometry":{"type":"Point","coordinates":[5.974357777654973,51.687093196538505]}},{"type":"Feature","properties":{"highway":"bus_stop","public_transport":"platform","name":"Busstation","ref:IFOPT":"NL:Q:60500020","_quaycode":"NL:Q:60500020","_town":"Gennep","_status":"available","_mode":"bus","_direction":282,"_visuallyAccessible":true,"_disabledAccessible":true,"geojson_lng":5.973989928996447,"geojson_lat":51.69440285131533},"geometry":{"type":"Point","coordinates":[5.973989928996447,51.69440285131533]}},{"type":"Feature","properties":{"highway":"bus_stop","public_transport":"platform","name":"De Groote Heeze","ref:IFOPT":"NL:Q:60500330","_quaycode":"NL:Q:60500330","_town":"Heijen","_status":"available","_mode":"bus","_direction":200,"_visuallyAccessible":false,"_disabledAccessible":false,"geojson_lng":5.974396426205664,"geojson_lat":51.68338067102821},"geometry":{"type":"Point","coordinates":[5.974396426205664,51.68338067102821]}},{"type":"Feature","properties":{"highway":"bus_stop","public_transport":"platform","name":"Wilhelminaplein","ref:IFOPT":"NL:Q:60500300","_quaycode":"NL:Q:60500300","_town":"Gennep","_status":"available","_mode":"bus","_direction":352,"_visuallyAccessible":false,"_disabledAccessible":false,"geojson_lng":5.972389124660458,"geojson_lat":51.69699960590507},"geometry":{"type":"Point","coordinates":[5.972389124660458,51.69699960590507]}},{"type":"Feature","properties":{"highway":"bus_stop","public_transport":"platform","name":"Heesweg","ref:IFOPT":"NL:Q:60500350","_quaycode":"NL:Q:60500350","_town":"Heijen","_status":"available","_mode":"bus","_direction":168,"_visuallyAccessible":false,"_disabledAccessible":false,"geojson_lng":5.976546688726973,"geojson_lat":51.675280029067},"geometry":{"type":"Point","coordinates":[5.976546688726973,51.675280029067]}}]}