{"type":"FeatureCollection","features":[{"type":"Feature","properties":{"SeqNo":"549679","Type":"S","DHID":"de:05170:36539","Parent":"de:05170:36539","Name":"Dinslaken Eppinkstraße","MunicipalityCode":"05170008","Municipality":"Dinslaken","DistrictCode":"","District":"","Description":"","Authority":"VRR","DelfiName":"-","THID":"D91432008EBB","LastOperationDate":"2025-06-14T00:00:00","SEV":"nein","longitude":"6,715895","latitude":"51,571942","geojson_lng":6.715895,"geojson_lat":51.571942},"geometry":{"type":"Point","coordinates":[6.715895,51.571942]}},{"type":"Feature","properties":{"SeqNo":"549680","Type":"Q","DHID":"de:05170:36539:0:1","Parent":"de:05170:36539","Name":"Am Wohnunsbusch","MunicipalityCode":"00000000","Municipality":"-","DistrictCode":"-","District":"-","Description":"","Authority":"VRR","DelfiName":"-","THID":"-","LastOperationDate":"","SEV":"nein","longitude":"6,715814","latitude":"51,571891","geojson_lng":6.715814,"geojson_lat":51.571891},"geometry":{"type":"Point","coordinates":[6.715814,51.571891]}},{"type":"Feature","properties":{"SeqNo":"549681","Type":"Q","DHID":"de:05170:36539:0:2","Parent":"de:05170:36539","Name":"Friedrichstraße","MunicipalityCode":"00000000","Municipality":"-","DistrictCode":"-","District":"-","Description":"","Authority":"VRR","DelfiName":"-","THID":"-","LastOperationDate":"","SEV":"nein","longitude":"6,71576","latitude":"51,571958","geojson_lng":6.71576,"geojson_lat":51.571958},"geometry":{"type":"Point","coordinates":[6.71576,51.571958]}},{"type":"Feature","properties":{"SeqNo":"549695","Type":"S","DHID":"de:05170:36544","Parent":"de:05170:36544","Name":"Dinslaken Helenenstraße","MunicipalityCode":"05170008","Municipality":"Dinslaken","DistrictCode":"","District":"","Description":"","Authority":"VRR","DelfiName":"-","THID":"D91432008EC0","LastOperationDate":"2025-06-14T00:00:00","SEV":"nein","longitude":"6,721842","latitude":"51,570976","geojson_lng":6.721842,"geojson_lat":51.570976},"geometry":{"type":"Point","coordinates":[6.721842,51.570976]}},{"type":"Feature","properties":{"SeqNo":"549696","Type":"Q","DHID":"de:05170:36544:0:1","Parent":"de:05170:36544","Name":"Amalienstraße 25","MunicipalityCode":"00000000","Municipality":"-","DistrictCode":"-","District":"-","Description":"","Authority":"VRR","DelfiName":"-","THID":"-","LastOperationDate":"","SEV":"nein","longitude":"6,721204","latitude":"51,571154","geojson_lng":6.721204,"geojson_lat":51.571154},"geometry":{"type":"Point","coordinates":[6.721204,51.571154]}},{"type":"Feature","properties":{"SeqNo":"549697","Type":"Q","DHID":"de:05170:36544:0:2","Parent":"de:05170:36544","Name":"Fr. Hebbelstraße","MunicipalityCode":"00000000","Municipality":"-","DistrictCode":"-","District":"-","Description":"","Authority":"VRR","DelfiName":"-","THID":"-","LastOperationDate":"","SEV":"nein","longitude":"6,721941","latitude":"51,57116","geojson_lng":6.721941,"geojson_lat":51.57116},"geometry":{"type":"Point","coordinates":[6.721941,51.57116]}},{"type":"Feature","properties":{"SeqNo":"549698","Type":"Q","DHID":"de:05170:36544:0:3","Parent":"de:05170:36544","Name":"Amalienstraße 918","MunicipalityCode":"00000000","Municipality":"-","DistrictCode":"-","District":"-","Description":"","Authority":"VRR","DelfiName":"-","THID":"-","LastOperationDate":"","SEV":"nein","longitude":"6,721797","latitude":"51,570819","geojson_lng":6.721797,"geojson_lat":51.570819},"geometry":{"type":"Point","coordinates":[6.721797,51.570819]}},{"type":"Feature","properties":{"SeqNo":"551104","Type":"S","DHID":"de:05170:36979","Parent":"de:05170:36979","Name":"Dinslaken Am Wohnungsbusch","MunicipalityCode":"05170008","Municipality":"Dinslaken","DistrictCode":"","District":"","Description":"","Authority":"VRR","DelfiName":"-","THID":"D91432009073","LastOperationDate":"2025-06-14T00:00:00","SEV":"nein","longitude":"6,71974","latitude":"51,572785","geojson_lng":6.71974,"geojson_lat":51.572785},"geometry":{"type":"Point","coordinates":[6.71974,51.572785]}},{"type":"Feature","properties":{"SeqNo":"551105","Type":"Q","DHID":"de:05170:36979:0:1","Parent":"de:05170:36979","Name":"Helenenstraße","MunicipalityCode":"00000000","Municipality":"-","DistrictCode":"-","District":"-","Description":"","Authority":"VRR","DelfiName":"-","THID":"-","LastOperationDate":"","SEV":"nein","longitude":"6,719803","latitude":"51,5726","geojson_lng":6.719803,"geojson_lat":51.5726},"geometry":{"type":"Point","coordinates":[6.719803,51.5726]}},{"type":"Feature","properties":{"SeqNo":"551106","Type":"Q","DHID":"de:05170:36979:0:2","Parent":"de:05170:36979","Name":"Eppinkstraße","MunicipalityCode":"00000000","Municipality":"-","DistrictCode":"-","District":"-","Description":"","Authority":"VRR","DelfiName":"-","THID":"-","LastOperationDate":"","SEV":"nein","longitude":"6,719587","latitude":"51,57303","geojson_lng":6.719587,"geojson_lat":51.57303},"geometry":{"type":"Point","coordinates":[6.719587,51.57303]}}]}