{"type":"FeatureCollection","features":[{"type":"Feature","properties":{"SeqNo":"586509","Type":"S","DHID":"de:05362:87303","Parent":"de:05362:87303","Name":"Kerpen Horrem Bf","Latitude":"50,916241","Longitude":"6,713487","MunicipalityCode":"05362032","Municipality":"Kerpen","DistrictCode":"","District":"","Description":"","Authority":"VRR","DelfiName":"-","THID":"D914F2015507","TariffProvider":"-","LastOperationDate":"2025-12-12T00:00:00","SEV":"nein","geojson_lng":6.713487,"geojson_lat":50.916241},"geometry":{"type":"Point","coordinates":[6.713487,50.916241]}},{"type":"Feature","properties":{"SeqNo":"586510","Type":"A","DHID":"de:05362:87303:2","Parent":"de:05362:87303","Name":"Horrem Bf","Latitude":"50,916427","Longitude":"6,714709","MunicipalityCode":"00000000","Municipality":"-","DistrictCode":"-","District":"-","Description":"","Authority":"VRR","DelfiName":"-","THID":"-","TariffProvider":"-","LastOperationDate":"","SEV":"nein","geojson_lng":6.714709,"geojson_lat":50.916427},"geometry":{"type":"Point","coordinates":[6.714709,50.916427]}},{"type":"Feature","properties":{"SeqNo":"586511","Type":"A","DHID":"de:05362:87303:60","Parent":"de:05362:87303","Name":"B+R","Latitude":"50,915963","Longitude":"6,713155","MunicipalityCode":"00000000","Municipality":"-","DistrictCode":"-","District":"-","Description":"","Authority":"VRR","DelfiName":"-","THID":"-","TariffProvider":"-","LastOperationDate":"","SEV":"nein","geojson_lng":6.713155,"geojson_lat":50.915963},"geometry":{"type":"Point","coordinates":[6.713155,50.915963]}},{"type":"Feature","properties":{"SeqNo":"586512","Type":"A","DHID":"de:05362:87303:61","Parent":"de:05362:87303","Name":"Unterführung","Latitude":"50,916382","Longitude":"6,713442","MunicipalityCode":"00000000","Municipality":"-","DistrictCode":"-","District":"-","Description":"","Authority":"VRR","DelfiName":"-","THID":"-","TariffProvider":"-","LastOperationDate":"","SEV":"nein","geojson_lng":6.713442,"geojson_lat":50.916382},"geometry":{"type":"Point","coordinates":[6.713442,50.916382]}},{"type":"Feature","properties":{"SeqNo":"586513","Type":"A","DHID":"de:05362:87303:62","Parent":"de:05362:87303","Name":"SEV","Latitude":"50,916393","Longitude":"6,714727","MunicipalityCode":"00000000","Municipality":"-","DistrictCode":"-","District":"-","Description":"","Authority":"VRR","DelfiName":"-","THID":"-","TariffProvider":"-","LastOperationDate":"","SEV":"nein","geojson_lng":6.714727,"geojson_lat":50.916393},"geometry":{"type":"Point","coordinates":[6.714727,50.916393]}},{"type":"Feature","properties":{"SeqNo":"586514","Type":"A","DHID":"de:05362:87303:63","Parent":"de:05362:87303","Name":"Bus A","Latitude":"50,916359","Longitude":"6,714215","MunicipalityCode":"00000000","Municipality":"-","DistrictCode":"-","District":"-","Description":"","Authority":"VRR","DelfiName":"-","THID":"-","TariffProvider":"-","LastOperationDate":"","SEV":"nein","geojson_lng":6.714215,"geojson_lat":50.916359},"geometry":{"type":"Point","coordinates":[6.714215,50.916359]}},{"type":"Feature","properties":{"SeqNo":"586515","Type":"A","DHID":"de:05362:87303:64","Parent":"de:05362:87303","Name":"Bus B","Latitude":"50,916558","Longitude":"6,7147","MunicipalityCode":"00000000","Municipality":"-","DistrictCode":"-","District":"-","Description":"","Authority":"VRR","DelfiName":"-","THID":"-","TariffProvider":"-","LastOperationDate":"","SEV":"nein","geojson_lng":6.7147,"geojson_lat":50.916558},"geometry":{"type":"Point","coordinates":[6.7147,50.916558]}},{"type":"Feature","properties":{"SeqNo":"586516","Type":"A","DHID":"de:05362:87303:65","Parent":"de:05362:87303","Name":"Bus C","Latitude":"50,916246","Longitude":"6,714332","MunicipalityCode":"00000000","Municipality":"-","DistrictCode":"-","District":"-","Description":"","Authority":"VRR","DelfiName":"-","THID":"-","TariffProvider":"-","LastOperationDate":"","SEV":"nein","geojson_lng":6.714332,"geojson_lat":50.916246},"geometry":{"type":"Point","coordinates":[6.714332,50.916246]}},{"type":"Feature","properties":{"SeqNo":"586517","Type":"A","DHID":"de:05362:87303:66","Parent":"de:05362:87303","Name":"Bus D","Latitude":"50,916427","Longitude":"6,714781","MunicipalityCode":"00000000","Municipality":"-","DistrictCode":"-","District":"-","Description":"","Authority":"VRR","DelfiName":"-","THID":"-","TariffProvider":"-","LastOperationDate":"","SEV":"nein","geojson_lng":6.714781,"geojson_lat":50.916427},"geometry":{"type":"Point","coordinates":[6.714781,50.916427]}},{"type":"Feature","properties":{"SeqNo":"586519","Type":"A","DHID":"de:05362:87303:68","Parent":"de:05362:87303","Name":"B+R Nord","Latitude":"50,916733","Longitude":"6,713532","MunicipalityCode":"00000000","Municipality":"-","DistrictCode":"-","District":"-","Description":"","Authority":"VRR","DelfiName":"-","THID":"-","TariffProvider":"-","LastOperationDate":"","SEV":"nein","geojson_lng":6.713532,"geojson_lat":50.916733},"geometry":{"type":"Point","coordinates":[6.713532,50.916733]}},{"type":"Feature","properties":{"SeqNo":"586520","Type":"A","DHID":"de:05362:87303:69","Parent":"de:05362:87303","Name":"SEV","Latitude":"50,916393","Longitude":"6,714727","MunicipalityCode":"00000000","Municipality":"-","DistrictCode":"-","District":"-","Description":"","Authority":"VRR","DelfiName":"-","THID":"-","TariffProvider":"-","LastOperationDate":"","SEV":"nein","geojson_lng":6.714727,"geojson_lat":50.916393},"geometry":{"type":"Point","coordinates":[6.714727,50.916393]}},{"type":"Feature","properties":{"SeqNo":"586521","Type":"A","DHID":"de:05362:87303:7","Parent":"de:05362:87303","Name":"Horrem","Latitude":"50,91645","Longitude":"6,714305","MunicipalityCode":"00000000","Municipality":"-","DistrictCode":"-","District":"-","Description":"","Authority":"VRR","DelfiName":"-","THID":"-","TariffProvider":"-","LastOperationDate":"","SEV":"nein","geojson_lng":6.714305,"geojson_lat":50.91645},"geometry":{"type":"Point","coordinates":[6.714305,50.91645]}},{"type":"Feature","properties":{"SeqNo":"586522","Type":"A","DHID":"de:05362:87303:70","Parent":"de:05362:87303","Name":"Zugang Süd-West","Latitude":"50,916076","Longitude":"6,713425","MunicipalityCode":"00000000","Municipality":"-","DistrictCode":"-","District":"-","Description":"","Authority":"VRR","DelfiName":"-","THID":"-","TariffProvider":"-","LastOperationDate":"","SEV":"nein","geojson_lng":6.713425,"geojson_lat":50.916076},"geometry":{"type":"Point","coordinates":[6.713425,50.916076]}},{"type":"Feature","properties":{"SeqNo":"586523","Type":"A","DHID":"de:05362:87303:71","Parent":"de:05362:87303","Name":"Bahnsteig Gleis 1","Latitude":"50,916495","Longitude":"6,714458","MunicipalityCode":"00000000","Municipality":"-","DistrictCode":"-","District":"-","Description":"","Authority":"VRR","DelfiName":"-","THID":"-","TariffProvider":"-","LastOperationDate":"","SEV":"nein","geojson_lng":6.714458,"geojson_lat":50.916495},"geometry":{"type":"Point","coordinates":[6.714458,50.916495]}},{"type":"Feature","properties":{"SeqNo":"586524","Type":"A","DHID":"de:05362:87303:72","Parent":"de:05362:87303","Name":"Bahnsteig Gleis 2","Latitude":"50,916631","Longitude":"6,714413","MunicipalityCode":"00000000","Municipality":"-","DistrictCode":"-","District":"-","Description":"","Authority":"VRR","DelfiName":"-","THID":"-","TariffProvider":"-","LastOperationDate":"","SEV":"nein","geojson_lng":6.714413,"geojson_lat":50.916631},"geometry":{"type":"Point","coordinates":[6.714413,50.916631]}},{"type":"Feature","properties":{"SeqNo":"586525","Type":"A","DHID":"de:05362:87303:76","Parent":"de:05362:87303","Name":"Bahnsteig Gleis 6","Latitude":"50,916881","Longitude":"6,714359","MunicipalityCode":"00000000","Municipality":"-","DistrictCode":"-","District":"-","Description":"","Authority":"VRR","DelfiName":"-","THID":"-","TariffProvider":"-","LastOperationDate":"","SEV":"nein","geojson_lng":6.714359,"geojson_lat":50.916881},"geometry":{"type":"Point","coordinates":[6.714359,50.916881]}},{"type":"Feature","properties":{"SeqNo":"586526","Type":"A","DHID":"de:05362:87303:80","Parent":"de:05362:87303","Name":"Bahnsteig Gleis 1","Latitude":"50,916988","Longitude":"6,713173","MunicipalityCode":"00000000","Municipality":"-","DistrictCode":"-","District":"-","Description":"","Authority":"VRR","DelfiName":"-","THID":"-","TariffProvider":"-","LastOperationDate":"","SEV":"nein","geojson_lng":6.713173,"geojson_lat":50.916988},"geometry":{"type":"Point","coordinates":[6.713173,50.916988]}},{"type":"Feature","properties":{"SeqNo":"586528","Type":"A","DHID":"de:05362:87303:90","Parent":"de:05362:87303","Name":"Bahnsteig 10","Latitude":"50,916988","Longitude":"6,713173","MunicipalityCode":"00000000","Municipality":"-","DistrictCode":"-","District":"-","Description":"","Authority":"VRR","DelfiName":"-","THID":"-","TariffProvider":"-","LastOperationDate":"","SEV":"nein","geojson_lng":6.713173,"geojson_lat":50.916988},"geometry":{"type":"Point","coordinates":[6.713173,50.916988]}},{"type":"Feature","properties":{"SeqNo":"586530","Type":"A","DHID":"de:05362:87303:92","Parent":"de:05362:87303","Name":"Bahnsteig 6","Latitude":"50,916875","Longitude":"6,714359","MunicipalityCode":"00000000","Municipality":"-","DistrictCode":"-","District":"-","Description":"","Authority":"VRR","DelfiName":"-","THID":"-","TariffProvider":"-","LastOperationDate":"","SEV":"nein","geojson_lng":6.714359,"geojson_lat":50.916875},"geometry":{"type":"Point","coordinates":[6.714359,50.916875]}},{"type":"Feature","properties":{"SeqNo":"586531","Type":"A","DHID":"de:05362:87303:93","Parent":"de:05362:87303","Name":"Bahnsteig 1","Latitude":"50,916495","Longitude":"6,714458","MunicipalityCode":"00000000","Municipality":"-","DistrictCode":"-","District":"-","Description":"","Authority":"VRR","DelfiName":"-","THID":"-","TariffProvider":"-","LastOperationDate":"","SEV":"nein","geojson_lng":6.714458,"geojson_lat":50.916495},"geometry":{"type":"Point","coordinates":[6.714458,50.916495]}},{"type":"Feature","properties":{"SeqNo":"586532","Type":"A","DHID":"de:05362:87303:94","Parent":"de:05362:87303","Name":"Bahnsteig2-5","Latitude":"50,916631","Longitude":"6,714413","MunicipalityCode":"00000000","Municipality":"-","DistrictCode":"-","District":"-","Description":"","Authority":"VRR","DelfiName":"-","THID":"-","TariffProvider":"-","LastOperationDate":"","SEV":"nein","geojson_lng":6.714413,"geojson_lat":50.916631},"geometry":{"type":"Point","coordinates":[6.714413,50.916631]}},{"type":"Feature","properties":{"SeqNo":"586533","Type":"Q","DHID":"de:05362:87303:2:20","Parent":"de:05362:87303:2","Name":"-","Latitude":"50,916422","Longitude":"6,7147","MunicipalityCode":"00000000","Municipality":"-","DistrictCode":"-","District":"-","Description":"","Authority":"VRR","DelfiName":"-","THID":"-","TariffProvider":"-","LastOperationDate":"","SEV":"nein","geojson_lng":6.7147,"geojson_lat":50.916422},"geometry":{"type":"Point","coordinates":[6.7147,50.916422]}},{"type":"Feature","properties":{"SeqNo":"586534","Type":"Q","DHID":"de:05362:87303:2:25","Parent":"de:05362:87303:2","Name":"-","Latitude":"50,916563","Longitude":"6,715059","MunicipalityCode":"00000000","Municipality":"-","DistrictCode":"-","District":"-","Description":"","Authority":"VRR","DelfiName":"-","THID":"-","TariffProvider":"-","LastOperationDate":"","SEV":"nein","geojson_lng":6.715059,"geojson_lat":50.916563},"geometry":{"type":"Point","coordinates":[6.715059,50.916563]}},{"type":"Feature","properties":{"SeqNo":"586535","Type":"Q","DHID":"de:05362:87303:2:34","Parent":"de:05362:87303:2","Name":"-","Latitude":"50,916563","Longitude":"6,715059","MunicipalityCode":"00000000","Municipality":"-","DistrictCode":"-","District":"-","Description":"","Authority":"VRR","DelfiName":"-","THID":"-","TariffProvider":"-","LastOperationDate":"","SEV":"nein","geojson_lng":6.715059,"geojson_lat":50.916563},"geometry":{"type":"Point","coordinates":[6.715059,50.916563]}},{"type":"Feature","properties":{"SeqNo":"586536","Type":"Q","DHID":"de:05362:87303:2:21","Parent":"de:05362:87303:63","Name":"-","Latitude":"50,916309","Longitude":"6,714143","MunicipalityCode":"00000000","Municipality":"-","DistrictCode":"-","District":"-","Description":"","Authority":"VRR","DelfiName":"-","THID":"-","TariffProvider":"-","LastOperationDate":"","SEV":"nein","geojson_lng":6.714143,"geojson_lat":50.916309},"geometry":{"type":"Point","coordinates":[6.714143,50.916309]}},{"type":"Feature","properties":{"SeqNo":"586537","Type":"Q","DHID":"de:05362:87303:2:22","Parent":"de:05362:87303:64","Name":"-","Latitude":"50,916467","Longitude":"6,714583","MunicipalityCode":"00000000","Municipality":"-","DistrictCode":"-","District":"-","Description":"","Authority":"VRR","DelfiName":"-","THID":"-","TariffProvider":"-","LastOperationDate":"","SEV":"nein","geojson_lng":6.714583,"geojson_lat":50.916467},"geometry":{"type":"Point","coordinates":[6.714583,50.916467]}},{"type":"Feature","properties":{"SeqNo":"586538","Type":"Q","DHID":"de:05362:87303:2:23","Parent":"de:05362:87303:65","Name":"-","Latitude":"50,91641","Longitude":"6,714664","MunicipalityCode":"00000000","Municipality":"-","DistrictCode":"-","District":"-","Description":"","Authority":"VRR","DelfiName":"-","THID":"-","TariffProvider":"-","LastOperationDate":"","SEV":"nein","geojson_lng":6.714664,"geojson_lat":50.91641},"geometry":{"type":"Point","coordinates":[6.714664,50.91641]}},{"type":"Feature","properties":{"SeqNo":"586539","Type":"Q","DHID":"de:05362:87303:2:24","Parent":"de:05362:87303:66","Name":"-","Latitude":"50,916575","Longitude":"6,715068","MunicipalityCode":"00000000","Municipality":"-","DistrictCode":"-","District":"-","Description":"","Authority":"VRR","DelfiName":"-","THID":"-","TariffProvider":"-","LastOperationDate":"","SEV":"nein","geojson_lng":6.715068,"geojson_lat":50.916575},"geometry":{"type":"Point","coordinates":[6.715068,50.916575]}},{"type":"Feature","properties":{"SeqNo":"586540","Type":"Q","DHID":"de:05362:87303:7:69","Parent":"de:05362:87303:69","Name":"-","Latitude":"50,916388","Longitude":"6,714664","MunicipalityCode":"00000000","Municipality":"-","DistrictCode":"-","District":"-","Description":"","Authority":"VRR","DelfiName":"-","THID":"-","TariffProvider":"-","LastOperationDate":"","SEV":"nein","geojson_lng":6.714664,"geojson_lat":50.916388},"geometry":{"type":"Point","coordinates":[6.714664,50.916388]}},{"type":"Feature","properties":{"SeqNo":"586541","Type":"Q","DHID":"de:05362:87303:7:71","Parent":"de:05362:87303:71","Name":"-","Latitude":"50,916541","Longitude":"6,714458","MunicipalityCode":"00000000","Municipality":"-","DistrictCode":"-","District":"-","Description":"","Authority":"VRR","DelfiName":"-","THID":"-","TariffProvider":"-","LastOperationDate":"","SEV":"nein","geojson_lng":6.714458,"geojson_lat":50.916541},"geometry":{"type":"Point","coordinates":[6.714458,50.916541]}},{"type":"Feature","properties":{"SeqNo":"586542","Type":"Q","DHID":"de:05362:87303:7:72","Parent":"de:05362:87303:72","Name":"-","Latitude":"50,916569","Longitude":"6,714431","MunicipalityCode":"00000000","Municipality":"-","DistrictCode":"-","District":"-","Description":"","Authority":"VRR","DelfiName":"-","THID":"-","TariffProvider":"-","LastOperationDate":"","SEV":"nein","geojson_lng":6.714431,"geojson_lat":50.916569},"geometry":{"type":"Point","coordinates":[6.714431,50.916569]}},{"type":"Feature","properties":{"SeqNo":"586543","Type":"Q","DHID":"de:05362:87303:7:73","Parent":"de:05362:87303:72","Name":"-","Latitude":"50,916637","Longitude":"6,714341","MunicipalityCode":"00000000","Municipality":"-","DistrictCode":"-","District":"-","Description":"","Authority":"VRR","DelfiName":"-","THID":"-","TariffProvider":"-","LastOperationDate":"","SEV":"nein","geojson_lng":6.714341,"geojson_lat":50.916637},"geometry":{"type":"Point","coordinates":[6.714341,50.916637]}},{"type":"Feature","properties":{"SeqNo":"586544","Type":"Q","DHID":"de:05362:87303:7:75","Parent":"de:05362:87303:72","Name":"-","Latitude":"50,916637","Longitude":"6,714341","MunicipalityCode":"00000000","Municipality":"-","DistrictCode":"-","District":"-","Description":"","Authority":"VRR","DelfiName":"-","THID":"-","TariffProvider":"-","LastOperationDate":"","SEV":"nein","geojson_lng":6.714341,"geojson_lat":50.916637},"geometry":{"type":"Point","coordinates":[6.714341,50.916637]}},{"type":"Feature","properties":{"SeqNo":"586545","Type":"Q","DHID":"de:05362:87303:7:76","Parent":"de:05362:87303:76","Name":"-","Latitude":"50,916756","Longitude":"6,714215","MunicipalityCode":"00000000","Municipality":"-","DistrictCode":"-","District":"-","Description":"","Authority":"VRR","DelfiName":"-","THID":"-","TariffProvider":"-","LastOperationDate":"","SEV":"nein","geojson_lng":6.714215,"geojson_lat":50.916756},"geometry":{"type":"Point","coordinates":[6.714215,50.916756]}},{"type":"Feature","properties":{"SeqNo":"586548","Type":"S","DHID":"de:05362:87349","Parent":"de:05362:87349","Name":"Kerpen Neubottenbroich Winterberg","Latitude":"50,915215","Longitude":"6,720665","MunicipalityCode":"05362032","Municipality":"Kerpen","DistrictCode":"","District":"","Description":"","Authority":"VRR","DelfiName":"-","THID":"D914F2015535","TariffProvider":"nrw-zks.de","LastOperationDate":"2025-12-13T00:00:00","SEV":"nein","geojson_lng":6.720665,"geojson_lat":50.915215},"geometry":{"type":"Point","coordinates":[6.720665,50.915215]}},{"type":"Feature","properties":{"SeqNo":"586549","Type":"A","DHID":"de:05362:87349:2","Parent":"de:05362:87349","Name":"Winterberg","Latitude":"50,915215","Longitude":"6,720665","MunicipalityCode":"00000000","Municipality":"-","DistrictCode":"-","District":"-","Description":"","Authority":"VRR","DelfiName":"-","THID":"-","TariffProvider":"-","LastOperationDate":"","SEV":"nein","geojson_lng":6.720665,"geojson_lat":50.915215},"geometry":{"type":"Point","coordinates":[6.720665,50.915215]}},{"type":"Feature","properties":{"SeqNo":"586550","Type":"Q","DHID":"de:05362:87349:2:21","Parent":"de:05362:87349:2","Name":"-","Latitude":"50,915312","Longitude":"6,719317","MunicipalityCode":"00000000","Municipality":"-","DistrictCode":"-","District":"-","Description":"","Authority":"VRR","DelfiName":"-","THID":"-","TariffProvider":"-","LastOperationDate":"","SEV":"nein","geojson_lng":6.719317,"geojson_lat":50.915312},"geometry":{"type":"Point","coordinates":[6.719317,50.915312]}},{"type":"Feature","properties":{"SeqNo":"586551","Type":"Q","DHID":"de:05362:87349:2:22","Parent":"de:05362:87349:2","Name":"-","Latitude":"50,915363","Longitude":"6,721446","MunicipalityCode":"00000000","Municipality":"-","DistrictCode":"-","District":"-","Description":"","Authority":"VRR","DelfiName":"-","THID":"-","TariffProvider":"-","LastOperationDate":"","SEV":"nein","geojson_lng":6.721446,"geojson_lat":50.915363},"geometry":{"type":"Point","coordinates":[6.721446,50.915363]}},{"type":"Feature","properties":{"SeqNo":"586576","Type":"S","DHID":"de:05362:87371","Parent":"de:05362:87371","Name":"Kerpen Horrem Hauptschule","Latitude":"50,912791","Longitude":"6,712634","MunicipalityCode":"05362032","Municipality":"Kerpen","DistrictCode":"","District":"","Description":"","Authority":"VRR","DelfiName":"-","THID":"D914F201554B","TariffProvider":"nrw-zks.de","LastOperationDate":"2025-12-12T00:00:00","SEV":"nein","geojson_lng":6.712634,"geojson_lat":50.912791},"geometry":{"type":"Point","coordinates":[6.712634,50.912791]}},{"type":"Feature","properties":{"SeqNo":"586577","Type":"A","DHID":"de:05362:87371:2","Parent":"de:05362:87371","Name":"Horrem Hauptschul","Latitude":"50,912791","Longitude":"6,712634","MunicipalityCode":"00000000","Municipality":"-","DistrictCode":"-","District":"-","Description":"","Authority":"VRR","DelfiName":"-","THID":"-","TariffProvider":"-","LastOperationDate":"","SEV":"nein","geojson_lng":6.712634,"geojson_lat":50.912791},"geometry":{"type":"Point","coordinates":[6.712634,50.912791]}},{"type":"Feature","properties":{"SeqNo":"586578","Type":"Q","DHID":"de:05362:87371:2:21","Parent":"de:05362:87371:2","Name":"-","Latitude":"50,91282","Longitude":"6,712598","MunicipalityCode":"00000000","Municipality":"-","DistrictCode":"-","District":"-","Description":"","Authority":"VRR","DelfiName":"-","THID":"-","TariffProvider":"-","LastOperationDate":"","SEV":"nein","geojson_lng":6.712598,"geojson_lat":50.91282},"geometry":{"type":"Point","coordinates":[6.712598,50.91282]}},{"type":"Feature","properties":{"SeqNo":"586579","Type":"Q","DHID":"de:05362:87371:2:22","Parent":"de:05362:87371:2","Name":"-","Latitude":"50,912723","Longitude":"6,712706","MunicipalityCode":"00000000","Municipality":"-","DistrictCode":"-","District":"-","Description":"","Authority":"VRR","DelfiName":"-","THID":"-","TariffProvider":"-","LastOperationDate":"","SEV":"nein","geojson_lng":6.712706,"geojson_lat":50.912723},"geometry":{"type":"Point","coordinates":[6.712706,50.912723]}},{"type":"Feature","properties":{"SeqNo":"586583","Type":"S","DHID":"de:05362:87378","Parent":"de:05362:87378","Name":"Kerpen Horrem Berufsschule","Latitude":"50,913737","Longitude":"6,714467","MunicipalityCode":"05362032","Municipality":"Kerpen","DistrictCode":"","District":"","Description":"","Authority":"VRR","DelfiName":"-","THID":"D914F2015552","TariffProvider":"nrw-zks.de","LastOperationDate":"2025-12-13T00:00:00","SEV":"nein","geojson_lng":6.714467,"geojson_lat":50.913737},"geometry":{"type":"Point","coordinates":[6.714467,50.913737]}},{"type":"Feature","properties":{"SeqNo":"586584","Type":"A","DHID":"de:05362:87378:2","Parent":"de:05362:87378","Name":"Horrem Berufschul","Latitude":"50,913737","Longitude":"6,714467","MunicipalityCode":"00000000","Municipality":"-","DistrictCode":"-","District":"-","Description":"","Authority":"VRR","DelfiName":"-","THID":"-","TariffProvider":"-","LastOperationDate":"","SEV":"nein","geojson_lng":6.714467,"geojson_lat":50.913737},"geometry":{"type":"Point","coordinates":[6.714467,50.913737]}},{"type":"Feature","properties":{"SeqNo":"586585","Type":"Q","DHID":"de:05362:87378:2:21","Parent":"de:05362:87378:2","Name":"-","Latitude":"50,913817","Longitude":"6,714431","MunicipalityCode":"00000000","Municipality":"-","DistrictCode":"-","District":"-","Description":"","Authority":"VRR","DelfiName":"-","THID":"-","TariffProvider":"-","LastOperationDate":"","SEV":"nein","geojson_lng":6.714431,"geojson_lat":50.913817},"geometry":{"type":"Point","coordinates":[6.714431,50.913817]}},{"type":"Feature","properties":{"SeqNo":"586586","Type":"Q","DHID":"de:05362:87378:2:22","Parent":"de:05362:87378:2","Name":"-","Latitude":"50,913647","Longitude":"6,714494","MunicipalityCode":"00000000","Municipality":"-","DistrictCode":"-","District":"-","Description":"","Authority":"VRR","DelfiName":"-","THID":"-","TariffProvider":"-","LastOperationDate":"","SEV":"nein","geojson_lng":6.714494,"geojson_lat":50.913647},"geometry":{"type":"Point","coordinates":[6.714494,50.913647]}}]}