{"type":"FeatureCollection","features":[{"type":"Feature","properties":{"SeqNo":"575235","Type":"S","DHID":"de:05362:87303","Parent":"de:05362:87303","Name":"Kerpen Horrem Bf","MunicipalityCode":"05362032","Municipality":"Kerpen","DistrictCode":"","District":"","Description":"","Authority":"VRR","DelfiName":"-","THID":"D914F2015507","LastOperationDate":"2024-12-20T00:00:00","SEV":"nein","longitude":"6,713487","latitude":"50,916241","geojson_lng":6.713487,"geojson_lat":50.916241},"geometry":{"type":"Point","coordinates":[6.713487,50.916241]}},{"type":"Feature","properties":{"SeqNo":"575236","Type":"A","DHID":"de:05362:87303:2","Parent":"de:05362:87303","Name":"Horrem Bf","MunicipalityCode":"00000000","Municipality":"-","DistrictCode":"-","District":"-","Description":"","Authority":"VRR","DelfiName":"-","THID":"-","LastOperationDate":"","SEV":"nein","longitude":"6,714709","latitude":"50,916427","geojson_lng":6.714709,"geojson_lat":50.916427},"geometry":{"type":"Point","coordinates":[6.714709,50.916427]}},{"type":"Feature","properties":{"SeqNo":"575237","Type":"A","DHID":"de:05362:87303:60","Parent":"de:05362:87303","Name":"B+R","MunicipalityCode":"00000000","Municipality":"-","DistrictCode":"-","District":"-","Description":"","Authority":"VRR","DelfiName":"-","THID":"-","LastOperationDate":"","SEV":"nein","longitude":"6,713155","latitude":"50,915963","geojson_lng":6.713155,"geojson_lat":50.915963},"geometry":{"type":"Point","coordinates":[6.713155,50.915963]}},{"type":"Feature","properties":{"SeqNo":"575238","Type":"A","DHID":"de:05362:87303:61","Parent":"de:05362:87303","Name":"Unterführung","MunicipalityCode":"00000000","Municipality":"-","DistrictCode":"-","District":"-","Description":"","Authority":"VRR","DelfiName":"-","THID":"-","LastOperationDate":"","SEV":"nein","longitude":"6,713442","latitude":"50,916382","geojson_lng":6.713442,"geojson_lat":50.916382},"geometry":{"type":"Point","coordinates":[6.713442,50.916382]}},{"type":"Feature","properties":{"SeqNo":"575239","Type":"A","DHID":"de:05362:87303:62","Parent":"de:05362:87303","Name":"SEV","MunicipalityCode":"00000000","Municipality":"-","DistrictCode":"-","District":"-","Description":"","Authority":"VRR","DelfiName":"-","THID":"-","LastOperationDate":"","SEV":"nein","longitude":"6,714727","latitude":"50,916393","geojson_lng":6.714727,"geojson_lat":50.916393},"geometry":{"type":"Point","coordinates":[6.714727,50.916393]}},{"type":"Feature","properties":{"SeqNo":"575240","Type":"A","DHID":"de:05362:87303:63","Parent":"de:05362:87303","Name":"Bus A","MunicipalityCode":"00000000","Municipality":"-","DistrictCode":"-","District":"-","Description":"","Authority":"VRR","DelfiName":"-","THID":"-","LastOperationDate":"","SEV":"nein","longitude":"6,714215","latitude":"50,916359","geojson_lng":6.714215,"geojson_lat":50.916359},"geometry":{"type":"Point","coordinates":[6.714215,50.916359]}},{"type":"Feature","properties":{"SeqNo":"575241","Type":"A","DHID":"de:05362:87303:64","Parent":"de:05362:87303","Name":"Bus B","MunicipalityCode":"00000000","Municipality":"-","DistrictCode":"-","District":"-","Description":"","Authority":"VRR","DelfiName":"-","THID":"-","LastOperationDate":"","SEV":"nein","longitude":"6,7147","latitude":"50,916558","geojson_lng":6.7147,"geojson_lat":50.916558},"geometry":{"type":"Point","coordinates":[6.7147,50.916558]}},{"type":"Feature","properties":{"SeqNo":"575242","Type":"A","DHID":"de:05362:87303:65","Parent":"de:05362:87303","Name":"Bus C","MunicipalityCode":"00000000","Municipality":"-","DistrictCode":"-","District":"-","Description":"","Authority":"VRR","DelfiName":"-","THID":"-","LastOperationDate":"","SEV":"nein","longitude":"6,714332","latitude":"50,916246","geojson_lng":6.714332,"geojson_lat":50.916246},"geometry":{"type":"Point","coordinates":[6.714332,50.916246]}},{"type":"Feature","properties":{"SeqNo":"575243","Type":"A","DHID":"de:05362:87303:66","Parent":"de:05362:87303","Name":"Bus D","MunicipalityCode":"00000000","Municipality":"-","DistrictCode":"-","District":"-","Description":"","Authority":"VRR","DelfiName":"-","THID":"-","LastOperationDate":"","SEV":"nein","longitude":"6,714781","latitude":"50,916427","geojson_lng":6.714781,"geojson_lat":50.916427},"geometry":{"type":"Point","coordinates":[6.714781,50.916427]}},{"type":"Feature","properties":{"SeqNo":"575245","Type":"A","DHID":"de:05362:87303:68","Parent":"de:05362:87303","Name":"B+R Nord","MunicipalityCode":"00000000","Municipality":"-","DistrictCode":"-","District":"-","Description":"","Authority":"VRR","DelfiName":"-","THID":"-","LastOperationDate":"","SEV":"nein","longitude":"6,713532","latitude":"50,916733","geojson_lng":6.713532,"geojson_lat":50.916733},"geometry":{"type":"Point","coordinates":[6.713532,50.916733]}},{"type":"Feature","properties":{"SeqNo":"575246","Type":"A","DHID":"de:05362:87303:69","Parent":"de:05362:87303","Name":"SEV","MunicipalityCode":"00000000","Municipality":"-","DistrictCode":"-","District":"-","Description":"","Authority":"VRR","DelfiName":"-","THID":"-","LastOperationDate":"","SEV":"nein","longitude":"6,714727","latitude":"50,916393","geojson_lng":6.714727,"geojson_lat":50.916393},"geometry":{"type":"Point","coordinates":[6.714727,50.916393]}},{"type":"Feature","properties":{"SeqNo":"575247","Type":"A","DHID":"de:05362:87303:7","Parent":"de:05362:87303","Name":"Horrem","MunicipalityCode":"00000000","Municipality":"-","DistrictCode":"-","District":"-","Description":"","Authority":"VRR","DelfiName":"-","THID":"-","LastOperationDate":"","SEV":"nein","longitude":"6,714305","latitude":"50,91645","geojson_lng":6.714305,"geojson_lat":50.91645},"geometry":{"type":"Point","coordinates":[6.714305,50.91645]}},{"type":"Feature","properties":{"SeqNo":"575248","Type":"A","DHID":"de:05362:87303:70","Parent":"de:05362:87303","Name":"Zugang Süd-West","MunicipalityCode":"00000000","Municipality":"-","DistrictCode":"-","District":"-","Description":"","Authority":"VRR","DelfiName":"-","THID":"-","LastOperationDate":"","SEV":"nein","longitude":"6,713425","latitude":"50,916076","geojson_lng":6.713425,"geojson_lat":50.916076},"geometry":{"type":"Point","coordinates":[6.713425,50.916076]}},{"type":"Feature","properties":{"SeqNo":"575249","Type":"A","DHID":"de:05362:87303:71","Parent":"de:05362:87303","Name":"Bahnsteig Gleis 1","MunicipalityCode":"00000000","Municipality":"-","DistrictCode":"-","District":"-","Description":"","Authority":"VRR","DelfiName":"-","THID":"-","LastOperationDate":"","SEV":"nein","longitude":"6,714458","latitude":"50,916495","geojson_lng":6.714458,"geojson_lat":50.916495},"geometry":{"type":"Point","coordinates":[6.714458,50.916495]}},{"type":"Feature","properties":{"SeqNo":"575250","Type":"A","DHID":"de:05362:87303:72","Parent":"de:05362:87303","Name":"Bahnsteig Gleis 2","MunicipalityCode":"00000000","Municipality":"-","DistrictCode":"-","District":"-","Description":"","Authority":"VRR","DelfiName":"-","THID":"-","LastOperationDate":"","SEV":"nein","longitude":"6,714413","latitude":"50,916631","geojson_lng":6.714413,"geojson_lat":50.916631},"geometry":{"type":"Point","coordinates":[6.714413,50.916631]}},{"type":"Feature","properties":{"SeqNo":"575251","Type":"A","DHID":"de:05362:87303:76","Parent":"de:05362:87303","Name":"Bahnsteig Gleis 6","MunicipalityCode":"00000000","Municipality":"-","DistrictCode":"-","District":"-","Description":"","Authority":"VRR","DelfiName":"-","THID":"-","LastOperationDate":"","SEV":"nein","longitude":"6,714359","latitude":"50,916881","geojson_lng":6.714359,"geojson_lat":50.916881},"geometry":{"type":"Point","coordinates":[6.714359,50.916881]}},{"type":"Feature","properties":{"SeqNo":"575252","Type":"A","DHID":"de:05362:87303:80","Parent":"de:05362:87303","Name":"Bahnsteig Gleis 1","MunicipalityCode":"00000000","Municipality":"-","DistrictCode":"-","District":"-","Description":"","Authority":"VRR","DelfiName":"-","THID":"-","LastOperationDate":"","SEV":"nein","longitude":"6,713173","latitude":"50,916988","geojson_lng":6.713173,"geojson_lat":50.916988},"geometry":{"type":"Point","coordinates":[6.713173,50.916988]}},{"type":"Feature","properties":{"SeqNo":"575254","Type":"A","DHID":"de:05362:87303:90","Parent":"de:05362:87303","Name":"Bahnsteig 10","MunicipalityCode":"00000000","Municipality":"-","DistrictCode":"-","District":"-","Description":"","Authority":"VRR","DelfiName":"-","THID":"-","LastOperationDate":"","SEV":"nein","longitude":"6,713173","latitude":"50,916988","geojson_lng":6.713173,"geojson_lat":50.916988},"geometry":{"type":"Point","coordinates":[6.713173,50.916988]}},{"type":"Feature","properties":{"SeqNo":"575256","Type":"A","DHID":"de:05362:87303:92","Parent":"de:05362:87303","Name":"Bahnsteig 6","MunicipalityCode":"00000000","Municipality":"-","DistrictCode":"-","District":"-","Description":"","Authority":"VRR","DelfiName":"-","THID":"-","LastOperationDate":"","SEV":"nein","longitude":"6,714359","latitude":"50,916875","geojson_lng":6.714359,"geojson_lat":50.916875},"geometry":{"type":"Point","coordinates":[6.714359,50.916875]}},{"type":"Feature","properties":{"SeqNo":"575257","Type":"A","DHID":"de:05362:87303:93","Parent":"de:05362:87303","Name":"Bahnsteig 1","MunicipalityCode":"00000000","Municipality":"-","DistrictCode":"-","District":"-","Description":"","Authority":"VRR","DelfiName":"-","THID":"-","LastOperationDate":"","SEV":"nein","longitude":"6,714458","latitude":"50,916495","geojson_lng":6.714458,"geojson_lat":50.916495},"geometry":{"type":"Point","coordinates":[6.714458,50.916495]}},{"type":"Feature","properties":{"SeqNo":"575258","Type":"A","DHID":"de:05362:87303:94","Parent":"de:05362:87303","Name":"Bahnsteig2-5","MunicipalityCode":"00000000","Municipality":"-","DistrictCode":"-","District":"-","Description":"","Authority":"VRR","DelfiName":"-","THID":"-","LastOperationDate":"","SEV":"nein","longitude":"6,714413","latitude":"50,916631","geojson_lng":6.714413,"geojson_lat":50.916631},"geometry":{"type":"Point","coordinates":[6.714413,50.916631]}},{"type":"Feature","properties":{"SeqNo":"575259","Type":"Q","DHID":"de:05362:87303:2:20","Parent":"de:05362:87303:2","Name":"","MunicipalityCode":"00000000","Municipality":"-","DistrictCode":"-","District":"-","Description":"","Authority":"VRR","DelfiName":"-","THID":"-","LastOperationDate":"","SEV":"nein","longitude":"6,7147","latitude":"50,916422","geojson_lng":6.7147,"geojson_lat":50.916422},"geometry":{"type":"Point","coordinates":[6.7147,50.916422]}},{"type":"Feature","properties":{"SeqNo":"575260","Type":"Q","DHID":"de:05362:87303:2:25","Parent":"de:05362:87303:2","Name":"","MunicipalityCode":"00000000","Municipality":"-","DistrictCode":"-","District":"-","Description":"","Authority":"VRR","DelfiName":"-","THID":"-","LastOperationDate":"","SEV":"nein","longitude":"6,715059","latitude":"50,916563","geojson_lng":6.715059,"geojson_lat":50.916563},"geometry":{"type":"Point","coordinates":[6.715059,50.916563]}},{"type":"Feature","properties":{"SeqNo":"575261","Type":"Q","DHID":"de:05362:87303:2:34","Parent":"de:05362:87303:2","Name":"","MunicipalityCode":"00000000","Municipality":"-","DistrictCode":"-","District":"-","Description":"","Authority":"VRR","DelfiName":"-","THID":"-","LastOperationDate":"","SEV":"nein","longitude":"6,715059","latitude":"50,916563","geojson_lng":6.715059,"geojson_lat":50.916563},"geometry":{"type":"Point","coordinates":[6.715059,50.916563]}},{"type":"Feature","properties":{"SeqNo":"575262","Type":"Q","DHID":"de:05362:87303:2:21","Parent":"de:05362:87303:63","Name":"","MunicipalityCode":"00000000","Municipality":"-","DistrictCode":"-","District":"-","Description":"","Authority":"VRR","DelfiName":"-","THID":"-","LastOperationDate":"","SEV":"nein","longitude":"6,714143","latitude":"50,916309","geojson_lng":6.714143,"geojson_lat":50.916309},"geometry":{"type":"Point","coordinates":[6.714143,50.916309]}},{"type":"Feature","properties":{"SeqNo":"575263","Type":"Q","DHID":"de:05362:87303:2:22","Parent":"de:05362:87303:64","Name":"","MunicipalityCode":"00000000","Municipality":"-","DistrictCode":"-","District":"-","Description":"","Authority":"VRR","DelfiName":"-","THID":"-","LastOperationDate":"","SEV":"nein","longitude":"6,714583","latitude":"50,916467","geojson_lng":6.714583,"geojson_lat":50.916467},"geometry":{"type":"Point","coordinates":[6.714583,50.916467]}},{"type":"Feature","properties":{"SeqNo":"575264","Type":"Q","DHID":"de:05362:87303:2:23","Parent":"de:05362:87303:65","Name":"","MunicipalityCode":"00000000","Municipality":"-","DistrictCode":"-","District":"-","Description":"","Authority":"VRR","DelfiName":"-","THID":"-","LastOperationDate":"","SEV":"nein","longitude":"6,714664","latitude":"50,91641","geojson_lng":6.714664,"geojson_lat":50.91641},"geometry":{"type":"Point","coordinates":[6.714664,50.91641]}},{"type":"Feature","properties":{"SeqNo":"575265","Type":"Q","DHID":"de:05362:87303:2:24","Parent":"de:05362:87303:66","Name":"","MunicipalityCode":"00000000","Municipality":"-","DistrictCode":"-","District":"-","Description":"","Authority":"VRR","DelfiName":"-","THID":"-","LastOperationDate":"","SEV":"nein","longitude":"6,715068","latitude":"50,916575","geojson_lng":6.715068,"geojson_lat":50.916575},"geometry":{"type":"Point","coordinates":[6.715068,50.916575]}},{"type":"Feature","properties":{"SeqNo":"575266","Type":"Q","DHID":"de:05362:87303:7:69","Parent":"de:05362:87303:69","Name":"","MunicipalityCode":"00000000","Municipality":"-","DistrictCode":"-","District":"-","Description":"","Authority":"VRR","DelfiName":"-","THID":"-","LastOperationDate":"","SEV":"nein","longitude":"6,714664","latitude":"50,916388","geojson_lng":6.714664,"geojson_lat":50.916388},"geometry":{"type":"Point","coordinates":[6.714664,50.916388]}},{"type":"Feature","properties":{"SeqNo":"575267","Type":"Q","DHID":"de:05362:87303:7:71","Parent":"de:05362:87303:71","Name":"","MunicipalityCode":"00000000","Municipality":"-","DistrictCode":"-","District":"-","Description":"","Authority":"VRR","DelfiName":"-","THID":"-","LastOperationDate":"","SEV":"nein","longitude":"6,714458","latitude":"50,916541","geojson_lng":6.714458,"geojson_lat":50.916541},"geometry":{"type":"Point","coordinates":[6.714458,50.916541]}},{"type":"Feature","properties":{"SeqNo":"575268","Type":"Q","DHID":"de:05362:87303:7:72","Parent":"de:05362:87303:72","Name":"","MunicipalityCode":"00000000","Municipality":"-","DistrictCode":"-","District":"-","Description":"","Authority":"VRR","DelfiName":"-","THID":"-","LastOperationDate":"","SEV":"nein","longitude":"6,714431","latitude":"50,916569","geojson_lng":6.714431,"geojson_lat":50.916569},"geometry":{"type":"Point","coordinates":[6.714431,50.916569]}},{"type":"Feature","properties":{"SeqNo":"575269","Type":"Q","DHID":"de:05362:87303:7:73","Parent":"de:05362:87303:72","Name":"","MunicipalityCode":"00000000","Municipality":"-","DistrictCode":"-","District":"-","Description":"","Authority":"VRR","DelfiName":"-","THID":"-","LastOperationDate":"","SEV":"nein","longitude":"6,714341","latitude":"50,916637","geojson_lng":6.714341,"geojson_lat":50.916637},"geometry":{"type":"Point","coordinates":[6.714341,50.916637]}},{"type":"Feature","properties":{"SeqNo":"575270","Type":"Q","DHID":"de:05362:87303:7:75","Parent":"de:05362:87303:72","Name":"","MunicipalityCode":"00000000","Municipality":"-","DistrictCode":"-","District":"-","Description":"","Authority":"VRR","DelfiName":"-","THID":"-","LastOperationDate":"","SEV":"nein","longitude":"6,714341","latitude":"50,916637","geojson_lng":6.714341,"geojson_lat":50.916637},"geometry":{"type":"Point","coordinates":[6.714341,50.916637]}},{"type":"Feature","properties":{"SeqNo":"575271","Type":"Q","DHID":"de:05362:87303:7:76","Parent":"de:05362:87303:76","Name":"","MunicipalityCode":"00000000","Municipality":"-","DistrictCode":"-","District":"-","Description":"","Authority":"VRR","DelfiName":"-","THID":"-","LastOperationDate":"","SEV":"nein","longitude":"6,714215","latitude":"50,916756","geojson_lng":6.714215,"geojson_lat":50.916756},"geometry":{"type":"Point","coordinates":[6.714215,50.916756]}},{"type":"Feature","properties":{"SeqNo":"575274","Type":"S","DHID":"de:05362:87349","Parent":"de:05362:87349","Name":"Kerpen Neubottenbroich Winterberg","MunicipalityCode":"05362032","Municipality":"Kerpen","DistrictCode":"","District":"","Description":"","Authority":"VRR","DelfiName":"-","THID":"D914F2015535","LastOperationDate":"2025-01-06T00:00:00","SEV":"nein","longitude":"6,720665","latitude":"50,915215","geojson_lng":6.720665,"geojson_lat":50.915215},"geometry":{"type":"Point","coordinates":[6.720665,50.915215]}},{"type":"Feature","properties":{"SeqNo":"575275","Type":"A","DHID":"de:05362:87349:2","Parent":"de:05362:87349","Name":"Winterberg","MunicipalityCode":"00000000","Municipality":"-","DistrictCode":"-","District":"-","Description":"","Authority":"VRR","DelfiName":"-","THID":"-","LastOperationDate":"","SEV":"nein","longitude":"6,720665","latitude":"50,915215","geojson_lng":6.720665,"geojson_lat":50.915215},"geometry":{"type":"Point","coordinates":[6.720665,50.915215]}},{"type":"Feature","properties":{"SeqNo":"575276","Type":"Q","DHID":"de:05362:87349:2:21","Parent":"de:05362:87349:2","Name":"","MunicipalityCode":"00000000","Municipality":"-","DistrictCode":"-","District":"-","Description":"","Authority":"VRR","DelfiName":"-","THID":"-","LastOperationDate":"","SEV":"nein","longitude":"6,719317","latitude":"50,915312","geojson_lng":6.719317,"geojson_lat":50.915312},"geometry":{"type":"Point","coordinates":[6.719317,50.915312]}},{"type":"Feature","properties":{"SeqNo":"575277","Type":"Q","DHID":"de:05362:87349:2:22","Parent":"de:05362:87349:2","Name":"","MunicipalityCode":"00000000","Municipality":"-","DistrictCode":"-","District":"-","Description":"","Authority":"VRR","DelfiName":"-","THID":"-","LastOperationDate":"","SEV":"nein","longitude":"6,721446","latitude":"50,915363","geojson_lng":6.721446,"geojson_lat":50.915363},"geometry":{"type":"Point","coordinates":[6.721446,50.915363]}},{"type":"Feature","properties":{"SeqNo":"575302","Type":"S","DHID":"de:05362:87371","Parent":"de:05362:87371","Name":"Kerpen Horrem Hauptschule","MunicipalityCode":"05362032","Municipality":"Kerpen","DistrictCode":"","District":"","Description":"","Authority":"VRR","DelfiName":"-","THID":"D914F201554B","LastOperationDate":"2024-12-20T00:00:00","SEV":"nein","longitude":"6,712634","latitude":"50,912791","geojson_lng":6.712634,"geojson_lat":50.912791},"geometry":{"type":"Point","coordinates":[6.712634,50.912791]}},{"type":"Feature","properties":{"SeqNo":"575303","Type":"A","DHID":"de:05362:87371:2","Parent":"de:05362:87371","Name":"Horrem Hauptschul","MunicipalityCode":"00000000","Municipality":"-","DistrictCode":"-","District":"-","Description":"","Authority":"VRR","DelfiName":"-","THID":"-","LastOperationDate":"","SEV":"nein","longitude":"6,712634","latitude":"50,912791","geojson_lng":6.712634,"geojson_lat":50.912791},"geometry":{"type":"Point","coordinates":[6.712634,50.912791]}},{"type":"Feature","properties":{"SeqNo":"575304","Type":"Q","DHID":"de:05362:87371:2:21","Parent":"de:05362:87371:2","Name":"","MunicipalityCode":"00000000","Municipality":"-","DistrictCode":"-","District":"-","Description":"","Authority":"VRR","DelfiName":"-","THID":"-","LastOperationDate":"","SEV":"nein","longitude":"6,712598","latitude":"50,91282","geojson_lng":6.712598,"geojson_lat":50.91282},"geometry":{"type":"Point","coordinates":[6.712598,50.91282]}},{"type":"Feature","properties":{"SeqNo":"575305","Type":"Q","DHID":"de:05362:87371:2:22","Parent":"de:05362:87371:2","Name":"","MunicipalityCode":"00000000","Municipality":"-","DistrictCode":"-","District":"-","Description":"","Authority":"VRR","DelfiName":"-","THID":"-","LastOperationDate":"","SEV":"nein","longitude":"6,712706","latitude":"50,912723","geojson_lng":6.712706,"geojson_lat":50.912723},"geometry":{"type":"Point","coordinates":[6.712706,50.912723]}},{"type":"Feature","properties":{"SeqNo":"575309","Type":"S","DHID":"de:05362:87378","Parent":"de:05362:87378","Name":"Kerpen Horrem Berufschule","MunicipalityCode":"05362032","Municipality":"Kerpen","DistrictCode":"","District":"","Description":"","Authority":"VRR","DelfiName":"-","THID":"D914F2015552","LastOperationDate":"2025-01-06T00:00:00","SEV":"nein","longitude":"6,714467","latitude":"50,913737","geojson_lng":6.714467,"geojson_lat":50.913737},"geometry":{"type":"Point","coordinates":[6.714467,50.913737]}},{"type":"Feature","properties":{"SeqNo":"575310","Type":"A","DHID":"de:05362:87378:2","Parent":"de:05362:87378","Name":"Horrem Berufschul","MunicipalityCode":"00000000","Municipality":"-","DistrictCode":"-","District":"-","Description":"","Authority":"VRR","DelfiName":"-","THID":"-","LastOperationDate":"","SEV":"nein","longitude":"6,714467","latitude":"50,913737","geojson_lng":6.714467,"geojson_lat":50.913737},"geometry":{"type":"Point","coordinates":[6.714467,50.913737]}},{"type":"Feature","properties":{"SeqNo":"575311","Type":"Q","DHID":"de:05362:87378:2:21","Parent":"de:05362:87378:2","Name":"","MunicipalityCode":"00000000","Municipality":"-","DistrictCode":"-","District":"-","Description":"","Authority":"VRR","DelfiName":"-","THID":"-","LastOperationDate":"","SEV":"nein","longitude":"6,714431","latitude":"50,913817","geojson_lng":6.714431,"geojson_lat":50.913817},"geometry":{"type":"Point","coordinates":[6.714431,50.913817]}},{"type":"Feature","properties":{"SeqNo":"575312","Type":"Q","DHID":"de:05362:87378:2:22","Parent":"de:05362:87378:2","Name":"","MunicipalityCode":"00000000","Municipality":"-","DistrictCode":"-","District":"-","Description":"","Authority":"VRR","DelfiName":"-","THID":"-","LastOperationDate":"","SEV":"nein","longitude":"6,714494","latitude":"50,913647","geojson_lng":6.714494,"geojson_lat":50.913647},"geometry":{"type":"Point","coordinates":[6.714494,50.913647]}}]}