{"type":"FeatureCollection","features":[{"type":"Feature","properties":{"highway":"bus_stop","public_transport":"platform","name":"Europaweg","ref:IFOPT":"NL:Q:65310390","_quaycode":"NL:Q:65310390","_town":"Helmond","_status":"available","_mode":"bus","_direction":273,"_visuallyAccessible":false,"_disabledAccessible":true,"geojson_lng":5.648510830719604,"geojson_lat":51.478506720452884},"geometry":{"type":"Point","coordinates":[5.648510830719604,51.478506720452884]}},{"type":"Feature","properties":{"highway":"bus_stop","public_transport":"platform","name":"Kasteeltraverse","ref:IFOPT":"NL:Q:65310410","_quaycode":"NL:Q:65310410","_town":"Helmond","_status":"available","_mode":"bus","_direction":273,"_visuallyAccessible":false,"_disabledAccessible":true,"geojson_lng":5.656538922321574,"geojson_lat":51.4777873430176},"geometry":{"type":"Point","coordinates":[5.656538922321574,51.4777873430176]}},{"type":"Feature","properties":{"highway":"bus_stop","public_transport":"platform","name":"Koninginnewal","ref:IFOPT":"NL:Q:65310830","_quaycode":"NL:Q:65310830","_town":"Helmond","_status":"available","_mode":"bus","_direction":16,"_visuallyAccessible":false,"_disabledAccessible":false,"geojson_lng":5.6576810561844395,"geojson_lat":51.47862064921584},"geometry":{"type":"Point","coordinates":[5.6576810561844395,51.47862064921584]}},{"type":"Feature","properties":{"highway":"bus_stop","public_transport":"platform","name":"Havenplein","ref:IFOPT":"NL:Q:65310300","_quaycode":"NL:Q:65310300","_town":"Helmond","_status":"available","_mode":"bus","_direction":358,"_visuallyAccessible":false,"_disabledAccessible":false,"geojson_lng":5.652018163397966,"geojson_lat":51.4801167761876},"geometry":{"type":"Point","coordinates":[5.652018163397966,51.4801167761876]}},{"type":"Feature","properties":{"highway":"bus_stop","public_transport":"platform","name":"Ameideflat","ref:IFOPT":"NL:Q:65310800","_quaycode":"NL:Q:65310800","_town":"Helmond","_status":"available","_mode":"bus","_direction":217,"_visuallyAccessible":false,"_disabledAccessible":true,"geojson_lng":5.657936199068463,"geojson_lat":51.48037285303132},"geometry":{"type":"Point","coordinates":[5.657936199068463,51.48037285303132]}},{"type":"Feature","properties":{"highway":"bus_stop","public_transport":"platform","name":"Europaweg","ref:IFOPT":"NL:Q:65310380","_quaycode":"NL:Q:65310380","_town":"Helmond","_status":"available","_mode":"bus","_direction":90,"_visuallyAccessible":false,"_disabledAccessible":true,"geojson_lng":5.64750242957215,"geojson_lat":51.478374144536446},"geometry":{"type":"Point","coordinates":[5.64750242957215,51.478374144536446]}},{"type":"Feature","properties":{"highway":"bus_stop","public_transport":"platform","name":"Piet Blomplein","ref:IFOPT":"NL:Q:65310280","_quaycode":"NL:Q:65310280","_town":"Helmond","_status":"available","_mode":"bus","_direction":51,"_visuallyAccessible":false,"_disabledAccessible":false,"geojson_lng":5.653938050464392,"geojson_lat":51.48102026031077},"geometry":{"type":"Point","coordinates":[5.653938050464392,51.48102026031077]}},{"type":"Feature","properties":{"highway":"bus_stop","public_transport":"platform","name":"Kasteeltraverse","ref:IFOPT":"NL:Q:65310400","_quaycode":"NL:Q:65310400","_town":"Helmond","_status":"available","_mode":"bus","_direction":93,"_visuallyAccessible":true,"_disabledAccessible":true,"geojson_lng":5.656508909409656,"geojson_lat":51.4775806722917},"geometry":{"type":"Point","coordinates":[5.656508909409656,51.4775806722917]}},{"type":"Feature","properties":{"highway":"bus_stop","public_transport":"platform","name":"Koninginnewal","ref:IFOPT":"NL:Q:65310820","_quaycode":"NL:Q:65310820","_town":"Helmond","_status":"available","_mode":"bus","_direction":195,"_visuallyAccessible":false,"_disabledAccessible":false,"geojson_lng":5.657507892049762,"geojson_lat":51.47854914101237},"geometry":{"type":"Point","coordinates":[5.657507892049762,51.47854914101237]}}]}