{"type":"FeatureCollection","features":[{"type":"Feature","properties":{"SeqNo":"21818","Type":"S","DHID":"de:08125:1026","Parent":"de:08125:1026","Name":"Hößlinsülz Käppelesfeld","MunicipalityCode":"08125059","Municipality":"Löwenstein","DistrictCode":"","District":"","Description":"","Authority":"NVBW","DelfiName":"-","THID":"D91FBD000402","LastOperationDate":"2025-02-28T00:00:00","SEV":"nein","longitude":"9,366644","latitude":"49,117563","geojson_lng":9.366644,"geojson_lat":49.117563},"geometry":{"type":"Point","coordinates":[9.366644,49.117563]}},{"type":"Feature","properties":{"SeqNo":"21819","Type":"Q","DHID":"de:08125:1026:0:1","Parent":"de:08125:1026","Name":"Ri. Wiesenweg","MunicipalityCode":"00000000","Municipality":"-","DistrictCode":"-","District":"-","Description":"","Authority":"NVBW","DelfiName":"-","THID":"-","LastOperationDate":"","SEV":"nein","longitude":"9,366653","latitude":"49,117569","geojson_lng":9.366653,"geojson_lat":49.117569},"geometry":{"type":"Point","coordinates":[9.366653,49.117569]}},{"type":"Feature","properties":{"SeqNo":"22594","Type":"S","DHID":"de:08125:4016","Parent":"de:08125:4016","Name":"Obersulm Breitenauer See / B39","MunicipalityCode":"08125110","Municipality":"Obersulm","DistrictCode":"","District":"","Description":"","Authority":"NVBW","DelfiName":"-","THID":"D91FBD000FB0","LastOperationDate":"2025-02-28T00:00:00","SEV":"nein","longitude":"9,36729","latitude":"49,121167","geojson_lng":9.36729,"geojson_lat":49.121167},"geometry":{"type":"Point","coordinates":[9.36729,49.121167]}},{"type":"Feature","properties":{"SeqNo":"22595","Type":"Q","DHID":"de:08125:4016:0:1","Parent":"de:08125:4016","Name":"1","MunicipalityCode":"00000000","Municipality":"-","DistrictCode":"-","District":"-","Description":"","Authority":"NVBW","DelfiName":"-","THID":"-","LastOperationDate":"","SEV":"nein","longitude":"9,367371","latitude":"49,121173","geojson_lng":9.367371,"geojson_lat":49.121173},"geometry":{"type":"Point","coordinates":[9.367371,49.121173]}},{"type":"Feature","properties":{"SeqNo":"22596","Type":"Q","DHID":"de:08125:4016:0:2","Parent":"de:08125:4016","Name":"Ri. Willsbach","MunicipalityCode":"00000000","Municipality":"-","DistrictCode":"-","District":"-","Description":"","Authority":"NVBW","DelfiName":"-","THID":"-","LastOperationDate":"","SEV":"nein","longitude":"9,367398","latitude":"49,121202","geojson_lng":9.367398,"geojson_lat":49.121202},"geometry":{"type":"Point","coordinates":[9.367398,49.121202]}},{"type":"Feature","properties":{"SeqNo":"22597","Type":"Q","DHID":"de:08125:4016:0:ohne","Parent":"de:08125:4016","Name":"ohne Angabe","MunicipalityCode":"00000000","Municipality":"-","DistrictCode":"-","District":"-","Description":"","Authority":"NVBW","DelfiName":"-","THID":"-","LastOperationDate":"","SEV":"nein","longitude":"9,36729","latitude":"49,121173","geojson_lng":9.36729,"geojson_lat":49.121173},"geometry":{"type":"Point","coordinates":[9.36729,49.121173]}}]}