{"type":"FeatureCollection","features":[{"type":"Feature","properties":{"highway":"bus_stop","public_transport":"platform","name":"De Burg","ref:IFOPT":"NL:Q:38270010","_quaycode":"NL:Q:38270010","_town":"Berkhout","_status":"available","_mode":"bus","_direction":264,"_visuallyAccessible":false,"_disabledAccessible":true,"geojson_lng":4.955073071151759,"geojson_lat":52.6365132342491},"geometry":{"type":"Point","coordinates":[4.955073071151759,52.6365132342491]}},{"type":"Feature","properties":{"highway":"bus_stop","public_transport":"platform","name":"Goorneweg","ref:IFOPT":"NL:Q:38270030","_quaycode":"NL:Q:38270030","_town":"De Goorn","_status":"available","_mode":"bus","_direction":220,"_visuallyAccessible":false,"_disabledAccessible":true,"geojson_lng":4.949341630889067,"geojson_lat":52.63203463971019},"geometry":{"type":"Point","coordinates":[4.949341630889067,52.63203463971019]}},{"type":"Feature","properties":{"highway":"bus_stop","public_transport":"platform","name":"Goorneweg","ref:IFOPT":"NL:Q:38270140","_quaycode":"NL:Q:38270140","_town":"De Goorn","_status":"available","_mode":"bus","_direction":40,"_visuallyAccessible":false,"_disabledAccessible":true,"geojson_lng":4.949780721927381,"geojson_lat":52.63244067796262},"geometry":{"type":"Point","coordinates":[4.949780721927381,52.63244067796262]}},{"type":"Feature","properties":{"highway":"bus_stop","public_transport":"platform","name":"De Burg","ref:IFOPT":"NL:Q:38170020","_quaycode":"NL:Q:38170020","_town":"Berkhout","_status":"available","_mode":"bus","_direction":84,"_visuallyAccessible":true,"_disabledAccessible":false,"geojson_lng":4.954925794123117,"geojson_lat":52.63646776323079},"geometry":{"type":"Point","coordinates":[4.954925794123117,52.63646776323079]}},{"type":"Feature","properties":{"highway":"bus_stop","public_transport":"platform","name":"Westeinde","ref:IFOPT":"NL:Q:38170210","_quaycode":"NL:Q:38170210","_town":"Berkhout","_status":"available","_mode":"bus","_direction":265,"_visuallyAccessible":false,"_disabledAccessible":true,"geojson_lng":4.96460895490114,"geojson_lat":52.63724850131074},"geometry":{"type":"Point","coordinates":[4.96460895490114,52.63724850131074]}},{"type":"Feature","properties":{"highway":"bus_stop","public_transport":"platform","name":"Westeinde","ref:IFOPT":"NL:Q:38170040","_quaycode":"NL:Q:38170040","_town":"Berkhout","_status":"available","_mode":"bus","_direction":85,"_visuallyAccessible":false,"_disabledAccessible":true,"geojson_lng":4.963000269055977,"geojson_lat":52.63708999232022},"geometry":{"type":"Point","coordinates":[4.963000269055977,52.63708999232022]}}]}