{"type":"FeatureCollection","features":[{"type":"Feature","properties":{"highway":"bus_stop","public_transport":"platform","name":"Zuyderzee College","ref:IFOPT":"NL:Q:25000210","_quaycode":"NL:Q:25000210","_town":"Emmeloord","_status":"available","_mode":"bus","_direction":160,"_visuallyAccessible":false,"_disabledAccessible":false,"geojson_lng":5.755739670532472,"geojson_lat":52.704875033888975},"geometry":{"type":"Point","coordinates":[5.755739670532472,52.704875033888975]}},{"type":"Feature","properties":{"highway":"bus_stop","public_transport":"platform","name":"Zuyderzee College","ref:IFOPT":"NL:Q:25000260","_quaycode":"NL:Q:25000260","_town":"Emmeloord","_status":"available","_mode":"bus","_direction":343,"_visuallyAccessible":false,"_disabledAccessible":false,"geojson_lng":5.755889582593954,"geojson_lat":52.70510823040323},"geometry":{"type":"Point","coordinates":[5.755889582593954,52.70510823040323]}},{"type":"Feature","properties":{"highway":"bus_stop","public_transport":"platform","name":"Antonius Ziekenhuis","ref:IFOPT":"NL:Q:25000650","_quaycode":"NL:Q:25000650","_town":"Emmeloord","_status":"available","_mode":"bus","_direction":226,"_visuallyAccessible":true,"_disabledAccessible":true,"geojson_lng":5.735257835337698,"geojson_lat":52.704226759018624},"geometry":{"type":"Point","coordinates":[5.735257835337698,52.704226759018624]}},{"type":"Feature","properties":{"highway":"bus_stop","public_transport":"platform","name":"Medisch Centrum","ref:IFOPT":"NL:Q:25000500","_quaycode":"NL:Q:25000500","_town":"Emmeloord","_status":"available","_mode":"bus","_direction":80,"_visuallyAccessible":false,"_disabledAccessible":true,"geojson_lng":5.744657440628537,"geojson_lat":52.708440726577415},"geometry":{"type":"Point","coordinates":[5.744657440628537,52.708440726577415]}},{"type":"Feature","properties":{"highway":"bus_stop","public_transport":"platform","name":"Medisch Centrum","ref:IFOPT":"NL:Q:25000550","_quaycode":"NL:Q:25000550","_town":"Emmeloord","_status":"available","_mode":"bus","_direction":261,"_visuallyAccessible":false,"_disabledAccessible":true,"geojson_lng":5.743132344881915,"geojson_lat":52.70831049533557},"geometry":{"type":"Point","coordinates":[5.743132344881915,52.70831049533557]}},{"type":"Feature","properties":{"highway":"bus_stop","public_transport":"platform","name":"Antonius Ziekenhuis","ref:IFOPT":"NL:Q:25000600","_quaycode":"NL:Q:25000600","_town":"Emmeloord","_status":"available","_mode":"bus","_direction":51,"_visuallyAccessible":false,"_disabledAccessible":true,"geojson_lng":5.736581434124488,"geojson_lat":52.70508562645493},"geometry":{"type":"Point","coordinates":[5.736581434124488,52.70508562645493]}},{"type":"Feature","properties":{"highway":"bus_stop","public_transport":"platform","name":"Smeden","ref:IFOPT":"NL:Q:25001400","_quaycode":"NL:Q:25001400","_town":"Emmeloord","_status":"available","_mode":"bus","_direction":153,"_visuallyAccessible":false,"_disabledAccessible":true,"geojson_lng":5.754159334480238,"geojson_lat":52.70874431213629},"geometry":{"type":"Point","coordinates":[5.754159334480238,52.70874431213629]}},{"type":"Feature","properties":{"highway":"bus_stop","public_transport":"platform","name":"Smeden","ref:IFOPT":"NL:Q:25001450","_quaycode":"NL:Q:25001450","_town":"Emmeloord","_status":"available","_mode":"bus","_direction":345,"_visuallyAccessible":false,"_disabledAccessible":true,"geojson_lng":5.754576103570003,"geojson_lat":52.708301972379864},"geometry":{"type":"Point","coordinates":[5.754576103570003,52.708301972379864]}}]}