{"type":"FeatureCollection","features":[{"type":"Feature","properties":{"highway":"bus_stop","public_transport":"platform","name":"Schoutenkamp","ref:IFOPT":"NL:Q:40320320","_quaycode":"NL:Q:40320320","_town":"Heteren","_status":"available","_mode":"bus","_direction":266,"_visuallyAccessible":false,"_disabledAccessible":false,"geojson_lng":5.749982551110994,"geojson_lat":51.95993067718289},"geometry":{"type":"Point","coordinates":[5.749982551110994,51.95993067718289]}},{"type":"Feature","properties":{"highway":"bus_stop","public_transport":"platform","name":"Beemdhof","ref:IFOPT":"NL:Q:40322011","_quaycode":"NL:Q:40322011","_town":"Heteren","_status":"available","_mode":"bus","_direction":0,"_visuallyAccessible":false,"_disabledAccessible":false,"geojson_lng":5.75694939172243,"geojson_lat":51.959666285352945},"geometry":{"type":"Point","coordinates":[5.75694939172243,51.959666285352945]}},{"type":"Feature","properties":{"highway":"bus_stop","public_transport":"platform","name":"Onze Lieve Vrouwestraat","ref:IFOPT":"NL:Q:40320380","_quaycode":"NL:Q:40320380","_town":"Heteren","_status":"available","_mode":"bus","_direction":1,"_visuallyAccessible":true,"_disabledAccessible":true,"geojson_lng":5.744981294000019,"geojson_lat":51.95856181157001},"geometry":{"type":"Point","coordinates":[5.744981294000019,51.95856181157001]}},{"type":"Feature","properties":{"highway":"bus_stop","public_transport":"platform","name":"Beemdhof","ref:IFOPT":"NL:Q:40320210","_quaycode":"NL:Q:40320210","_town":"Heteren","_status":"available","_mode":"bus","_direction":177,"_visuallyAccessible":true,"_disabledAccessible":true,"geojson_lng":5.756790613625845,"geojson_lat":51.95982857095985},"geometry":{"type":"Point","coordinates":[5.756790613625845,51.95982857095985]}},{"type":"Feature","properties":{"highway":"bus_stop","public_transport":"platform","name":"Liefkenshoek","ref:IFOPT":"NL:Q:40320040","_quaycode":"NL:Q:40320040","_town":"Heteren","_status":"available","_mode":"bus","_direction":0,"_visuallyAccessible":false,"_disabledAccessible":false,"geojson_lng":5.755120860497535,"geojson_lat":51.958458604853405},"geometry":{"type":"Point","coordinates":[5.755120860497535,51.958458604853405]}},{"type":"Feature","properties":{"highway":"bus_stop","public_transport":"platform","name":"Schoutenkamp","ref:IFOPT":"NL:Q:40320330","_quaycode":"NL:Q:40320330","_town":"Heteren","_status":"available","_mode":"bus","_direction":80,"_visuallyAccessible":false,"_disabledAccessible":false,"geojson_lng":5.749982115021765,"geojson_lat":51.9598767488572},"geometry":{"type":"Point","coordinates":[5.749982115021765,51.9598767488572]}}]}