{"type":"FeatureCollection","features":[{"type":"Feature","properties":{"SeqNo":"50840","Type":"S","DHID":"de:08236:3011","Parent":"de:08236:3011","Name":"Mühlacker Hermann Hesse Str.","MunicipalityCode":"08236040","Municipality":"Mühlacker","DistrictCode":"","District":"","Description":"","Authority":"NVBW","DelfiName":"-","THID":"D9202C000BC3","LastOperationDate":"2024-06-08T00:00:00","SEV":"nein","longitude":"8,854613","latitude":"48,949453","geojson_lng":8.854613,"geojson_lat":48.949453},"geometry":{"type":"Point","coordinates":[8.854613,48.949453]}},{"type":"Feature","properties":{"SeqNo":"50841","Type":"S","DHID":"de:08236:3012","Parent":"de:08236:3012","Name":"Mühlacker Einsteinstraße","MunicipalityCode":"08236040","Municipality":"Mühlacker","DistrictCode":"-","District":"-","Description":"","Authority":"NVBW","DelfiName":"-","THID":"D9202C000BC4","LastOperationDate":"2025-06-14T00:00:00","SEV":"nein","longitude":"8,850229","latitude":"48,945866","geojson_lng":8.850229,"geojson_lat":48.945866},"geometry":{"type":"Point","coordinates":[8.850229,48.945866]}},{"type":"Feature","properties":{"SeqNo":"50842","Type":"Q","DHID":"de:08236:3012:0:1","Parent":"de:08236:3012","Name":"1","MunicipalityCode":"00000000","Municipality":"-","DistrictCode":"-","District":"-","Description":"Steig 1","Authority":"NVBW","DelfiName":"-","THID":"-","LastOperationDate":"","SEV":"nein","longitude":"8,849834","latitude":"48,945742","geojson_lng":8.849834,"geojson_lat":48.945742},"geometry":{"type":"Point","coordinates":[8.849834,48.945742]}},{"type":"Feature","properties":{"SeqNo":"50843","Type":"Q","DHID":"de:08236:3012:0:2","Parent":"de:08236:3012","Name":"2","MunicipalityCode":"00000000","Municipality":"-","DistrictCode":"-","District":"-","Description":"Steig 2","Authority":"NVBW","DelfiName":"-","THID":"-","LastOperationDate":"","SEV":"nein","longitude":"8,849439","latitude":"48,94563","geojson_lng":8.849439,"geojson_lat":48.94563},"geometry":{"type":"Point","coordinates":[8.849439,48.94563]}},{"type":"Feature","properties":{"SeqNo":"50844","Type":"S","DHID":"de:08236:3013","Parent":"de:08236:3013","Name":"Mühlacker Nipkowstrasse","MunicipalityCode":"08236040","Municipality":"Mühlacker","DistrictCode":"-","District":"-","Description":"","Authority":"NVBW","DelfiName":"-","THID":"D9202C000BC5","LastOperationDate":"2025-06-14T00:00:00","SEV":"nein","longitude":"8,848684","latitude":"48,944285","geojson_lng":8.848684,"geojson_lat":48.944285},"geometry":{"type":"Point","coordinates":[8.848684,48.944285]}},{"type":"Feature","properties":{"SeqNo":"50845","Type":"Q","DHID":"de:08236:3013:0:1","Parent":"de:08236:3013","Name":"1","MunicipalityCode":"00000000","Municipality":"-","DistrictCode":"-","District":"-","Description":"alle Richtungen","Authority":"NVBW","DelfiName":"-","THID":"-","LastOperationDate":"","SEV":"nein","longitude":"8,848684","latitude":"48,944291","geojson_lng":8.848684,"geojson_lat":48.944291},"geometry":{"type":"Point","coordinates":[8.848684,48.944291]}},{"type":"Feature","properties":{"SeqNo":"50912","Type":"S","DHID":"de:08236:3040","Parent":"de:08236:3040","Name":"Mühlacker Schulerweg","MunicipalityCode":"08236040","Municipality":"Mühlacker","DistrictCode":"-","District":"-","Description":"","Authority":"NVBW","DelfiName":"-","THID":"D9202C000BE0","LastOperationDate":"2025-06-14T00:00:00","SEV":"nein","longitude":"8,848217","latitude":"48,950444","geojson_lng":8.848217,"geojson_lat":48.950444},"geometry":{"type":"Point","coordinates":[8.848217,48.950444]}},{"type":"Feature","properties":{"SeqNo":"50913","Type":"Q","DHID":"de:08236:3040:0:1","Parent":"de:08236:3040","Name":"1","MunicipalityCode":"00000000","Municipality":"-","DistrictCode":"-","District":"-","Description":"Richtung Industriegebiet","Authority":"NVBW","DelfiName":"-","THID":"-","LastOperationDate":"","SEV":"nein","longitude":"8,848208","latitude":"48,95048","geojson_lng":8.848208,"geojson_lat":48.95048},"geometry":{"type":"Point","coordinates":[8.848208,48.95048]}},{"type":"Feature","properties":{"SeqNo":"50914","Type":"Q","DHID":"de:08236:3040:0:2","Parent":"de:08236:3040","Name":"2","MunicipalityCode":"00000000","Municipality":"-","DistrictCode":"-","District":"-","Description":"Richtung Busbahnhof","Authority":"NVBW","DelfiName":"-","THID":"-","LastOperationDate":"","SEV":"nein","longitude":"8,84819","latitude":"48,950415","geojson_lng":8.84819,"geojson_lat":48.950415},"geometry":{"type":"Point","coordinates":[8.84819,48.950415]}},{"type":"Feature","properties":{"SeqNo":"50915","Type":"S","DHID":"de:08236:3041","Parent":"de:08236:3041","Name":"Mühlacker Mörike Realschule","MunicipalityCode":"08236040","Municipality":"Mühlacker","DistrictCode":"","District":"","Description":"","Authority":"NVBW","DelfiName":"-","THID":"D9202C000BE1","LastOperationDate":"2025-06-14T00:00:00","SEV":"nein","longitude":"8,846366","latitude":"48,949601","geojson_lng":8.846366,"geojson_lat":48.949601},"geometry":{"type":"Point","coordinates":[8.846366,48.949601]}},{"type":"Feature","properties":{"SeqNo":"50916","Type":"Q","DHID":"de:08236:3041:0:1","Parent":"de:08236:3041","Name":"Richtung Klinik","MunicipalityCode":"00000000","Municipality":"-","DistrictCode":"-","District":"-","Description":"","Authority":"NVBW","DelfiName":"-","THID":"-","LastOperationDate":"","SEV":"nein","longitude":"8,846393","latitude":"48,949559","geojson_lng":8.846393,"geojson_lat":48.949559},"geometry":{"type":"Point","coordinates":[8.846393,48.949559]}},{"type":"Feature","properties":{"SeqNo":"50917","Type":"Q","DHID":"de:08236:3041:0:2","Parent":"de:08236:3041","Name":"Richtung Busbahnhof","MunicipalityCode":"00000000","Municipality":"-","DistrictCode":"-","District":"-","Description":"","Authority":"NVBW","DelfiName":"-","THID":"-","LastOperationDate":"","SEV":"nein","longitude":"8,846295","latitude":"48,949642","geojson_lng":8.846295,"geojson_lat":48.949642},"geometry":{"type":"Point","coordinates":[8.846295,48.949642]}},{"type":"Feature","properties":{"SeqNo":"50918","Type":"S","DHID":"de:08236:3042","Parent":"de:08236:3042","Name":"Mühlacker August Lämmle Straße","MunicipalityCode":"08236040","Municipality":"Mühlacker","DistrictCode":"-","District":"-","Description":"","Authority":"NVBW","DelfiName":"-","THID":"D9202C000BE2","LastOperationDate":"2025-06-14T00:00:00","SEV":"nein","longitude":"8,851424","latitude":"48,950167","geojson_lng":8.851424,"geojson_lat":48.950167},"geometry":{"type":"Point","coordinates":[8.851424,48.950167]}},{"type":"Feature","properties":{"SeqNo":"50919","Type":"Q","DHID":"de:08236:3042:0:1","Parent":"de:08236:3042","Name":"1","MunicipalityCode":"00000000","Municipality":"-","DistrictCode":"-","District":"-","Description":"Richtung Klinik","Authority":"NVBW","DelfiName":"-","THID":"-","LastOperationDate":"","SEV":"nein","longitude":"8,851397","latitude":"48,950161","geojson_lng":8.851397,"geojson_lat":48.950161},"geometry":{"type":"Point","coordinates":[8.851397,48.950161]}},{"type":"Feature","properties":{"SeqNo":"50920","Type":"Q","DHID":"de:08236:3042:0:2","Parent":"de:08236:3042","Name":"2","MunicipalityCode":"00000000","Municipality":"-","DistrictCode":"-","District":"-","Description":"Richtung Busbahnhof","Authority":"NVBW","DelfiName":"-","THID":"-","LastOperationDate":"","SEV":"nein","longitude":"8,851343","latitude":"48,950238","geojson_lng":8.851343,"geojson_lat":48.950238},"geometry":{"type":"Point","coordinates":[8.851343,48.950238]}},{"type":"Feature","properties":{"SeqNo":"50978","Type":"S","DHID":"de:08236:3070","Parent":"de:08236:3070","Name":"Mühlacker Bassanostraße","MunicipalityCode":"08236040","Municipality":"Mühlacker","DistrictCode":"-","District":"-","Description":"","Authority":"NVBW","DelfiName":"-","THID":"D9202C000BFE","LastOperationDate":"2025-06-14T00:00:00","SEV":"nein","longitude":"8,84748","latitude":"48,945135","geojson_lng":8.84748,"geojson_lat":48.945135},"geometry":{"type":"Point","coordinates":[8.84748,48.945135]}},{"type":"Feature","properties":{"SeqNo":"50979","Type":"Q","DHID":"de:08236:3070:0:1","Parent":"de:08236:3070","Name":"1","MunicipalityCode":"00000000","Municipality":"-","DistrictCode":"-","District":"-","Description":"alle Richtungen","Authority":"NVBW","DelfiName":"-","THID":"-","LastOperationDate":"","SEV":"nein","longitude":"8,84748","latitude":"48,945152","geojson_lng":8.84748,"geojson_lat":48.945152},"geometry":{"type":"Point","coordinates":[8.84748,48.945152]}},{"type":"Feature","properties":{"SeqNo":"50980","Type":"S","DHID":"de:08236:3071","Parent":"de:08236:3071","Name":"Mühlacker Uhlandstraße","MunicipalityCode":"08236040","Municipality":"Mühlacker","DistrictCode":"","District":"","Description":"","Authority":"NVBW","DelfiName":"-","THID":"D9202C000BFF","LastOperationDate":"1999-12-31T00:00:00","SEV":"nein","longitude":"8,849897","latitude":"48,947677","geojson_lng":8.849897,"geojson_lat":48.947677},"geometry":{"type":"Point","coordinates":[8.849897,48.947677]}}]}