{"type":"FeatureCollection","features":[{"type":"Feature","properties":{"SeqNo":"98222","Type":"S","DHID":"de:09161:232","Parent":"de:09161:232","Name":"Ganghoferstraße","MunicipalityCode":"09161000","Municipality":"Ingolstadt","DistrictCode":"","District":"","Description":"","Authority":"BEG","DelfiName":"-","THID":"D923C90000E8","LastOperationDate":"2025-06-14T00:00:00","SEV":"nein","longitude":"11,449253","latitude":"48,76797","geojson_lng":11.449253,"geojson_lat":48.76797},"geometry":{"type":"Point","coordinates":[11.449253,48.76797]}},{"type":"Feature","properties":{"SeqNo":"98223","Type":"Q","DHID":"de:09161:232:0:1","Parent":"de:09161:232","Name":"Ganghoferstraße Pos. 1","MunicipalityCode":"00000000","Municipality":"-","DistrictCode":"-","District":"-","Description":"","Authority":"BEG","DelfiName":"-","THID":"-","LastOperationDate":"","SEV":"nein","longitude":"11,449361","latitude":"48,76797","geojson_lng":11.449361,"geojson_lat":48.76797},"geometry":{"type":"Point","coordinates":[11.449361,48.76797]}},{"type":"Feature","properties":{"SeqNo":"98224","Type":"Q","DHID":"de:09161:232:0:2","Parent":"de:09161:232","Name":"Ganghoferstraße Pos. 2","MunicipalityCode":"00000000","Municipality":"-","DistrictCode":"-","District":"-","Description":"","Authority":"BEG","DelfiName":"-","THID":"-","LastOperationDate":"","SEV":"nein","longitude":"11,449145","latitude":"48,76797","geojson_lng":11.449145,"geojson_lat":48.76797},"geometry":{"type":"Point","coordinates":[11.449145,48.76797]}},{"type":"Feature","properties":{"SeqNo":"98331","Type":"S","DHID":"de:09161:613","Parent":"de:09161:613","Name":"Regensburger Straße","MunicipalityCode":"09161000","Municipality":"Ingolstadt","DistrictCode":"","District":"","Description":"","Authority":"BEG","DelfiName":"-","THID":"D923C9000265","LastOperationDate":"2025-06-14T00:00:00","SEV":"nein","longitude":"11,453268","latitude":"48,76913","geojson_lng":11.453268,"geojson_lat":48.76913},"geometry":{"type":"Point","coordinates":[11.453268,48.76913]}},{"type":"Feature","properties":{"SeqNo":"98332","Type":"Q","DHID":"de:09161:613:0:1","Parent":"de:09161:613","Name":"Regensburger Straße Pos. 1","MunicipalityCode":"00000000","Municipality":"-","DistrictCode":"-","District":"-","Description":"","Authority":"BEG","DelfiName":"-","THID":"-","LastOperationDate":"","SEV":"nein","longitude":"11,453655","latitude":"48,768674","geojson_lng":11.453655,"geojson_lat":48.768674},"geometry":{"type":"Point","coordinates":[11.453655,48.768674]}},{"type":"Feature","properties":{"SeqNo":"98333","Type":"Q","DHID":"de:09161:613:0:10","Parent":"de:09161:613","Name":"10","MunicipalityCode":"00000000","Municipality":"-","DistrictCode":"-","District":"-","Description":"","Authority":"BEG","DelfiName":"-","THID":"-","LastOperationDate":"","SEV":"nein","longitude":"11,452523","latitude":"48,768325","geojson_lng":11.452523,"geojson_lat":48.768325},"geometry":{"type":"Point","coordinates":[11.452523,48.768325]}},{"type":"Feature","properties":{"SeqNo":"98334","Type":"Q","DHID":"de:09161:613:0:2","Parent":"de:09161:613","Name":"Regensburger Straße Pos. 2","MunicipalityCode":"00000000","Municipality":"-","DistrictCode":"-","District":"-","Description":"","Authority":"BEG","DelfiName":"-","THID":"-","LastOperationDate":"","SEV":"nein","longitude":"11,453448","latitude":"48,768668","geojson_lng":11.453448,"geojson_lat":48.768668},"geometry":{"type":"Point","coordinates":[11.453448,48.768668]}},{"type":"Feature","properties":{"SeqNo":"98335","Type":"Q","DHID":"de:09161:613:0:20","Parent":"de:09161:613","Name":"Regensburger Straße - Ersatz Pos. 20","MunicipalityCode":"00000000","Municipality":"-","DistrictCode":"-","District":"-","Description":"","Authority":"BEG","DelfiName":"-","THID":"-","LastOperationDate":"","SEV":"nein","longitude":"11,452702","latitude":"48,770048","geojson_lng":11.452702,"geojson_lat":48.770048},"geometry":{"type":"Point","coordinates":[11.452702,48.770048]}},{"type":"Feature","properties":{"SeqNo":"98387","Type":"S","DHID":"de:09161:7416","Parent":"de:09161:7416","Name":"Ingolstadt, Sportzentrum Nordost","MunicipalityCode":"09161000","Municipality":"Ingolstadt","DistrictCode":"-","District":"-","Description":"","Authority":"BEG","DelfiName":"-","THID":"D923C9001CF8","LastOperationDate":"1999-12-31T00:00:00","SEV":"nein","longitude":"11,458272","latitude":"48,76479","geojson_lng":11.458272,"geojson_lat":48.76479},"geometry":{"type":"Point","coordinates":[11.458272,48.76479]}},{"type":"Feature","properties":{"SeqNo":"98388","Type":"Q","DHID":"de:09161:7416:0:1","Parent":"de:09161:7416","Name":"Sportzentrum Nordost Pos. 99","MunicipalityCode":"00000000","Municipality":"-","DistrictCode":"-","District":"-","Description":"99","Authority":"BEG","DelfiName":"-","THID":"-","LastOperationDate":"","SEV":"nein","longitude":"11,458272","latitude":"48,76479","geojson_lng":11.458272,"geojson_lat":48.76479},"geometry":{"type":"Point","coordinates":[11.458272,48.76479]}}]}