{"type":"FeatureCollection","features":[{"type":"Feature","properties":{"SeqNo":"44889","Type":"S","DHID":"de:08216:1844","Parent":"de:08216:1844","Name":"Rastatt","MunicipalityCode":"08216043","Municipality":"Rastatt","DistrictCode":"","District":"","Description":"","Authority":"NVBW","DelfiName":"-","THID":"D92018000734","LastOperationDate":"2025-06-14T00:00:00","SEV":"nein","longitude":"8,215165","latitude":"48,860623","geojson_lng":8.215165,"geojson_lat":48.860623},"geometry":{"type":"Point","coordinates":[8.215165,48.860623]}},{"type":"Feature","properties":{"SeqNo":"44890","Type":"A","DHID":"de:08216:1844:1","Parent":"de:08216:1844","Name":"Gleis 1","MunicipalityCode":"00000000","Municipality":"-","DistrictCode":"-","District":"-","Description":"","Authority":"NVBW","DelfiName":"-","THID":"-","LastOperationDate":"","SEV":"nein","longitude":"8,215291","latitude":"48,86057","geojson_lng":8.215291,"geojson_lat":48.86057},"geometry":{"type":"Point","coordinates":[8.215291,48.86057]}},{"type":"Feature","properties":{"SeqNo":"44891","Type":"A","DHID":"de:08216:1844:2","Parent":"de:08216:1844","Name":"Busbahnhof vorne","MunicipalityCode":"00000000","Municipality":"-","DistrictCode":"-","District":"-","Description":"","Authority":"NVBW","DelfiName":"-","THID":"-","LastOperationDate":"","SEV":"nein","longitude":"8,214824","latitude":"48,860706","geojson_lng":8.214824,"geojson_lat":48.860706},"geometry":{"type":"Point","coordinates":[8.214824,48.860706]}},{"type":"Feature","properties":{"SeqNo":"44892","Type":"A","DHID":"de:08216:1844:3","Parent":"de:08216:1844","Name":"Gleis 2+3","MunicipalityCode":"00000000","Municipality":"-","DistrictCode":"-","District":"-","Description":"","Authority":"NVBW","DelfiName":"-","THID":"-","LastOperationDate":"","SEV":"nein","longitude":"8,215471","latitude":"48,860505","geojson_lng":8.215471,"geojson_lat":48.860505},"geometry":{"type":"Point","coordinates":[8.215471,48.860505]}},{"type":"Feature","properties":{"SeqNo":"44893","Type":"A","DHID":"de:08216:1844:4","Parent":"de:08216:1844","Name":"Gleis 4+5a","MunicipalityCode":"00000000","Municipality":"-","DistrictCode":"-","District":"-","Description":"","Authority":"NVBW","DelfiName":"-","THID":"-","LastOperationDate":"","SEV":"nein","longitude":"8,215641","latitude":"48,86044","geojson_lng":8.215641,"geojson_lat":48.86044},"geometry":{"type":"Point","coordinates":[8.215641,48.86044]}},{"type":"Feature","properties":{"SeqNo":"44894","Type":"A","DHID":"de:08216:1844:5","Parent":"de:08216:1844","Name":"Gleis 5b+6","MunicipalityCode":"00000000","Municipality":"-","DistrictCode":"-","District":"-","Description":"","Authority":"NVBW","DelfiName":"-","THID":"-","LastOperationDate":"","SEV":"nein","longitude":"8,215749","latitude":"48,860392","geojson_lng":8.215749,"geojson_lat":48.860392},"geometry":{"type":"Point","coordinates":[8.215749,48.860392]}},{"type":"Feature","properties":{"SeqNo":"44895","Type":"A","DHID":"de:08216:1844:6","Parent":"de:08216:1844","Name":"Busbahnhof hinten","MunicipalityCode":"00000000","Municipality":"-","DistrictCode":"-","District":"-","Description":"","Authority":"NVBW","DelfiName":"-","THID":"-","LastOperationDate":"","SEV":"nein","longitude":"8,214545","latitude":"48,860499","geojson_lng":8.214545,"geojson_lat":48.860499},"geometry":{"type":"Point","coordinates":[8.214545,48.860499]}},{"type":"Feature","properties":{"SeqNo":"44896","Type":"A","DHID":"de:08216:1844:70","Parent":"de:08216:1844","Name":"Unterführung","MunicipalityCode":"00000000","Municipality":"-","DistrictCode":"-","District":"-","Description":"","Authority":"NVBW","DelfiName":"-","THID":"-","LastOperationDate":"","SEV":"nein","longitude":"8,21539","latitude":"48,86054","geojson_lng":8.21539,"geojson_lat":48.86054},"geometry":{"type":"Point","coordinates":[8.21539,48.86054]}},{"type":"Feature","properties":{"SeqNo":"44897","Type":"A","DHID":"de:08216:1844:80","Parent":"de:08216:1844","Name":"Taxi","MunicipalityCode":"00000000","Municipality":"-","DistrictCode":"-","District":"-","Description":"","Authority":"NVBW","DelfiName":"-","THID":"-","LastOperationDate":"","SEV":"nein","longitude":"8,214842","latitude":"48,860575","geojson_lng":8.214842,"geojson_lat":48.860575},"geometry":{"type":"Point","coordinates":[8.214842,48.860575]}},{"type":"Feature","properties":{"SeqNo":"44898","Type":"A","DHID":"de:08216:1844:90","Parent":"de:08216:1844","Name":"Haupteingang","MunicipalityCode":"00000000","Municipality":"-","DistrictCode":"-","District":"-","Description":"","Authority":"NVBW","DelfiName":"-","THID":"-","LastOperationDate":"","SEV":"nein","longitude":"8,214932","latitude":"48,860711","geojson_lng":8.214932,"geojson_lat":48.860711},"geometry":{"type":"Point","coordinates":[8.214932,48.860711]}},{"type":"Feature","properties":{"SeqNo":"44899","Type":"A","DHID":"de:08216:1844:91","Parent":"de:08216:1844","Name":"Eingang Nord","MunicipalityCode":"00000000","Municipality":"-","DistrictCode":"-","District":"-","Description":"","Authority":"NVBW","DelfiName":"-","THID":"-","LastOperationDate":"","SEV":"nein","longitude":"8,214375","latitude":"48,86093","geojson_lng":8.214375,"geojson_lat":48.86093},"geometry":{"type":"Point","coordinates":[8.214375,48.86093]}},{"type":"Feature","properties":{"SeqNo":"44900","Type":"A","DHID":"de:08216:1844:92","Parent":"de:08216:1844","Name":"Eingang Süd","MunicipalityCode":"00000000","Municipality":"-","DistrictCode":"-","District":"-","Description":"","Authority":"NVBW","DelfiName":"-","THID":"-","LastOperationDate":"","SEV":"nein","longitude":"8,215938","latitude":"48,860327","geojson_lng":8.215938,"geojson_lat":48.860327},"geometry":{"type":"Point","coordinates":[8.215938,48.860327]}},{"type":"Feature","properties":{"SeqNo":"44901","Type":"A","DHID":"de:08216:1844:99","Parent":"de:08216:1844","Name":"EV","MunicipalityCode":"00000000","Municipality":"-","DistrictCode":"-","District":"-","Description":"","Authority":"NVBW","DelfiName":"-","THID":"-","LastOperationDate":"","SEV":"nein","longitude":"8,215947","latitude":"48,861645","geojson_lng":8.215947,"geojson_lat":48.861645},"geometry":{"type":"Point","coordinates":[8.215947,48.861645]}},{"type":"Feature","properties":{"SeqNo":"44902","Type":"Q","DHID":"de:08216:1844:1:1","Parent":"de:08216:1844:1","Name":"Gleis 1","MunicipalityCode":"00000000","Municipality":"-","DistrictCode":"-","District":"-","Description":"","Authority":"NVBW","DelfiName":"-","THID":"-","LastOperationDate":"","SEV":"nein","longitude":"8,215713","latitude":"48,860924","geojson_lng":8.215713,"geojson_lat":48.860924},"geometry":{"type":"Point","coordinates":[8.215713,48.860924]}},{"type":"Feature","properties":{"SeqNo":"44903","Type":"Q","DHID":"de:08216:1844:2:7","Parent":"de:08216:1844:2","Name":"Steig 1 (239, 241)","MunicipalityCode":"00000000","Municipality":"-","DistrictCode":"-","District":"-","Description":"","Authority":"NVBW","DelfiName":"-","THID":"-","LastOperationDate":"","SEV":"nein","longitude":"8,214869","latitude":"48,860812","geojson_lng":8.214869,"geojson_lat":48.860812},"geometry":{"type":"Point","coordinates":[8.214869,48.860812]}},{"type":"Feature","properties":{"SeqNo":"44904","Type":"Q","DHID":"de:08216:1844:2:8","Parent":"de:08216:1844:2","Name":"Steig 2 (231, 232, 235)","MunicipalityCode":"00000000","Municipality":"-","DistrictCode":"-","District":"-","Description":"","Authority":"NVBW","DelfiName":"-","THID":"-","LastOperationDate":"","SEV":"nein","longitude":"8,214779","latitude":"48,860747","geojson_lng":8.214779,"geojson_lat":48.860747},"geometry":{"type":"Point","coordinates":[8.214779,48.860747]}},{"type":"Feature","properties":{"SeqNo":"44905","Type":"Q","DHID":"de:08216:1844:2:9","Parent":"de:08216:1844:2","Name":"Steig 3 (212, 234, X34)","MunicipalityCode":"00000000","Municipality":"-","DistrictCode":"-","District":"-","Description":"","Authority":"NVBW","DelfiName":"-","THID":"-","LastOperationDate":"","SEV":"nein","longitude":"8,214689","latitude":"48,860658","geojson_lng":8.214689,"geojson_lat":48.860658},"geometry":{"type":"Point","coordinates":[8.214689,48.860658]}},{"type":"Feature","properties":{"SeqNo":"44906","Type":"Q","DHID":"de:08216:1844:3:2","Parent":"de:08216:1844:3","Name":"Gleis 2","MunicipalityCode":"00000000","Municipality":"-","DistrictCode":"-","District":"-","Description":"","Authority":"NVBW","DelfiName":"-","THID":"-","LastOperationDate":"","SEV":"nein","longitude":"8,215767","latitude":"48,860906","geojson_lng":8.215767,"geojson_lat":48.860906},"geometry":{"type":"Point","coordinates":[8.215767,48.860906]}},{"type":"Feature","properties":{"SeqNo":"44907","Type":"Q","DHID":"de:08216:1844:3:3","Parent":"de:08216:1844:3","Name":"Gleis 3","MunicipalityCode":"00000000","Municipality":"-","DistrictCode":"-","District":"-","Description":"","Authority":"NVBW","DelfiName":"-","THID":"-","LastOperationDate":"","SEV":"nein","longitude":"8,21592","latitude":"48,860853","geojson_lng":8.21592,"geojson_lat":48.860853},"geometry":{"type":"Point","coordinates":[8.21592,48.860853]}},{"type":"Feature","properties":{"SeqNo":"44908","Type":"Q","DHID":"de:08216:1844:4:4","Parent":"de:08216:1844:4","Name":"Gleis 4","MunicipalityCode":"00000000","Municipality":"-","DistrictCode":"-","District":"-","Description":"","Authority":"NVBW","DelfiName":"-","THID":"-","LastOperationDate":"","SEV":"nein","longitude":"8,215956","latitude":"48,860836","geojson_lng":8.215956,"geojson_lat":48.860836},"geometry":{"type":"Point","coordinates":[8.215956,48.860836]}},{"type":"Feature","properties":{"SeqNo":"44909","Type":"Q","DHID":"de:08216:1844:4:5","Parent":"de:08216:1844:4","Name":"Gleis 5","MunicipalityCode":"00000000","Municipality":"-","DistrictCode":"-","District":"-","Description":"","Authority":"NVBW","DelfiName":"-","THID":"-","LastOperationDate":"","SEV":"nein","longitude":"8,216063","latitude":"48,860782","geojson_lng":8.216063,"geojson_lat":48.860782},"geometry":{"type":"Point","coordinates":[8.216063,48.860782]}},{"type":"Feature","properties":{"SeqNo":"44910","Type":"Q","DHID":"de:08216:1844:5:5b","Parent":"de:08216:1844:5","Name":"Gleis 5b","MunicipalityCode":"00000000","Municipality":"-","DistrictCode":"-","District":"-","Description":"","Authority":"NVBW","DelfiName":"-","THID":"-","LastOperationDate":"","SEV":"nein","longitude":"8,216028","latitude":"48,860753","geojson_lng":8.216028,"geojson_lat":48.860753},"geometry":{"type":"Point","coordinates":[8.216028,48.860753]}},{"type":"Feature","properties":{"SeqNo":"44911","Type":"Q","DHID":"de:08216:1844:5:6","Parent":"de:08216:1844:5","Name":"Gleis 6","MunicipalityCode":"00000000","Municipality":"-","DistrictCode":"-","District":"-","Description":"","Authority":"NVBW","DelfiName":"-","THID":"-","LastOperationDate":"","SEV":"nein","longitude":"8,216153","latitude":"48,860735","geojson_lng":8.216153,"geojson_lat":48.860735},"geometry":{"type":"Point","coordinates":[8.216153,48.860735]}},{"type":"Feature","properties":{"SeqNo":"44912","Type":"Q","DHID":"de:08216:1844:6:10","Parent":"de:08216:1844:6","Name":"Steig 4 (222, 227)","MunicipalityCode":"00000000","Municipality":"-","DistrictCode":"-","District":"-","Description":"","Authority":"NVBW","DelfiName":"-","THID":"-","LastOperationDate":"","SEV":"nein","longitude":"8,21459","latitude":"48,860552","geojson_lng":8.21459,"geojson_lat":48.860552},"geometry":{"type":"Point","coordinates":[8.21459,48.860552]}},{"type":"Feature","properties":{"SeqNo":"44913","Type":"Q","DHID":"de:08216:1844:99:91","Parent":"de:08216:1844:99","Name":"EV Ri Norden","MunicipalityCode":"00000000","Municipality":"-","DistrictCode":"-","District":"-","Description":"","Authority":"NVBW","DelfiName":"-","THID":"-","LastOperationDate":"","SEV":"nein","longitude":"8,21601","latitude":"48,861633","geojson_lng":8.21601,"geojson_lat":48.861633},"geometry":{"type":"Point","coordinates":[8.21601,48.861633]}},{"type":"Feature","properties":{"SeqNo":"44914","Type":"Q","DHID":"de:08216:1844:99:92","Parent":"de:08216:1844:99","Name":"EV Ri Süden","MunicipalityCode":"00000000","Municipality":"-","DistrictCode":"-","District":"-","Description":"","Authority":"NVBW","DelfiName":"-","THID":"-","LastOperationDate":"","SEV":"nein","longitude":"8,215884","latitude":"48,861687","geojson_lng":8.215884,"geojson_lat":48.861687},"geometry":{"type":"Point","coordinates":[8.215884,48.861687]}},{"type":"Feature","properties":{"SeqNo":"44981","Type":"S","DHID":"de:08216:31047","Parent":"de:08216:31047","Name":"Rastatt Königsberger Str.","MunicipalityCode":"08216043","Municipality":"Rastatt","DistrictCode":"","District":"","Description":"","Authority":"NVBW","DelfiName":"-","THID":"D92018007947","LastOperationDate":"2025-06-14T00:00:00","SEV":"nein","longitude":"8,214177","latitude":"48,864565","geojson_lng":8.214177,"geojson_lat":48.864565},"geometry":{"type":"Point","coordinates":[8.214177,48.864565]}},{"type":"Feature","properties":{"SeqNo":"44982","Type":"Q","DHID":"de:08216:31047:0:1","Parent":"de:08216:31047","Name":"1","MunicipalityCode":"00000000","Municipality":"-","DistrictCode":"-","District":"-","Description":"","Authority":"NVBW","DelfiName":"-","THID":"-","LastOperationDate":"","SEV":"nein","longitude":"8,214249","latitude":"48,864582","geojson_lng":8.214249,"geojson_lat":48.864582},"geometry":{"type":"Point","coordinates":[8.214249,48.864582]}},{"type":"Feature","properties":{"SeqNo":"45011","Type":"S","DHID":"de:08216:31821","Parent":"de:08216:31821","Name":"Rastatt Bahnhof Ost","MunicipalityCode":"08216043","Municipality":"Rastatt","DistrictCode":"","District":"","Description":"","Authority":"NVBW","DelfiName":"-","THID":"D92018007C4D","LastOperationDate":"1999-12-31T00:00:00","SEV":"nein","longitude":"8,216099","latitude":"48,859825","geojson_lng":8.216099,"geojson_lat":48.859825},"geometry":{"type":"Point","coordinates":[8.216099,48.859825]}},{"type":"Feature","properties":{"SeqNo":"45012","Type":"Q","DHID":"de:08216:31821:0:1","Parent":"de:08216:31821","Name":"Ri Agentur für Arbeit","MunicipalityCode":"00000000","Municipality":"-","DistrictCode":"-","District":"-","Description":"","Authority":"NVBW","DelfiName":"-","THID":"-","LastOperationDate":"","SEV":"nein","longitude":"8,216099","latitude":"48,859961","geojson_lng":8.216099,"geojson_lat":48.859961},"geometry":{"type":"Point","coordinates":[8.216099,48.859961]}},{"type":"Feature","properties":{"SeqNo":"45013","Type":"Q","DHID":"de:08216:31821:0:2","Parent":"de:08216:31821","Name":"Ri Rauental","MunicipalityCode":"00000000","Municipality":"-","DistrictCode":"-","District":"-","Description":"","Authority":"NVBW","DelfiName":"-","THID":"-","LastOperationDate":"","SEV":"nein","longitude":"8,216099","latitude":"48,859695","geojson_lng":8.216099,"geojson_lat":48.859695},"geometry":{"type":"Point","coordinates":[8.216099,48.859695]}},{"type":"Feature","properties":{"SeqNo":"45167","Type":"S","DHID":"de:08216:31991","Parent":"de:08216:31991","Name":"Rastatt Franzbrücke","MunicipalityCode":"08216043","Municipality":"Rastatt","DistrictCode":"","District":"","Description":"","Authority":"NVBW","DelfiName":"-","THID":"D92018007CF7","LastOperationDate":"1999-12-31T00:00:00","SEV":"nein","longitude":"8,211796","latitude":"48,857869","geojson_lng":8.211796,"geojson_lat":48.857869},"geometry":{"type":"Point","coordinates":[8.211796,48.857869]}},{"type":"Feature","properties":{"SeqNo":"45168","Type":"Q","DHID":"de:08216:31991:0:1","Parent":"de:08216:31991","Name":"1","MunicipalityCode":"00000000","Municipality":"-","DistrictCode":"-","District":"-","Description":"","Authority":"NVBW","DelfiName":"-","THID":"-","LastOperationDate":"","SEV":"nein","longitude":"8,211823","latitude":"48,857815","geojson_lng":8.211823,"geojson_lat":48.857815},"geometry":{"type":"Point","coordinates":[8.211823,48.857815]}},{"type":"Feature","properties":{"SeqNo":"45169","Type":"Q","DHID":"de:08216:31991:0:2","Parent":"de:08216:31991","Name":"2","MunicipalityCode":"00000000","Municipality":"-","DistrictCode":"-","District":"-","Description":"","Authority":"NVBW","DelfiName":"-","THID":"-","LastOperationDate":"","SEV":"nein","longitude":"8,211734","latitude":"48,857892","geojson_lng":8.211734,"geojson_lat":48.857892},"geometry":{"type":"Point","coordinates":[8.211734,48.857892]}},{"type":"Feature","properties":{"SeqNo":"45241","Type":"S","DHID":"de:08216:32021","Parent":"de:08216:32021","Name":"Rastatt SchlossGalerie","MunicipalityCode":"08216043","Municipality":"Rastatt","DistrictCode":"","District":"","Description":"","Authority":"NVBW","DelfiName":"-","THID":"D92018007D15","LastOperationDate":"2025-06-14T00:00:00","SEV":"nein","longitude":"8,208024","latitude":"48,858211","geojson_lng":8.208024,"geojson_lat":48.858211},"geometry":{"type":"Point","coordinates":[8.208024,48.858211]}},{"type":"Feature","properties":{"SeqNo":"45242","Type":"Q","DHID":"de:08216:32021:0:1","Parent":"de:08216:32021","Name":"Ri Bahnhof","MunicipalityCode":"00000000","Municipality":"-","DistrictCode":"-","District":"-","Description":"","Authority":"NVBW","DelfiName":"-","THID":"-","LastOperationDate":"","SEV":"nein","longitude":"8,208033","latitude":"48,858141","geojson_lng":8.208033,"geojson_lat":48.858141},"geometry":{"type":"Point","coordinates":[8.208033,48.858141]}},{"type":"Feature","properties":{"SeqNo":"45243","Type":"Q","DHID":"de:08216:32021:0:2","Parent":"de:08216:32021","Name":"Ri Kapellenstraße","MunicipalityCode":"00000000","Municipality":"-","DistrictCode":"-","District":"-","Description":"","Authority":"NVBW","DelfiName":"-","THID":"-","LastOperationDate":"","SEV":"nein","longitude":"8,207979","latitude":"48,858294","geojson_lng":8.207979,"geojson_lat":48.858294},"geometry":{"type":"Point","coordinates":[8.207979,48.858294]}},{"type":"Feature","properties":{"SeqNo":"45244","Type":"Q","DHID":"de:08216:32021:0:3","Parent":"de:08216:32021","Name":"Ersatz Stadt","MunicipalityCode":"00000000","Municipality":"-","DistrictCode":"-","District":"-","Description":"","Authority":"NVBW","DelfiName":"-","THID":"-","LastOperationDate":"","SEV":"nein","longitude":"8,210287","latitude":"48,858436","geojson_lng":8.210287,"geojson_lat":48.858436},"geometry":{"type":"Point","coordinates":[8.210287,48.858436]}},{"type":"Feature","properties":{"SeqNo":"45884","Type":"S","DHID":"de:08216:33110","Parent":"de:08216:33110","Name":"Rastatt Stadtfriedhof","MunicipalityCode":"08216043","Municipality":"Rastatt","DistrictCode":"","District":"","Description":"","Authority":"NVBW","DelfiName":"-","THID":"D92018008156","LastOperationDate":"2025-06-14T00:00:00","SEV":"nein","longitude":"8,211814","latitude":"48,863164","geojson_lng":8.211814,"geojson_lat":48.863164},"geometry":{"type":"Point","coordinates":[8.211814,48.863164]}},{"type":"Feature","properties":{"SeqNo":"45885","Type":"Q","DHID":"de:08216:33110:0:1","Parent":"de:08216:33110","Name":"1","MunicipalityCode":"00000000","Municipality":"-","DistrictCode":"-","District":"-","Description":"","Authority":"NVBW","DelfiName":"-","THID":"-","LastOperationDate":"","SEV":"nein","longitude":"8,211752","latitude":"48,863205","geojson_lng":8.211752,"geojson_lat":48.863205},"geometry":{"type":"Point","coordinates":[8.211752,48.863205]}},{"type":"Feature","properties":{"SeqNo":"45886","Type":"S","DHID":"de:08216:33111","Parent":"de:08216:33111","Name":"Rastatt Lyzeumstraße","MunicipalityCode":"08216043","Municipality":"Rastatt","DistrictCode":"","District":"","Description":"","Authority":"NVBW","DelfiName":"-","THID":"D92018008157","LastOperationDate":"2025-06-14T00:00:00","SEV":"nein","longitude":"8,207655","latitude":"48,860723","geojson_lng":8.207655,"geojson_lat":48.860723},"geometry":{"type":"Point","coordinates":[8.207655,48.860723]}},{"type":"Feature","properties":{"SeqNo":"45887","Type":"Q","DHID":"de:08216:33111:0:1","Parent":"de:08216:33111","Name":"1","MunicipalityCode":"00000000","Municipality":"-","DistrictCode":"-","District":"-","Description":"","Authority":"NVBW","DelfiName":"-","THID":"-","LastOperationDate":"","SEV":"nein","longitude":"8,20761","latitude":"48,860765","geojson_lng":8.20761,"geojson_lat":48.860765},"geometry":{"type":"Point","coordinates":[8.20761,48.860765]}},{"type":"Feature","properties":{"SeqNo":"45888","Type":"Q","DHID":"de:08216:33111:0:11","Parent":"de:08216:33111","Name":"Ersatz","MunicipalityCode":"00000000","Municipality":"-","DistrictCode":"-","District":"-","Description":"","Authority":"NVBW","DelfiName":"-","THID":"-","LastOperationDate":"","SEV":"nein","longitude":"8,207871","latitude":"48,861362","geojson_lng":8.207871,"geojson_lat":48.861362},"geometry":{"type":"Point","coordinates":[8.207871,48.861362]}},{"type":"Feature","properties":{"SeqNo":"45896","Type":"S","DHID":"de:08216:33115","Parent":"de:08216:33115","Name":"Rastatt Bahnhofstraße","MunicipalityCode":"08216043","Municipality":"Rastatt","DistrictCode":"","District":"","Description":"","Authority":"NVBW","DelfiName":"-","THID":"D9201800815B","LastOperationDate":"2025-06-14T00:00:00","SEV":"nein","longitude":"8,21053","latitude":"48,859128","geojson_lng":8.21053,"geojson_lat":48.859128},"geometry":{"type":"Point","coordinates":[8.21053,48.859128]}},{"type":"Feature","properties":{"SeqNo":"45897","Type":"Q","DHID":"de:08216:33115:0:1","Parent":"de:08216:33115","Name":"1","MunicipalityCode":"00000000","Municipality":"-","DistrictCode":"-","District":"-","Description":"","Authority":"NVBW","DelfiName":"-","THID":"-","LastOperationDate":"","SEV":"nein","longitude":"8,210566","latitude":"48,859074","geojson_lng":8.210566,"geojson_lat":48.859074},"geometry":{"type":"Point","coordinates":[8.210566,48.859074]}}]}