{"type":"FeatureCollection","features":[{"type":"Feature","properties":{"SeqNo":"776071","Type":"S","DHID":"de:08221:1135","Parent":"de:08221:1135","Name":"Handschuhsheim, Kapellenweg","MunicipalityCode":"08221000","Municipality":"Heidelberg","DistrictCode":"","District":"","Description":"","Authority":"VRN","DelfiName":"-","THID":"D9201D00046F","LastOperationDate":"2025-06-14T00:00:00","SEV":"nein","longitude":"8,686691","latitude":"49,4249","geojson_lng":8.686691,"geojson_lat":49.4249},"geometry":{"type":"Point","coordinates":[8.686691,49.4249]}},{"type":"Feature","properties":{"SeqNo":"776072","Type":"A","DHID":"de:08221:1135:1","Parent":"de:08221:1135","Name":"Tr Ri N H-Thoma-P","MunicipalityCode":"00000000","Municipality":"-","DistrictCode":"-","District":"-","Description":"","Authority":"VRN","DelfiName":"-","THID":"-","LastOperationDate":"","SEV":"nein","longitude":"8,685927","latitude":"49,425251","geojson_lng":8.685927,"geojson_lat":49.425251},"geometry":{"type":"Point","coordinates":[8.685927,49.425251]}},{"type":"Feature","properties":{"SeqNo":"776073","Type":"A","DHID":"de:08221:1135:2","Parent":"de:08221:1135","Name":"Tr Ri S Blumentha","MunicipalityCode":"00000000","Municipality":"-","DistrictCode":"-","District":"-","Description":"","Authority":"VRN","DelfiName":"-","THID":"-","LastOperationDate":"","SEV":"nein","longitude":"8,687086","latitude":"49,424719","geojson_lng":8.687086,"geojson_lat":49.424719},"geometry":{"type":"Point","coordinates":[8.687086,49.424719]}},{"type":"Feature","properties":{"SeqNo":"776074","Type":"A","DHID":"de:08221:1135:3","Parent":"de:08221:1135","Name":"Bus","MunicipalityCode":"00000000","Municipality":"-","DistrictCode":"-","District":"-","Description":"","Authority":"VRN","DelfiName":"-","THID":"-","LastOperationDate":"","SEV":"nein","longitude":"8,686376","latitude":"49,425069","geojson_lng":8.686376,"geojson_lat":49.425069},"geometry":{"type":"Point","coordinates":[8.686376,49.425069]}},{"type":"Feature","properties":{"SeqNo":"776075","Type":"Q","DHID":"de:08221:1135:1:TrRiN","Parent":"de:08221:1135:1","Name":"Tr Ri N Hans-Thoma-Platz","MunicipalityCode":"00000000","Municipality":"-","DistrictCode":"-","District":"-","Description":"","Authority":"VRN","DelfiName":"-","THID":"-","LastOperationDate":"","SEV":"nein","longitude":"8,685981","latitude":"49,425251","geojson_lng":8.685981,"geojson_lat":49.425251},"geometry":{"type":"Point","coordinates":[8.685981,49.425251]}},{"type":"Feature","properties":{"SeqNo":"776076","Type":"Q","DHID":"de:08221:1135:1:TrRiS","Parent":"de:08221:1135:2","Name":"Tr Ri S Blumenthalstr","MunicipalityCode":"00000000","Municipality":"-","DistrictCode":"-","District":"-","Description":"","Authority":"VRN","DelfiName":"-","THID":"-","LastOperationDate":"","SEV":"nein","longitude":"8,687113","latitude":"49,424684","geojson_lng":8.687113,"geojson_lat":49.424684},"geometry":{"type":"Point","coordinates":[8.687113,49.424684]}},{"type":"Feature","properties":{"SeqNo":"776077","Type":"Q","DHID":"de:08221:1135:3:Bus","Parent":"de:08221:1135:3","Name":"Bus/Fuß/Rad","MunicipalityCode":"00000000","Municipality":"-","DistrictCode":"-","District":"-","Description":"","Authority":"VRN","DelfiName":"-","THID":"-","LastOperationDate":"","SEV":"nein","longitude":"8,686358","latitude":"49,42504","geojson_lng":8.686358,"geojson_lat":49.42504},"geometry":{"type":"Point","coordinates":[8.686358,49.42504]}},{"type":"Feature","properties":{"SeqNo":"776519","Type":"S","DHID":"de:08221:1225","Parent":"de:08221:1225","Name":"Neuenheim, Blumenthalstraße","MunicipalityCode":"08221000","Municipality":"Heidelberg","DistrictCode":"","District":"","Description":"","Authority":"VRN","DelfiName":"-","THID":"D9201D0004C9","LastOperationDate":"2025-06-14T00:00:00","SEV":"nein","longitude":"8,689098","latitude":"49,421797","geojson_lng":8.689098,"geojson_lat":49.421797},"geometry":{"type":"Point","coordinates":[8.689098,49.421797]}},{"type":"Feature","properties":{"SeqNo":"776520","Type":"A","DHID":"de:08221:1225:1","Parent":"de:08221:1225","Name":"Strab","MunicipalityCode":"00000000","Municipality":"-","DistrictCode":"-","District":"-","Description":"","Authority":"VRN","DelfiName":"-","THID":"-","LastOperationDate":"","SEV":"nein","longitude":"8,689053","latitude":"49,421797","geojson_lng":8.689053,"geojson_lat":49.421797},"geometry":{"type":"Point","coordinates":[8.689053,49.421797]}},{"type":"Feature","properties":{"SeqNo":"776521","Type":"Q","DHID":"de:08221:1225:1:RiN","Parent":"de:08221:1225:1","Name":"Richtung Nord (Kapellenweg)","MunicipalityCode":"00000000","Municipality":"-","DistrictCode":"-","District":"-","Description":"","Authority":"VRN","DelfiName":"-","THID":"-","LastOperationDate":"","SEV":"nein","longitude":"8,688955","latitude":"49,422025","geojson_lng":8.688955,"geojson_lat":49.422025},"geometry":{"type":"Point","coordinates":[8.688955,49.422025]}},{"type":"Feature","properties":{"SeqNo":"776522","Type":"Q","DHID":"de:08221:1225:1:RiS","Parent":"de:08221:1225:1","Name":"Richtung Süd (Kußmaulstr)","MunicipalityCode":"00000000","Municipality":"-","DistrictCode":"-","District":"-","Description":"","Authority":"VRN","DelfiName":"-","THID":"-","LastOperationDate":"","SEV":"nein","longitude":"8,689107","latitude":"49,421569","geojson_lng":8.689107,"geojson_lat":49.421569},"geometry":{"type":"Point","coordinates":[8.689107,49.421569]}},{"type":"Feature","properties":{"SeqNo":"776912","Type":"S","DHID":"de:08221:1333","Parent":"de:08221:1333","Name":"Handschuh., Heiligenbergschule","MunicipalityCode":"08221000","Municipality":"Heidelberg","DistrictCode":"","District":"","Description":"","Authority":"VRN","DelfiName":"-","THID":"D9201D000535","LastOperationDate":"2025-06-14T00:00:00","SEV":"nein","longitude":"8,679343","latitude":"49,423486","geojson_lng":8.679343,"geojson_lat":49.423486},"geometry":{"type":"Point","coordinates":[8.679343,49.423486]}},{"type":"Feature","properties":{"SeqNo":"776913","Type":"A","DHID":"de:08221:1333:1","Parent":"de:08221:1333","Name":"Tr Ri Technologie","MunicipalityCode":"00000000","Municipality":"-","DistrictCode":"-","District":"-","Description":"","Authority":"VRN","DelfiName":"-","THID":"-","LastOperationDate":"","SEV":"nein","longitude":"8,679028","latitude":"49,423305","geojson_lng":8.679028,"geojson_lat":49.423305},"geometry":{"type":"Point","coordinates":[8.679028,49.423305]}},{"type":"Feature","properties":{"SeqNo":"776914","Type":"A","DHID":"de:08221:1333:2","Parent":"de:08221:1333","Name":"Tr Ri H-Thoma-Pl","MunicipalityCode":"00000000","Municipality":"-","DistrictCode":"-","District":"-","Description":"","Authority":"VRN","DelfiName":"-","THID":"-","LastOperationDate":"","SEV":"nein","longitude":"8,679639","latitude":"49,423632","geojson_lng":8.679639,"geojson_lat":49.423632},"geometry":{"type":"Point","coordinates":[8.679639,49.423632]}},{"type":"Feature","properties":{"SeqNo":"776917","Type":"Q","DHID":"de:08221:1333:2:Fuss","Parent":"de:08221:1333:2","Name":"Fuß/Rad","MunicipalityCode":"00000000","Municipality":"-","DistrictCode":"-","District":"-","Description":"","Authority":"VRN","DelfiName":"-","THID":"-","LastOperationDate":"","SEV":"nein","longitude":"8,679666","latitude":"49,42365","geojson_lng":8.679666,"geojson_lat":49.42365},"geometry":{"type":"Point","coordinates":[8.679666,49.42365]}},{"type":"Feature","properties":{"SeqNo":"776918","Type":"Q","DHID":"de:08221:1333:2:Tram","Parent":"de:08221:1333:2","Name":"Tram Ri N Hans-Thoma-Platz","MunicipalityCode":"00000000","Municipality":"-","DistrictCode":"-","District":"-","Description":"","Authority":"VRN","DelfiName":"-","THID":"-","LastOperationDate":"","SEV":"nein","longitude":"8,679621","latitude":"49,423655","geojson_lng":8.679621,"geojson_lat":49.423655},"geometry":{"type":"Point","coordinates":[8.679621,49.423655]}}]}