{"type":"FeatureCollection","features":[{"type":"Feature","properties":{"SeqNo":"42884","Type":"S","DHID":"de:08215:32004","Parent":"de:08215:32004","Name":"Oberöwisheim","MunicipalityCode":"08215097","Municipality":"Kraichtal","DistrictCode":"","District":"","Description":"","Authority":"NVBW","DelfiName":"-","THID":"D92017007D04","LastOperationDate":"2025-06-14T00:00:00","SEV":"nein","longitude":"8,686269","latitude":"49,140136","geojson_lng":8.686269,"geojson_lat":49.140136},"geometry":{"type":"Point","coordinates":[8.686269,49.140136]}},{"type":"Feature","properties":{"SeqNo":"42885","Type":"A","DHID":"de:08215:32004:1","Parent":"de:08215:32004","Name":"Zug","MunicipalityCode":"00000000","Municipality":"-","DistrictCode":"-","District":"-","Description":"","Authority":"NVBW","DelfiName":"-","THID":"-","LastOperationDate":"","SEV":"nein","longitude":"8,686367","latitude":"49,140118","geojson_lng":8.686367,"geojson_lat":49.140118},"geometry":{"type":"Point","coordinates":[8.686367,49.140118]}},{"type":"Feature","properties":{"SeqNo":"42886","Type":"A","DHID":"de:08215:32004:2","Parent":"de:08215:32004","Name":"Bus","MunicipalityCode":"00000000","Municipality":"-","DistrictCode":"-","District":"-","Description":"","Authority":"NVBW","DelfiName":"-","THID":"-","LastOperationDate":"","SEV":"nein","longitude":"8,686987","latitude":"49,140083","geojson_lng":8.686987,"geojson_lat":49.140083},"geometry":{"type":"Point","coordinates":[8.686987,49.140083]}},{"type":"Feature","properties":{"SeqNo":"42887","Type":"A","DHID":"de:08215:32004:80","Parent":"de:08215:32004","Name":"P+R","MunicipalityCode":"00000000","Municipality":"-","DistrictCode":"-","District":"-","Description":"","Authority":"NVBW","DelfiName":"-","THID":"-","LastOperationDate":"","SEV":"nein","longitude":"8,685667","latitude":"49,140388","geojson_lng":8.685667,"geojson_lat":49.140388},"geometry":{"type":"Point","coordinates":[8.685667,49.140388]}},{"type":"Feature","properties":{"SeqNo":"42888","Type":"A","DHID":"de:08215:32004:90","Parent":"de:08215:32004","Name":"Haupteingang","MunicipalityCode":"00000000","Municipality":"-","DistrictCode":"-","District":"-","Description":"","Authority":"NVBW","DelfiName":"-","THID":"-","LastOperationDate":"","SEV":"nein","longitude":"8,686412","latitude":"49,140388","geojson_lng":8.686412,"geojson_lat":49.140388},"geometry":{"type":"Point","coordinates":[8.686412,49.140388]}},{"type":"Feature","properties":{"SeqNo":"42889","Type":"A","DHID":"de:08215:32004:91","Parent":"de:08215:32004","Name":"Eingang Appenmühle","MunicipalityCode":"00000000","Municipality":"-","DistrictCode":"-","District":"-","Description":"","Authority":"NVBW","DelfiName":"-","THID":"-","LastOperationDate":"","SEV":"nein","longitude":"8,686978","latitude":"49,139977","geojson_lng":8.686978,"geojson_lat":49.139977},"geometry":{"type":"Point","coordinates":[8.686978,49.139977]}},{"type":"Feature","properties":{"SeqNo":"42890","Type":"A","DHID":"de:08215:32004:92","Parent":"de:08215:32004","Name":"Eingang P+R","MunicipalityCode":"00000000","Municipality":"-","DistrictCode":"-","District":"-","Description":"","Authority":"NVBW","DelfiName":"-","THID":"-","LastOperationDate":"","SEV":"nein","longitude":"8,685703","latitude":"49,1403","geojson_lng":8.685703,"geojson_lat":49.1403},"geometry":{"type":"Point","coordinates":[8.685703,49.1403]}},{"type":"Feature","properties":{"SeqNo":"42891","Type":"Q","DHID":"de:08215:32004:1:1","Parent":"de:08215:32004:1","Name":"Gleis 1","MunicipalityCode":"00000000","Municipality":"-","DistrictCode":"-","District":"-","Description":"","Authority":"NVBW","DelfiName":"-","THID":"-","LastOperationDate":"","SEV":"nein","longitude":"8,686412","latitude":"49,140089","geojson_lng":8.686412,"geojson_lat":49.140089},"geometry":{"type":"Point","coordinates":[8.686412,49.140089]}},{"type":"Feature","properties":{"SeqNo":"42892","Type":"Q","DHID":"de:08215:32004:2:2","Parent":"de:08215:32004:2","Name":"Bus","MunicipalityCode":"00000000","Municipality":"-","DistrictCode":"-","District":"-","Description":"","Authority":"NVBW","DelfiName":"-","THID":"-","LastOperationDate":"","SEV":"nein","longitude":"8,686969","latitude":"49,140065","geojson_lng":8.686969,"geojson_lat":49.140065},"geometry":{"type":"Point","coordinates":[8.686969,49.140065]}},{"type":"Feature","properties":{"SeqNo":"42893","Type":"Q","DHID":"de:08215:32004:2:21","Parent":"de:08215:32004:2","Name":"Bus SEV","MunicipalityCode":"00000000","Municipality":"-","DistrictCode":"-","District":"-","Description":"","Authority":"NVBW","DelfiName":"-","THID":"-","LastOperationDate":"","SEV":"nein","longitude":"8,686897","latitude":"49,140341","geojson_lng":8.686897,"geojson_lat":49.140341},"geometry":{"type":"Point","coordinates":[8.686897,49.140341]}},{"type":"Feature","properties":{"SeqNo":"43940","Type":"S","DHID":"de:08215:37226","Parent":"de:08215:37226","Name":"Oberöwisheim Neuenwegstr.","MunicipalityCode":"08215097","Municipality":"Kraichtal","DistrictCode":"","District":"","Description":"","Authority":"NVBW","DelfiName":"-","THID":"D9201700916A","LastOperationDate":"2025-06-14T00:00:00","SEV":"nein","longitude":"8,688505","latitude":"49,144449","geojson_lng":8.688505,"geojson_lat":49.144449},"geometry":{"type":"Point","coordinates":[8.688505,49.144449]}},{"type":"Feature","properties":{"SeqNo":"43941","Type":"A","DHID":"de:08215:37226:1","Parent":"de:08215:37226","Name":"Bus","MunicipalityCode":"00000000","Municipality":"-","DistrictCode":"-","District":"-","Description":"","Authority":"NVBW","DelfiName":"-","THID":"-","LastOperationDate":"","SEV":"nein","longitude":"8,688505","latitude":"49,144449","geojson_lng":8.688505,"geojson_lat":49.144449},"geometry":{"type":"Point","coordinates":[8.688505,49.144449]}},{"type":"Feature","properties":{"SeqNo":"43942","Type":"Q","DHID":"de:08215:37226:1:1","Parent":"de:08215:37226:1","Name":"Ri Neuenbürg","MunicipalityCode":"00000000","Municipality":"-","DistrictCode":"-","District":"-","Description":"","Authority":"NVBW","DelfiName":"-","THID":"-","LastOperationDate":"","SEV":"nein","longitude":"8,68864","latitude":"49,144537","geojson_lng":8.68864,"geojson_lat":49.144537},"geometry":{"type":"Point","coordinates":[8.68864,49.144537]}},{"type":"Feature","properties":{"SeqNo":"43943","Type":"Q","DHID":"de:08215:37226:1:2","Parent":"de:08215:37226:1","Name":"Ri Bahnhof","MunicipalityCode":"00000000","Municipality":"-","DistrictCode":"-","District":"-","Description":"","Authority":"NVBW","DelfiName":"-","THID":"-","LastOperationDate":"","SEV":"nein","longitude":"8,688434","latitude":"49,144443","geojson_lng":8.688434,"geojson_lat":49.144443},"geometry":{"type":"Point","coordinates":[8.688434,49.144443]}}]}