{"type":"FeatureCollection","features":[{"type":"Feature","properties":{"highway":"bus_stop","public_transport":"platform","name":"Geylenbroekweg","ref:IFOPT":"NL:Q:68100170","_quaycode":"NL:Q:68100170","_town":"Haelen","_status":"available","_mode":"bus","_direction":247,"_visuallyAccessible":false,"_disabledAccessible":false,"geojson_lng":5.958516519009423,"geojson_lat":51.23141022683628},"geometry":{"type":"Point","coordinates":[5.958516519009423,51.23141022683628]}},{"type":"Feature","properties":{"highway":"bus_stop","public_transport":"platform","name":"Burg. Aquariusstraat","ref:IFOPT":"NL:Q:68100150","_quaycode":"NL:Q:68100150","_town":"Haelen","_status":"available","_mode":"bus","_direction":330,"_visuallyAccessible":false,"_disabledAccessible":false,"geojson_lng":5.959820234938736,"geojson_lat":51.23376790764998},"geometry":{"type":"Point","coordinates":[5.959820234938736,51.23376790764998]}},{"type":"Feature","properties":{"highway":"bus_stop","public_transport":"platform","name":"Heerweg","ref:IFOPT":"NL:Q:68100100","_quaycode":"NL:Q:68100100","_town":"Buggenum","_status":"available","_mode":"bus","_direction":313,"_visuallyAccessible":true,"_disabledAccessible":false,"geojson_lng":5.974130167068304,"geojson_lat":51.233121253135664},"geometry":{"type":"Point","coordinates":[5.974130167068304,51.233121253135664]}},{"type":"Feature","properties":{"highway":"bus_stop","public_transport":"platform","name":"Op den Dries","ref:IFOPT":"NL:Q:68100130","_quaycode":"NL:Q:68100130","_town":"Haelen","_status":"available","_mode":"bus","_direction":129,"_visuallyAccessible":true,"_disabledAccessible":true,"geojson_lng":5.959617154884308,"geojson_lat":51.232411575689845},"geometry":{"type":"Point","coordinates":[5.959617154884308,51.232411575689845]}},{"type":"Feature","properties":{"highway":"bus_stop","public_transport":"platform","name":"Op den Dries","ref:IFOPT":"NL:Q:68100120","_quaycode":"NL:Q:68100120","_town":"Haelen","_status":"available","_mode":"bus","_direction":338,"_visuallyAccessible":true,"_disabledAccessible":true,"geojson_lng":5.959674647077279,"geojson_lat":51.232429270513215},"geometry":{"type":"Point","coordinates":[5.959674647077279,51.232429270513215]}},{"type":"Feature","properties":{"highway":"bus_stop","public_transport":"platform","name":"Burg. Aquariusstraat","ref:IFOPT":"NL:Q:68100140","_quaycode":"NL:Q:68100140","_town":"Haelen","_status":"available","_mode":"bus","_direction":150,"_visuallyAccessible":false,"_disabledAccessible":false,"geojson_lng":5.959747525211972,"geojson_lat":51.23367837620666},"geometry":{"type":"Point","coordinates":[5.959747525211972,51.23367837620666]}},{"type":"Feature","properties":{"highway":"bus_stop","public_transport":"platform","name":"Geylenbroekweg","ref:IFOPT":"NL:Q:68100160","_quaycode":"NL:Q:68100160","_town":"Haelen","_status":"available","_mode":"bus","_direction":30,"_visuallyAccessible":false,"_disabledAccessible":false,"geojson_lng":5.958687757642894,"geojson_lat":51.23136444043482},"geometry":{"type":"Point","coordinates":[5.958687757642894,51.23136444043482]}},{"type":"Feature","properties":{"highway":"bus_stop","public_transport":"platform","name":"Heerweg","ref:IFOPT":"NL:Q:68100110","_quaycode":"NL:Q:68100110","_town":"Buggenum","_status":"available","_mode":"bus","_direction":56,"_visuallyAccessible":false,"_disabledAccessible":true,"geojson_lng":5.97307127650693,"geojson_lat":51.23317153881018},"geometry":{"type":"Point","coordinates":[5.97307127650693,51.23317153881018]}}]}