{"type":"FeatureCollection","features":[{"type":"Feature","properties":{"SeqNo":"104898","Type":"S","DHID":"de:09162:20019","Parent":"de:09162:20019","Name":"Ettenhuber","MunicipalityCode":"09162000","Municipality":"München","DistrictCode":"","District":"","Description":"","Authority":"BEG","DelfiName":"-","THID":"D923CA004E33","LastOperationDate":"1999-12-31T00:00:00","SEV":"nein","longitude":"11,736624","latitude":"48,140884","geojson_lng":11.736624,"geojson_lat":48.140884},"geometry":{"type":"Point","coordinates":[11.736624,48.140884]}},{"type":"Feature","properties":{"SeqNo":"104899","Type":"Q","DHID":"de:09162:20019:0:/ETTE","Parent":"de:09162:20019","Name":"Linienwechsel","MunicipalityCode":"00000000","Municipality":"-","DistrictCode":"-","District":"-","Description":"","Authority":"BEG","DelfiName":"-","THID":"-","LastOperationDate":"","SEV":"nein","longitude":"11,736678","latitude":"48,140944","geojson_lng":11.736678,"geojson_lat":48.140944},"geometry":{"type":"Point","coordinates":[11.736678,48.140944]}},{"type":"Feature","properties":{"SeqNo":"104900","Type":"Q","DHID":"de:09162:20019:0:ETTE1","Parent":"de:09162:20019","Name":"ETTE1","MunicipalityCode":"00000000","Municipality":"-","DistrictCode":"-","District":"-","Description":"","Authority":"BEG","DelfiName":"-","THID":"-","LastOperationDate":"","SEV":"nein","longitude":"11,736597","latitude":"48,140932","geojson_lng":11.736597,"geojson_lat":48.140932},"geometry":{"type":"Point","coordinates":[11.736597,48.140932]}},{"type":"Feature","properties":{"SeqNo":"104901","Type":"Q","DHID":"de:09162:20019:0:ETTE2","Parent":"de:09162:20019","Name":"ETTE2","MunicipalityCode":"00000000","Municipality":"-","DistrictCode":"-","District":"-","Description":"","Authority":"BEG","DelfiName":"-","THID":"-","LastOperationDate":"","SEV":"nein","longitude":"11,736534","latitude":"48,140914","geojson_lng":11.736534,"geojson_lat":48.140914},"geometry":{"type":"Point","coordinates":[11.736534,48.140914]}},{"type":"Feature","properties":{"SeqNo":"104914","Type":"S","DHID":"de:09162:20091","Parent":"de:09162:20091","Name":"AGK Truck & Bus GmbH","MunicipalityCode":"09162000","Municipality":"München","DistrictCode":"","District":"","Description":"","Authority":"BEG","DelfiName":"-","THID":"D923CA004E7B","LastOperationDate":"1999-12-31T00:00:00","SEV":"nein","longitude":"11,737432","latitude":"48,141489","geojson_lng":11.737432,"geojson_lat":48.141489},"geometry":{"type":"Point","coordinates":[11.737432,48.141489]}},{"type":"Feature","properties":{"SeqNo":"104915","Type":"Q","DHID":"de:09162:20091:0:AGK1","Parent":"de:09162:20091","Name":"AGK1","MunicipalityCode":"00000000","Municipality":"-","DistrictCode":"-","District":"-","Description":"","Authority":"BEG","DelfiName":"-","THID":"-","LastOperationDate":"","SEV":"nein","longitude":"11,737064","latitude":"48,141801","geojson_lng":11.737064,"geojson_lat":48.141801},"geometry":{"type":"Point","coordinates":[11.737064,48.141801]}},{"type":"Feature","properties":{"SeqNo":"104916","Type":"Q","DHID":"de:09162:20091:0:AGK2","Parent":"de:09162:20091","Name":"AGK2","MunicipalityCode":"00000000","Municipality":"-","DistrictCode":"-","District":"-","Description":"","Authority":"BEG","DelfiName":"-","THID":"-","LastOperationDate":"","SEV":"nein","longitude":"11,737226","latitude":"48,141807","geojson_lng":11.737226,"geojson_lat":48.141807},"geometry":{"type":"Point","coordinates":[11.737226,48.141807]}},{"type":"Feature","properties":{"SeqNo":"132742","Type":"S","DHID":"de:09184:2193","Parent":"de:09184:2193","Name":"Feldkirchen, Gewerbegeb. Süd","MunicipalityCode":"09184118","Municipality":"Feldkirchen","DistrictCode":"","District":"","Description":"","Authority":"BEG","DelfiName":"-","THID":"D923E0000891","LastOperationDate":"2025-06-14T00:00:00","SEV":"nein","longitude":"11,74002","latitude":"48,140902","geojson_lng":11.74002,"geojson_lat":48.140902},"geometry":{"type":"Point","coordinates":[11.74002,48.140902]}},{"type":"Feature","properties":{"SeqNo":"132743","Type":"Q","DHID":"de:09184:2193:0:1","Parent":"de:09184:2193","Name":"X203 / Ri. NO / Jahnstr./A.-Kasperb.-Str","MunicipalityCode":"00000000","Municipality":"-","DistrictCode":"-","District":"-","Description":"","Authority":"BEG","DelfiName":"-","THID":"-","LastOperationDate":"","SEV":"nein","longitude":"11,74002","latitude":"48,140902","geojson_lng":11.74002,"geojson_lat":48.140902},"geometry":{"type":"Point","coordinates":[11.74002,48.140902]}}]}