{"type":"FeatureCollection","features":[{"type":"Feature","properties":{"SeqNo":"829622","Type":"S","DHID":"de:14522:80229","Parent":"de:14522:80229","Name":"Leisnig, Bahnhof","MunicipalityCode":"14522310","Municipality":"Leisnig","DistrictCode":"","District":"","Description":"","Authority":"VVO","DelfiName":"-","THID":"D938BA013965","LastOperationDate":"2025-02-28T00:00:00","SEV":"nein","longitude":"12,938561","latitude":"51,159877","geojson_lng":12.938561,"geojson_lat":51.159877},"geometry":{"type":"Point","coordinates":[12.938561,51.159877]}},{"type":"Feature","properties":{"SeqNo":"829623","Type":"A","DHID":"de:14522:80229:1","Parent":"de:14522:80229","Name":"Gleis 1","MunicipalityCode":"00000000","Municipality":"-","DistrictCode":"-","District":"-","Description":"","Authority":"VVO","DelfiName":"-","THID":"-","LastOperationDate":"","SEV":"nein","longitude":"12,938731","latitude":"51,1603","geojson_lng":12.938731,"geojson_lat":51.1603},"geometry":{"type":"Point","coordinates":[12.938731,51.1603]}},{"type":"Feature","properties":{"SeqNo":"829624","Type":"A","DHID":"de:14522:80229:2","Parent":"de:14522:80229","Name":"Bus","MunicipalityCode":"00000000","Municipality":"-","DistrictCode":"-","District":"-","Description":"","Authority":"VVO","DelfiName":"-","THID":"-","LastOperationDate":"","SEV":"nein","longitude":"12,938561","latitude":"51,159877","geojson_lng":12.938561,"geojson_lat":51.159877},"geometry":{"type":"Point","coordinates":[12.938561,51.159877]}},{"type":"Feature","properties":{"SeqNo":"829625","Type":"A","DHID":"de:14522:80229:3","Parent":"de:14522:80229","Name":"Gleis 2","MunicipalityCode":"00000000","Municipality":"-","DistrictCode":"-","District":"-","Description":"","Authority":"VVO","DelfiName":"-","THID":"-","LastOperationDate":"","SEV":"nein","longitude":"12,937914","latitude":"51,160311","geojson_lng":12.937914,"geojson_lat":51.160311},"geometry":{"type":"Point","coordinates":[12.937914,51.160311]}},{"type":"Feature","properties":{"SeqNo":"829626","Type":"A","DHID":"de:14522:80229:70","Parent":"de:14522:80229","Name":"Zwischengeschoss","MunicipalityCode":"00000000","Municipality":"-","DistrictCode":"-","District":"-","Description":"","Authority":"VVO","DelfiName":"-","THID":"-","LastOperationDate":"","SEV":"nein","longitude":"12,937645","latitude":"51,16026","geojson_lng":12.937645,"geojson_lat":51.16026},"geometry":{"type":"Point","coordinates":[12.937645,51.16026]}},{"type":"Feature","properties":{"SeqNo":"829627","Type":"A","DHID":"de:14522:80229:90","Parent":"de:14522:80229","Name":"Eingang 1","MunicipalityCode":"00000000","Municipality":"-","DistrictCode":"-","District":"-","Description":"","Authority":"VVO","DelfiName":"-","THID":"-","LastOperationDate":"","SEV":"nein","longitude":"12,937204","latitude":"51,159888","geojson_lng":12.937204,"geojson_lat":51.159888},"geometry":{"type":"Point","coordinates":[12.937204,51.159888]}},{"type":"Feature","properties":{"SeqNo":"829628","Type":"A","DHID":"de:14522:80229:91","Parent":"de:14522:80229","Name":"Eingang 2","MunicipalityCode":"00000000","Municipality":"-","DistrictCode":"-","District":"-","Description":"","Authority":"VVO","DelfiName":"-","THID":"-","LastOperationDate":"","SEV":"nein","longitude":"12,938938","latitude":"51,160046","geojson_lng":12.938938,"geojson_lat":51.160046},"geometry":{"type":"Point","coordinates":[12.938938,51.160046]}},{"type":"Feature","properties":{"SeqNo":"829629","Type":"Q","DHID":"de:14522:80229:1:1","Parent":"de:14522:80229:1","Name":"Gleis 1","MunicipalityCode":"00000000","Municipality":"-","DistrictCode":"-","District":"-","Description":"","Authority":"VVO","DelfiName":"-","THID":"-","LastOperationDate":"","SEV":"nein","longitude":"12,938731","latitude":"51,160288","geojson_lng":12.938731,"geojson_lat":51.160288},"geometry":{"type":"Point","coordinates":[12.938731,51.160288]}},{"type":"Feature","properties":{"SeqNo":"829630","Type":"Q","DHID":"de:14522:80229:2:BO","Parent":"de:14522:80229:2","Name":"Bus Ost Ausstieg","MunicipalityCode":"00000000","Municipality":"-","DistrictCode":"-","District":"-","Description":"","Authority":"VVO","DelfiName":"-","THID":"-","LastOperationDate":"","SEV":"nein","longitude":"12,938624","latitude":"51,159776","geojson_lng":12.938624,"geojson_lat":51.159776},"geometry":{"type":"Point","coordinates":[12.938624,51.159776]}},{"type":"Feature","properties":{"SeqNo":"829631","Type":"Q","DHID":"de:14522:80229:2:BW1","Parent":"de:14522:80229:2","Name":"Bus West 1","MunicipalityCode":"00000000","Municipality":"-","DistrictCode":"-","District":"-","Description":"","Authority":"VVO","DelfiName":"-","THID":"-","LastOperationDate":"","SEV":"nein","longitude":"12,938579","latitude":"51,159973","geojson_lng":12.938579,"geojson_lat":51.159973},"geometry":{"type":"Point","coordinates":[12.938579,51.159973]}},{"type":"Feature","properties":{"SeqNo":"829632","Type":"Q","DHID":"de:14522:80229:2:BW2","Parent":"de:14522:80229:2","Name":"Bus West 2","MunicipalityCode":"00000000","Municipality":"-","DistrictCode":"-","District":"-","Description":"","Authority":"VVO","DelfiName":"-","THID":"-","LastOperationDate":"","SEV":"nein","longitude":"12,938498","latitude":"51,159866","geojson_lng":12.938498,"geojson_lat":51.159866},"geometry":{"type":"Point","coordinates":[12.938498,51.159866]}},{"type":"Feature","properties":{"SeqNo":"829633","Type":"Q","DHID":"de:14522:80229:3:2","Parent":"de:14522:80229:3","Name":"Gleis 2","MunicipalityCode":"00000000","Municipality":"-","DistrictCode":"-","District":"-","Description":"","Authority":"VVO","DelfiName":"-","THID":"-","LastOperationDate":"","SEV":"nein","longitude":"12,937914","latitude":"51,160311","geojson_lng":12.937914,"geojson_lat":51.160311},"geometry":{"type":"Point","coordinates":[12.937914,51.160311]}}]}