{"type":"FeatureCollection","features":[{"type":"Feature","properties":{"SeqNo":"534558","Type":"S","DHID":"de:05154:35141","Parent":"de:05154:35141","Name":"Geldern Am Erlkönig","MunicipalityCode":"05154012","Municipality":"Geldern","DistrictCode":"-","District":"-","Description":"","Authority":"VRR","DelfiName":"-","THID":"D91422008945","LastOperationDate":"2025-06-14T00:00:00","SEV":"nein","longitude":"6,232826","latitude":"51,496141","geojson_lng":6.232826,"geojson_lat":51.496141},"geometry":{"type":"Point","coordinates":[6.232826,51.496141]}},{"type":"Feature","properties":{"SeqNo":"534559","Type":"Q","DHID":"de:05154:35141:0:1","Parent":"de:05154:35141","Name":"1","MunicipalityCode":"00000000","Municipality":"-","DistrictCode":"-","District":"-","Description":"Bergsteg/Maasstraße","Authority":"VRR","DelfiName":"-","THID":"-","LastOperationDate":"","SEV":"nein","longitude":"6,232359","latitude":"51,495878","geojson_lng":6.232359,"geojson_lat":51.495878},"geometry":{"type":"Point","coordinates":[6.232359,51.495878]}},{"type":"Feature","properties":{"SeqNo":"535133","Type":"S","DHID":"de:05154:35416","Parent":"de:05154:35416","Name":"Geldern Maasstraße","MunicipalityCode":"05154012","Municipality":"Geldern","DistrictCode":"","District":"","Description":"","Authority":"VRR","DelfiName":"-","THID":"D91422008A58","LastOperationDate":"2025-06-14T00:00:00","SEV":"nein","longitude":"6,238683","latitude":"51,495486","geojson_lng":6.238683,"geojson_lat":51.495486},"geometry":{"type":"Point","coordinates":[6.238683,51.495486]}},{"type":"Feature","properties":{"SeqNo":"535134","Type":"Q","DHID":"de:05154:35416:0:1","Parent":"de:05154:35416","Name":"Flutweg","MunicipalityCode":"00000000","Municipality":"-","DistrictCode":"-","District":"-","Description":"","Authority":"VRR","DelfiName":"-","THID":"-","LastOperationDate":"","SEV":"nein","longitude":"6,238737","latitude":"51,495224","geojson_lng":6.238737,"geojson_lat":51.495224},"geometry":{"type":"Point","coordinates":[6.238737,51.495224]}},{"type":"Feature","properties":{"SeqNo":"535135","Type":"Q","DHID":"de:05154:35416:0:2","Parent":"de:05154:35416","Name":"Am Puhl","MunicipalityCode":"00000000","Municipality":"-","DistrictCode":"-","District":"-","Description":"","Authority":"VRR","DelfiName":"-","THID":"-","LastOperationDate":"","SEV":"nein","longitude":"6,238889","latitude":"51,495274","geojson_lng":6.238889,"geojson_lat":51.495274},"geometry":{"type":"Point","coordinates":[6.238889,51.495274]}},{"type":"Feature","properties":{"SeqNo":"535136","Type":"S","DHID":"de:05154:35417","Parent":"de:05154:35417","Name":"Geldern Bergsteg","MunicipalityCode":"05154012","Municipality":"Geldern","DistrictCode":"","District":"","Description":"","Authority":"VRR","DelfiName":"-","THID":"D91422008A59","LastOperationDate":"2025-06-14T00:00:00","SEV":"nein","longitude":"6,238521","latitude":"51,497589","geojson_lng":6.238521,"geojson_lat":51.497589},"geometry":{"type":"Point","coordinates":[6.238521,51.497589]}},{"type":"Feature","properties":{"SeqNo":"535137","Type":"Q","DHID":"de:05154:35417:0:1","Parent":"de:05154:35417","Name":"Am Puhl","MunicipalityCode":"00000000","Municipality":"-","DistrictCode":"-","District":"-","Description":"","Authority":"VRR","DelfiName":"-","THID":"-","LastOperationDate":"","SEV":"nein","longitude":"6,238404","latitude":"51,4975","geojson_lng":6.238404,"geojson_lat":51.4975},"geometry":{"type":"Point","coordinates":[6.238404,51.4975]}},{"type":"Feature","properties":{"SeqNo":"535138","Type":"Q","DHID":"de:05154:35417:0:2","Parent":"de:05154:35417","Name":"Walbeck Friedhof","MunicipalityCode":"00000000","Municipality":"-","DistrictCode":"-","District":"-","Description":"","Authority":"VRR","DelfiName":"-","THID":"-","LastOperationDate":"","SEV":"nein","longitude":"6,238521","latitude":"51,497718","geojson_lng":6.238521,"geojson_lat":51.497718},"geometry":{"type":"Point","coordinates":[6.238521,51.497718]}}]}