{"type":"FeatureCollection","features":[{"type":"Feature","properties":{"SeqNo":"82563","Type":"S","DHID":"de:08425:2078","Parent":"de:08425:2078","Name":"Langenau Olgastraße","MunicipalityCode":"08425072","Municipality":"Langenau","DistrictCode":"-","District":"-","Description":"","Authority":"NVBW","DelfiName":"-","THID":"D920E900081E","LastOperationDate":"2025-06-14T00:00:00","SEV":"nein","longitude":"10,119468","latitude":"48,492655","geojson_lng":10.119468,"geojson_lat":48.492655},"geometry":{"type":"Point","coordinates":[10.119468,48.492655]}},{"type":"Feature","properties":{"SeqNo":"82564","Type":"Q","DHID":"de:08425:2078:0:1","Parent":"de:08425:2078","Name":"Angertorstraße","MunicipalityCode":"00000000","Municipality":"-","DistrictCode":"-","District":"-","Description":"Angertorstraße","Authority":"NVBW","DelfiName":"-","THID":"-","LastOperationDate":"","SEV":"nein","longitude":"10,119468","latitude":"48,492643","geojson_lng":10.119468,"geojson_lat":48.492643},"geometry":{"type":"Point","coordinates":[10.119468,48.492643]}},{"type":"Feature","properties":{"SeqNo":"82565","Type":"S","DHID":"de:08425:2079","Parent":"de:08425:2079","Name":"Langenau Angertorstraße","MunicipalityCode":"08425072","Municipality":"Langenau","DistrictCode":"-","District":"-","Description":"","Authority":"NVBW","DelfiName":"-","THID":"D920E900081F","LastOperationDate":"2025-06-14T00:00:00","SEV":"nein","longitude":"10,118507","latitude":"48,494066","geojson_lng":10.118507,"geojson_lat":48.494066},"geometry":{"type":"Point","coordinates":[10.118507,48.494066]}},{"type":"Feature","properties":{"SeqNo":"82566","Type":"Q","DHID":"de:08425:2079:0:1","Parent":"de:08425:2079","Name":"Martinskirche","MunicipalityCode":"00000000","Municipality":"-","DistrictCode":"-","District":"-","Description":"Martinskirche","Authority":"NVBW","DelfiName":"-","THID":"-","LastOperationDate":"","SEV":"nein","longitude":"10,118507","latitude":"48,494048","geojson_lng":10.118507,"geojson_lat":48.494048},"geometry":{"type":"Point","coordinates":[10.118507,48.494048]}},{"type":"Feature","properties":{"SeqNo":"82598","Type":"Q","DHID":"de:08425:2101:0:1","Parent":"de:08425:2101","Name":"Ortsmitte","MunicipalityCode":"00000000","Municipality":"-","DistrictCode":"-","District":"-","Description":"Ortsmitte","Authority":"NVBW","DelfiName":"-","THID":"-","LastOperationDate":"","SEV":"nein","longitude":"10,118516","latitude":"48,492465","geojson_lng":10.118516,"geojson_lat":48.492465},"geometry":{"type":"Point","coordinates":[10.118516,48.492465]}},{"type":"Feature","properties":{"SeqNo":"82600","Type":"S","DHID":"de:08425:2102","Parent":"de:08425:2102","Name":"Langenau Bahnhof","MunicipalityCode":"08425072","Municipality":"Langenau","DistrictCode":"","District":"","Description":"","Authority":"NVBW","DelfiName":"-","THID":"D920E9000836","LastOperationDate":"2025-06-14T00:00:00","SEV":"nein","longitude":"10,125783","latitude":"48,493286","geojson_lng":10.125783,"geojson_lat":48.493286},"geometry":{"type":"Point","coordinates":[10.125783,48.493286]}},{"type":"Feature","properties":{"SeqNo":"82601","Type":"A","DHID":"de:08425:2102:1","Parent":"de:08425:2102","Name":"Bus","MunicipalityCode":"00000000","Municipality":"-","DistrictCode":"-","District":"-","Description":"","Authority":"NVBW","DelfiName":"-","THID":"-","LastOperationDate":"","SEV":"nein","longitude":"10,125469","latitude":"48,493578","geojson_lng":10.125469,"geojson_lat":48.493578},"geometry":{"type":"Point","coordinates":[10.125469,48.493578]}},{"type":"Feature","properties":{"SeqNo":"82602","Type":"A","DHID":"de:08425:2102:2","Parent":"de:08425:2102","Name":"Zug->Aalen","MunicipalityCode":"00000000","Municipality":"-","DistrictCode":"-","District":"-","Description":"","Authority":"NVBW","DelfiName":"-","THID":"-","LastOperationDate":"","SEV":"nein","longitude":"10,126466","latitude":"48,49328","geojson_lng":10.126466,"geojson_lat":48.49328},"geometry":{"type":"Point","coordinates":[10.126466,48.49328]}},{"type":"Feature","properties":{"SeqNo":"82603","Type":"A","DHID":"de:08425:2102:3","Parent":"de:08425:2102","Name":"Zug->Ulm","MunicipalityCode":"00000000","Municipality":"-","DistrictCode":"-","District":"-","Description":"","Authority":"NVBW","DelfiName":"-","THID":"-","LastOperationDate":"","SEV":"nein","longitude":"10,125819","latitude":"48,493382","geojson_lng":10.125819,"geojson_lat":48.493382},"geometry":{"type":"Point","coordinates":[10.125819,48.493382]}},{"type":"Feature","properties":{"SeqNo":"82604","Type":"A","DHID":"de:08425:2102:70","Parent":"de:08425:2102","Name":"Unterführung","MunicipalityCode":"00000000","Municipality":"-","DistrictCode":"-","District":"-","Description":"","Authority":"NVBW","DelfiName":"-","THID":"-","LastOperationDate":"","SEV":"nein","longitude":"10,125846","latitude":"48,49312","geojson_lng":10.125846,"geojson_lat":48.49312},"geometry":{"type":"Point","coordinates":[10.125846,48.49312]}},{"type":"Feature","properties":{"SeqNo":"82605","Type":"A","DHID":"de:08425:2102:80","Parent":"de:08425:2102","Name":"P+R","MunicipalityCode":"00000000","Municipality":"-","DistrictCode":"-","District":"-","Description":"","Authority":"NVBW","DelfiName":"-","THID":"-","LastOperationDate":"","SEV":"nein","longitude":"10,125406","latitude":"48,493036","geojson_lng":10.125406,"geojson_lat":48.493036},"geometry":{"type":"Point","coordinates":[10.125406,48.493036]}},{"type":"Feature","properties":{"SeqNo":"82606","Type":"A","DHID":"de:08425:2102:81","Parent":"de:08425:2102","Name":"B+R","MunicipalityCode":"00000000","Municipality":"-","DistrictCode":"-","District":"-","Description":"","Authority":"NVBW","DelfiName":"-","THID":"-","LastOperationDate":"","SEV":"nein","longitude":"10,12554","latitude":"48,493114","geojson_lng":10.12554,"geojson_lat":48.493114},"geometry":{"type":"Point","coordinates":[10.12554,48.493114]}},{"type":"Feature","properties":{"SeqNo":"82607","Type":"A","DHID":"de:08425:2102:90","Parent":"de:08425:2102","Name":"Eingang West","MunicipalityCode":"00000000","Municipality":"-","DistrictCode":"-","District":"-","Description":"","Authority":"NVBW","DelfiName":"-","THID":"-","LastOperationDate":"","SEV":"nein","longitude":"10,124373","latitude":"48,492542","geojson_lng":10.124373,"geojson_lat":48.492542},"geometry":{"type":"Point","coordinates":[10.124373,48.492542]}},{"type":"Feature","properties":{"SeqNo":"82608","Type":"A","DHID":"de:08425:2102:91","Parent":"de:08425:2102","Name":"Eingang Ost","MunicipalityCode":"00000000","Municipality":"-","DistrictCode":"-","District":"-","Description":"","Authority":"NVBW","DelfiName":"-","THID":"-","LastOperationDate":"","SEV":"nein","longitude":"10,126502","latitude":"48,493798","geojson_lng":10.126502,"geojson_lat":48.493798},"geometry":{"type":"Point","coordinates":[10.126502,48.493798]}},{"type":"Feature","properties":{"SeqNo":"82609","Type":"A","DHID":"de:08425:2102:92","Parent":"de:08425:2102","Name":"Eingang Nord","MunicipalityCode":"00000000","Municipality":"-","DistrictCode":"-","District":"-","Description":"","Authority":"NVBW","DelfiName":"-","THID":"-","LastOperationDate":"","SEV":"nein","longitude":"10,125612","latitude":"48,493441","geojson_lng":10.125612,"geojson_lat":48.493441},"geometry":{"type":"Point","coordinates":[10.125612,48.493441]}},{"type":"Feature","properties":{"SeqNo":"82610","Type":"Q","DHID":"de:08425:2102:1:1","Parent":"de:08425:2102:1","Name":"Bahnhofstraße","MunicipalityCode":"00000000","Municipality":"-","DistrictCode":"-","District":"-","Description":"","Authority":"NVBW","DelfiName":"-","THID":"-","LastOperationDate":"","SEV":"nein","longitude":"10,125549","latitude":"48,493447","geojson_lng":10.125549,"geojson_lat":48.493447},"geometry":{"type":"Point","coordinates":[10.125549,48.493447]}},{"type":"Feature","properties":{"SeqNo":"82611","Type":"Q","DHID":"de:08425:2102:1:2","Parent":"de:08425:2102:1","Name":"Lenaustraße","MunicipalityCode":"00000000","Municipality":"-","DistrictCode":"-","District":"-","Description":"","Authority":"NVBW","DelfiName":"-","THID":"-","LastOperationDate":"","SEV":"nein","longitude":"10,125594","latitude":"48,493691","geojson_lng":10.125594,"geojson_lat":48.493691},"geometry":{"type":"Point","coordinates":[10.125594,48.493691]}},{"type":"Feature","properties":{"SeqNo":"82612","Type":"Q","DHID":"de:08425:2102:2:2","Parent":"de:08425:2102:2","Name":"Gleis 2","MunicipalityCode":"00000000","Municipality":"-","DistrictCode":"-","District":"-","Description":"","Authority":"NVBW","DelfiName":"-","THID":"-","LastOperationDate":"","SEV":"nein","longitude":"10,126331","latitude":"48,49337","geojson_lng":10.126331,"geojson_lat":48.49337},"geometry":{"type":"Point","coordinates":[10.126331,48.49337]}},{"type":"Feature","properties":{"SeqNo":"82613","Type":"Q","DHID":"de:08425:2102:3:1","Parent":"de:08425:2102:3","Name":"Gleis 1","MunicipalityCode":"00000000","Municipality":"-","DistrictCode":"-","District":"-","Description":"","Authority":"NVBW","DelfiName":"-","THID":"-","LastOperationDate":"","SEV":"nein","longitude":"10,12607","latitude":"48,493227","geojson_lng":10.12607,"geojson_lat":48.493227},"geometry":{"type":"Point","coordinates":[10.12607,48.493227]}}]}