{"type":"FeatureCollection","features":[{"type":"Feature","properties":{"SeqNo":"845412","Type":"S","DHID":"de:14625:6201","Parent":"de:14625:6201","Name":"Kamenz Bahnhof","MunicipalityCode":"14625250","Municipality":"Kamenz","DistrictCode":"","District":"","Description":"","Authority":"VVO","DelfiName":"Kamenz, Bahnhof","THID":"D93921001839","LastOperationDate":"2025-02-28T00:00:00","SEV":"ja","longitude":"14,092555","latitude":"51,273955","geojson_lng":14.092555,"geojson_lat":51.273955},"geometry":{"type":"Point","coordinates":[14.092555,51.273955]}},{"type":"Feature","properties":{"SeqNo":"845413","Type":"A","DHID":"de:14625:6201:1","Parent":"de:14625:6201","Name":"Bahn","MunicipalityCode":"00000000","Municipality":"-","DistrictCode":"-","District":"-","Description":"","Authority":"VVO","DelfiName":"-","THID":"-","LastOperationDate":"","SEV":"nein","longitude":"14,092213","latitude":"51,273893","geojson_lng":14.092213,"geojson_lat":51.273893},"geometry":{"type":"Point","coordinates":[14.092213,51.273893]}},{"type":"Feature","properties":{"SeqNo":"845414","Type":"A","DHID":"de:14625:6201:2","Parent":"de:14625:6201","Name":"Bus","MunicipalityCode":"00000000","Municipality":"-","DistrictCode":"-","District":"-","Description":"","Authority":"VVO","DelfiName":"-","THID":"-","LastOperationDate":"","SEV":"ja","longitude":"14,09286","latitude":"51,27468","geojson_lng":14.09286,"geojson_lat":51.27468},"geometry":{"type":"Point","coordinates":[14.09286,51.27468]}},{"type":"Feature","properties":{"SeqNo":"845415","Type":"A","DHID":"de:14625:6201:3","Parent":"de:14625:6201","Name":"Zugang","MunicipalityCode":"00000000","Municipality":"-","DistrictCode":"-","District":"-","Description":"","Authority":"VVO","DelfiName":"-","THID":"-","LastOperationDate":"","SEV":"nein","longitude":"14,092653","latitude":"51,273533","geojson_lng":14.092653,"geojson_lat":51.273533},"geometry":{"type":"Point","coordinates":[14.092653,51.273533]}},{"type":"Feature","properties":{"SeqNo":"845416","Type":"Q","DHID":"de:14625:6201:1:Gleis1","Parent":"de:14625:6201:1","Name":"Gleis 1","MunicipalityCode":"00000000","Municipality":"-","DistrictCode":"-","District":"-","Description":"","Authority":"VVO","DelfiName":"-","THID":"-","LastOperationDate":"","SEV":"nein","longitude":"14,092195","latitude":"51,273961","geojson_lng":14.092195,"geojson_lat":51.273961},"geometry":{"type":"Point","coordinates":[14.092195,51.273961]}},{"type":"Feature","properties":{"SeqNo":"845417","Type":"Q","DHID":"de:14625:6201:1:Gleis2","Parent":"de:14625:6201:1","Name":"Gleis 2","MunicipalityCode":"00000000","Municipality":"-","DistrictCode":"-","District":"-","Description":"","Authority":"VVO","DelfiName":"-","THID":"-","LastOperationDate":"","SEV":"nein","longitude":"14,092061","latitude":"51,273972","geojson_lng":14.092061,"geojson_lat":51.273972},"geometry":{"type":"Point","coordinates":[14.092061,51.273972]}},{"type":"Feature","properties":{"SeqNo":"845418","Type":"Q","DHID":"de:14625:6201:2:1","Parent":"de:14625:6201:2","Name":"1","MunicipalityCode":"00000000","Municipality":"-","DistrictCode":"-","District":"-","Description":"","Authority":"VVO","DelfiName":"-","THID":"-","LastOperationDate":"","SEV":"nein","longitude":"14,092698","latitude":"51,274899","geojson_lng":14.092698,"geojson_lat":51.274899},"geometry":{"type":"Point","coordinates":[14.092698,51.274899]}},{"type":"Feature","properties":{"SeqNo":"845419","Type":"Q","DHID":"de:14625:6201:2:2","Parent":"de:14625:6201:2","Name":"2","MunicipalityCode":"00000000","Municipality":"-","DistrictCode":"-","District":"-","Description":"","Authority":"VVO","DelfiName":"-","THID":"-","LastOperationDate":"","SEV":"nein","longitude":"14,092752","latitude":"51,275113","geojson_lng":14.092752,"geojson_lat":51.275113},"geometry":{"type":"Point","coordinates":[14.092752,51.275113]}},{"type":"Feature","properties":{"SeqNo":"845420","Type":"Q","DHID":"de:14625:6201:2:3","Parent":"de:14625:6201:2","Name":"3","MunicipalityCode":"00000000","Municipality":"-","DistrictCode":"-","District":"-","Description":"","Authority":"VVO","DelfiName":"-","THID":"-","LastOperationDate":"","SEV":"nein","longitude":"14,092878","latitude":"51,27509","geojson_lng":14.092878,"geojson_lat":51.27509},"geometry":{"type":"Point","coordinates":[14.092878,51.27509]}},{"type":"Feature","properties":{"SeqNo":"845421","Type":"Q","DHID":"de:14625:6201:2:4","Parent":"de:14625:6201:2","Name":"4","MunicipalityCode":"00000000","Municipality":"-","DistrictCode":"-","District":"-","Description":"","Authority":"VVO","DelfiName":"-","THID":"-","LastOperationDate":"","SEV":"nein","longitude":"14,092977","latitude":"51,274989","geojson_lng":14.092977,"geojson_lat":51.274989},"geometry":{"type":"Point","coordinates":[14.092977,51.274989]}},{"type":"Feature","properties":{"SeqNo":"845422","Type":"Q","DHID":"de:14625:6201:2:5","Parent":"de:14625:6201:2","Name":"5","MunicipalityCode":"00000000","Municipality":"-","DistrictCode":"-","District":"-","Description":"","Authority":"VVO","DelfiName":"-","THID":"-","LastOperationDate":"","SEV":"nein","longitude":"14,092896","latitude":"51,274804","geojson_lng":14.092896,"geojson_lat":51.274804},"geometry":{"type":"Point","coordinates":[14.092896,51.274804]}},{"type":"Feature","properties":{"SeqNo":"845423","Type":"Q","DHID":"de:14625:6201:2:6","Parent":"de:14625:6201:2","Name":"6","MunicipalityCode":"00000000","Municipality":"-","DistrictCode":"-","District":"-","Description":"","Authority":"VVO","DelfiName":"-","THID":"-","LastOperationDate":"","SEV":"nein","longitude":"14,092788","latitude":"51,274618","geojson_lng":14.092788,"geojson_lat":51.274618},"geometry":{"type":"Point","coordinates":[14.092788,51.274618]}},{"type":"Feature","properties":{"SeqNo":"845424","Type":"Q","DHID":"de:14625:6201:2:7","Parent":"de:14625:6201:2","Name":"7","MunicipalityCode":"00000000","Municipality":"-","DistrictCode":"-","District":"-","Description":"","Authority":"VVO","DelfiName":"-","THID":"-","LastOperationDate":"","SEV":"ja","longitude":"14,092698","latitude":"51,274573","geojson_lng":14.092698,"geojson_lat":51.274573},"geometry":{"type":"Point","coordinates":[14.092698,51.274573]}},{"type":"Feature","properties":{"SeqNo":"845425","Type":"Q","DHID":"de:14625:6201:2:8","Parent":"de:14625:6201:2","Name":"8","MunicipalityCode":"00000000","Municipality":"-","DistrictCode":"-","District":"-","Description":"","Authority":"VVO","DelfiName":"-","THID":"-","LastOperationDate":"","SEV":"ja","longitude":"14,092617","latitude":"51,274708","geojson_lng":14.092617,"geojson_lat":51.274708},"geometry":{"type":"Point","coordinates":[14.092617,51.274708]}},{"type":"Feature","properties":{"SeqNo":"845430","Type":"S","DHID":"de:14625:6204","Parent":"de:14625:6204","Name":"Kamenz Am Hutberg","MunicipalityCode":"14625250","Municipality":"Kamenz","DistrictCode":"","District":"","Description":"","Authority":"VVO","DelfiName":"Kamenz, Am Hutberg","THID":"D9392100183C","LastOperationDate":"2025-02-28T00:00:00","SEV":"nein","longitude":"14,086895","latitude":"51,272488","geojson_lng":14.086895,"geojson_lat":51.272488},"geometry":{"type":"Point","coordinates":[14.086895,51.272488]}},{"type":"Feature","properties":{"SeqNo":"845431","Type":"A","DHID":"de:14625:6204:1","Parent":"de:14625:6204","Name":"Haltestelle","MunicipalityCode":"00000000","Municipality":"-","DistrictCode":"-","District":"-","Description":"","Authority":"VVO","DelfiName":"-","THID":"-","LastOperationDate":"","SEV":"nein","longitude":"14,08694","latitude":"51,272483","geojson_lng":14.08694,"geojson_lat":51.272483},"geometry":{"type":"Point","coordinates":[14.08694,51.272483]}},{"type":"Feature","properties":{"SeqNo":"845432","Type":"Q","DHID":"de:14625:6204:1:1","Parent":"de:14625:6204:1","Name":"stadtauswärts","MunicipalityCode":"00000000","Municipality":"-","DistrictCode":"-","District":"-","Description":"","Authority":"VVO","DelfiName":"-","THID":"-","LastOperationDate":"","SEV":"nein","longitude":"14,08668","latitude":"51,272634","geojson_lng":14.08668,"geojson_lat":51.272634},"geometry":{"type":"Point","coordinates":[14.08668,51.272634]}},{"type":"Feature","properties":{"SeqNo":"845433","Type":"Q","DHID":"de:14625:6204:1:2","Parent":"de:14625:6204:1","Name":"stadtwärts","MunicipalityCode":"00000000","Municipality":"-","DistrictCode":"-","District":"-","Description":"","Authority":"VVO","DelfiName":"-","THID":"-","LastOperationDate":"","SEV":"nein","longitude":"14,08703","latitude":"51,272426","geojson_lng":14.08703,"geojson_lat":51.272426},"geometry":{"type":"Point","coordinates":[14.08703,51.272426]}},{"type":"Feature","properties":{"SeqNo":"845483","Type":"S","DHID":"de:14625:6216","Parent":"de:14625:6216","Name":"Kamenz Polizeirevier","MunicipalityCode":"14625250","Municipality":"Kamenz","DistrictCode":"","District":"","Description":"","Authority":"VVO","DelfiName":"Kamenz, Polizeirevier","THID":"D93921001848","LastOperationDate":"2025-02-28T00:00:00","SEV":"nein","longitude":"14,09374","latitude":"51,272128","geojson_lng":14.09374,"geojson_lat":51.272128},"geometry":{"type":"Point","coordinates":[14.09374,51.272128]}},{"type":"Feature","properties":{"SeqNo":"845484","Type":"A","DHID":"de:14625:6216:1","Parent":"de:14625:6216","Name":"Haltestelle","MunicipalityCode":"00000000","Municipality":"-","DistrictCode":"-","District":"-","Description":"","Authority":"VVO","DelfiName":"-","THID":"-","LastOperationDate":"","SEV":"nein","longitude":"14,093704","latitude":"51,272134","geojson_lng":14.093704,"geojson_lat":51.272134},"geometry":{"type":"Point","coordinates":[14.093704,51.272134]}},{"type":"Feature","properties":{"SeqNo":"845485","Type":"Q","DHID":"de:14625:6216:1:1","Parent":"de:14625:6216:1","Name":"Ri. Pulsnitzer Str.","MunicipalityCode":"00000000","Municipality":"-","DistrictCode":"-","District":"-","Description":"","Authority":"VVO","DelfiName":"-","THID":"-","LastOperationDate":"","SEV":"nein","longitude":"14,093642","latitude":"51,272207","geojson_lng":14.093642,"geojson_lat":51.272207},"geometry":{"type":"Point","coordinates":[14.093642,51.272207]}},{"type":"Feature","properties":{"SeqNo":"845486","Type":"Q","DHID":"de:14625:6216:1:2","Parent":"de:14625:6216:1","Name":"Ri.Bahnhof","MunicipalityCode":"00000000","Municipality":"-","DistrictCode":"-","District":"-","Description":"","Authority":"VVO","DelfiName":"-","THID":"-","LastOperationDate":"","SEV":"nein","longitude":"14,09374","latitude":"51,272128","geojson_lng":14.09374,"geojson_lat":51.272128},"geometry":{"type":"Point","coordinates":[14.09374,51.272128]}},{"type":"Feature","properties":{"SeqNo":"845487","Type":"S","DHID":"de:14625:6217","Parent":"de:14625:6217","Name":"KM Güterbahnhofstr/Feuerwehr","MunicipalityCode":"14625250","Municipality":"Kamenz","DistrictCode":"","District":"","Description":"","Authority":"VVO","DelfiName":"Kamenz, Güterbfstraße/Feuerwehr","THID":"D93921001849","LastOperationDate":"2025-02-28T00:00:00","SEV":"nein","longitude":"14,089042","latitude":"51,274736","geojson_lng":14.089042,"geojson_lat":51.274736},"geometry":{"type":"Point","coordinates":[14.089042,51.274736]}},{"type":"Feature","properties":{"SeqNo":"845488","Type":"A","DHID":"de:14625:6217:1","Parent":"de:14625:6217","Name":"Haltestelle","MunicipalityCode":"00000000","Municipality":"-","DistrictCode":"-","District":"-","Description":"","Authority":"VVO","DelfiName":"-","THID":"-","LastOperationDate":"","SEV":"nein","longitude":"14,089024","latitude":"51,27473","geojson_lng":14.089024,"geojson_lat":51.27473},"geometry":{"type":"Point","coordinates":[14.089024,51.27473]}},{"type":"Feature","properties":{"SeqNo":"845489","Type":"Q","DHID":"de:14625:6217:1:1","Parent":"de:14625:6217:1","Name":"landwärts","MunicipalityCode":"00000000","Municipality":"-","DistrictCode":"-","District":"-","Description":"","Authority":"VVO","DelfiName":"-","THID":"-","LastOperationDate":"","SEV":"nein","longitude":"14,089222","latitude":"51,274618","geojson_lng":14.089222,"geojson_lat":51.274618},"geometry":{"type":"Point","coordinates":[14.089222,51.274618]}},{"type":"Feature","properties":{"SeqNo":"845490","Type":"Q","DHID":"de:14625:6217:1:2","Parent":"de:14625:6217:1","Name":"stadtwärts","MunicipalityCode":"00000000","Municipality":"-","DistrictCode":"-","District":"-","Description":"","Authority":"VVO","DelfiName":"-","THID":"-","LastOperationDate":"","SEV":"nein","longitude":"14,089123","latitude":"51,27468","geojson_lng":14.089123,"geojson_lat":51.27468},"geometry":{"type":"Point","coordinates":[14.089123,51.27468]}},{"type":"Feature","properties":{"SeqNo":"845529","Type":"S","DHID":"de:14625:6228","Parent":"de:14625:6228","Name":"Kamenz Markt","MunicipalityCode":"14625250","Municipality":"Kamenz","DistrictCode":"","District":"","Description":"","Authority":"VVO","DelfiName":"Kamenz, Markt","THID":"D93921001854","LastOperationDate":"2025-02-28T00:00:00","SEV":"nein","longitude":"14,095294","latitude":"51,26956","geojson_lng":14.095294,"geojson_lat":51.26956},"geometry":{"type":"Point","coordinates":[14.095294,51.26956]}},{"type":"Feature","properties":{"SeqNo":"845530","Type":"A","DHID":"de:14625:6228:1","Parent":"de:14625:6228","Name":"Haltestelle","MunicipalityCode":"00000000","Municipality":"-","DistrictCode":"-","District":"-","Description":"","Authority":"VVO","DelfiName":"-","THID":"-","LastOperationDate":"","SEV":"nein","longitude":"14,095294","latitude":"51,269571","geojson_lng":14.095294,"geojson_lat":51.269571},"geometry":{"type":"Point","coordinates":[14.095294,51.269571]}},{"type":"Feature","properties":{"SeqNo":"845531","Type":"Q","DHID":"de:14625:6228:1:1","Parent":"de:14625:6228:1","Name":"Ri.Hohe Str.","MunicipalityCode":"00000000","Municipality":"-","DistrictCode":"-","District":"-","Description":"","Authority":"VVO","DelfiName":"-","THID":"-","LastOperationDate":"","SEV":"nein","longitude":"14,095294","latitude":"51,26956","geojson_lng":14.095294,"geojson_lat":51.26956},"geometry":{"type":"Point","coordinates":[14.095294,51.26956]}},{"type":"Feature","properties":{"SeqNo":"845532","Type":"Q","DHID":"de:14625:6228:1:2","Parent":"de:14625:6228:1","Name":"Ri. Pulsnitzer Str.","MunicipalityCode":"00000000","Municipality":"-","DistrictCode":"-","District":"-","Description":"","Authority":"VVO","DelfiName":"-","THID":"-","LastOperationDate":"","SEV":"nein","longitude":"14,094648","latitude":"51,270145","geojson_lng":14.094648,"geojson_lat":51.270145},"geometry":{"type":"Point","coordinates":[14.094648,51.270145]}},{"type":"Feature","properties":{"SeqNo":"845545","Type":"S","DHID":"de:14625:6234","Parent":"de:14625:6234","Name":"Kamenz Pulsnitzer Straße","MunicipalityCode":"14625250","Municipality":"Kamenz","DistrictCode":"","District":"","Description":"","Authority":"VVO","DelfiName":"Kamenz, Pulsnitzer Straße","THID":"D9392100185A","LastOperationDate":"2025-02-28T00:00:00","SEV":"nein","longitude":"14,093758","latitude":"51,269099","geojson_lng":14.093758,"geojson_lat":51.269099},"geometry":{"type":"Point","coordinates":[14.093758,51.269099]}},{"type":"Feature","properties":{"SeqNo":"845546","Type":"A","DHID":"de:14625:6234:1","Parent":"de:14625:6234","Name":"Haltestelle","MunicipalityCode":"00000000","Municipality":"-","DistrictCode":"-","District":"-","Description":"","Authority":"VVO","DelfiName":"-","THID":"-","LastOperationDate":"","SEV":"nein","longitude":"14,093668","latitude":"51,26911","geojson_lng":14.093668,"geojson_lat":51.26911},"geometry":{"type":"Point","coordinates":[14.093668,51.26911]}},{"type":"Feature","properties":{"SeqNo":"845547","Type":"Q","DHID":"de:14625:6234:1:1","Parent":"de:14625:6234:1","Name":"","MunicipalityCode":"00000000","Municipality":"-","DistrictCode":"-","District":"-","Description":"","Authority":"VVO","DelfiName":"-","THID":"-","LastOperationDate":"","SEV":"nein","longitude":"14,093642","latitude":"51,269065","geojson_lng":14.093642,"geojson_lat":51.269065},"geometry":{"type":"Point","coordinates":[14.093642,51.269065]}},{"type":"Feature","properties":{"SeqNo":"845548","Type":"Q","DHID":"de:14625:6234:1:2","Parent":"de:14625:6234:1","Name":"","MunicipalityCode":"00000000","Municipality":"-","DistrictCode":"-","District":"-","Description":"","Authority":"VVO","DelfiName":"-","THID":"-","LastOperationDate":"","SEV":"nein","longitude":"14,093543","latitude":"51,269369","geojson_lng":14.093543,"geojson_lat":51.269369},"geometry":{"type":"Point","coordinates":[14.093543,51.269369]}}]}