{"type":"FeatureCollection","features":[{"type":"Feature","properties":{"SeqNo":"53403","Type":"S","DHID":"de:08311:30800","Parent":"de:08311:30800","Name":"Freiburg, Moosweiher","MunicipalityCode":"08311000","Municipality":"Freiburg im Breisgau","DistrictCode":"","District":"","Description":"","Authority":"NVBW","DelfiName":"-","THID":"D92077007850","LastOperationDate":"2025-06-14T00:00:00","SEV":"nein","longitude":"7,808579","latitude":"48,028881","geojson_lng":7.808579,"geojson_lat":48.028881},"geometry":{"type":"Point","coordinates":[7.808579,48.028881]}},{"type":"Feature","properties":{"SeqNo":"53404","Type":"Q","DHID":"de:08311:30800:0:1","Parent":"de:08311:30800","Name":"Strab Ankunft","MunicipalityCode":"00000000","Municipality":"-","DistrictCode":"-","District":"-","Description":"","Authority":"NVBW","DelfiName":"-","THID":"-","LastOperationDate":"","SEV":"nein","longitude":"7,809082","latitude":"48,028581","geojson_lng":7.809082,"geojson_lat":48.028581},"geometry":{"type":"Point","coordinates":[7.809082,48.028581]}},{"type":"Feature","properties":{"SeqNo":"53405","Type":"Q","DHID":"de:08311:30800:0:2","Parent":"de:08311:30800","Name":"Strab Abfahrt","MunicipalityCode":"00000000","Municipality":"-","DistrictCode":"-","District":"-","Description":"","Authority":"NVBW","DelfiName":"-","THID":"-","LastOperationDate":"","SEV":"nein","longitude":"7,809073","latitude":"48,028515","geojson_lng":7.809073,"geojson_lat":48.028515},"geometry":{"type":"Point","coordinates":[7.809073,48.028515]}},{"type":"Feature","properties":{"SeqNo":"53406","Type":"Q","DHID":"de:08311:30800:0:3","Parent":"de:08311:30800","Name":"Bus An/Ab L.36 Schleife","MunicipalityCode":"00000000","Municipality":"-","DistrictCode":"-","District":"-","Description":"","Authority":"NVBW","DelfiName":"-","THID":"-","LastOperationDate":"","SEV":"nein","longitude":"7,808893","latitude":"48,028641","geojson_lng":7.808893,"geojson_lat":48.028641},"geometry":{"type":"Point","coordinates":[7.808893,48.028641]}},{"type":"Feature","properties":{"SeqNo":"53407","Type":"Q","DHID":"de:08311:30800:0:4","Parent":"de:08311:30800","Name":"Aussengleis","MunicipalityCode":"00000000","Municipality":"-","DistrictCode":"-","District":"-","Description":"","Authority":"NVBW","DelfiName":"-","THID":"-","LastOperationDate":"","SEV":"nein","longitude":"7,8083","latitude":"48,029458","geojson_lng":7.8083,"geojson_lat":48.029458},"geometry":{"type":"Point","coordinates":[7.8083,48.029458]}},{"type":"Feature","properties":{"SeqNo":"53408","Type":"Q","DHID":"de:08311:30800:0:5","Parent":"de:08311:30800","Name":"Elsässerstr. Linie 36/SBG","MunicipalityCode":"00000000","Municipality":"-","DistrictCode":"-","District":"-","Description":"","Authority":"NVBW","DelfiName":"-","THID":"-","LastOperationDate":"","SEV":"nein","longitude":"7,809037","latitude":"48,028791","geojson_lng":7.809037,"geojson_lat":48.028791},"geometry":{"type":"Point","coordinates":[7.809037,48.028791]}},{"type":"Feature","properties":{"SeqNo":"53409","Type":"Q","DHID":"de:08311:30800:0:6","Parent":"de:08311:30800","Name":"Pausenplatz BUS","MunicipalityCode":"00000000","Municipality":"-","DistrictCode":"-","District":"-","Description":"","Authority":"NVBW","DelfiName":"-","THID":"-","LastOperationDate":"","SEV":"nein","longitude":"7,808516","latitude":"48,028587","geojson_lng":7.808516,"geojson_lat":48.028587},"geometry":{"type":"Point","coordinates":[7.808516,48.028587]}},{"type":"Feature","properties":{"SeqNo":"53410","Type":"Q","DHID":"de:08311:30800:0:7","Parent":"de:08311:30800","Name":"Wendeplatz Sandkiste","MunicipalityCode":"00000000","Municipality":"-","DistrictCode":"-","District":"-","Description":"","Authority":"NVBW","DelfiName":"-","THID":"-","LastOperationDate":"","SEV":"nein","longitude":"7,80786","latitude":"48,02944","geojson_lng":7.80786,"geojson_lat":48.02944},"geometry":{"type":"Point","coordinates":[7.80786,48.02944]}},{"type":"Feature","properties":{"SeqNo":"53411","Type":"Q","DHID":"de:08311:30800:0:8","Parent":"de:08311:30800","Name":"Leer noch nicht benutzt","MunicipalityCode":"00000000","Municipality":"-","DistrictCode":"-","District":"-","Description":"","Authority":"NVBW","DelfiName":"-","THID":"-","LastOperationDate":"","SEV":"nein","longitude":"7,809064","latitude":"48,028947","geojson_lng":7.809064,"geojson_lat":48.028947},"geometry":{"type":"Point","coordinates":[7.809064,48.028947]}},{"type":"Feature","properties":{"SeqNo":"53412","Type":"Q","DHID":"de:08311:30800:0:9","Parent":"de:08311:30800","Name":"Innengleis","MunicipalityCode":"00000000","Municipality":"-","DistrictCode":"-","District":"-","Description":"","Authority":"NVBW","DelfiName":"-","THID":"-","LastOperationDate":"","SEV":"nein","longitude":"7,808255","latitude":"48,029446","geojson_lng":7.808255,"geojson_lat":48.029446},"geometry":{"type":"Point","coordinates":[7.808255,48.029446]}},{"type":"Feature","properties":{"SeqNo":"53490","Type":"S","DHID":"de:08311:30820","Parent":"de:08311:30820","Name":"Freiburg, CVUA Freiburg","MunicipalityCode":"08311000","Municipality":"Freiburg im Breisgau","DistrictCode":"","District":"","Description":"","Authority":"NVBW","DelfiName":"-","THID":"D92077007864","LastOperationDate":"2025-06-14T00:00:00","SEV":"nein","longitude":"7,803521","latitude":"48,033014","geojson_lng":7.803521,"geojson_lat":48.033014},"geometry":{"type":"Point","coordinates":[7.803521,48.033014]}},{"type":"Feature","properties":{"SeqNo":"53491","Type":"Q","DHID":"de:08311:30820:0:1","Parent":"de:08311:30820","Name":"Ri. Nordwesten (Hugstetten)","MunicipalityCode":"00000000","Municipality":"-","DistrictCode":"-","District":"-","Description":"","Authority":"NVBW","DelfiName":"-","THID":"-","LastOperationDate":"","SEV":"nein","longitude":"7,803737","latitude":"48,03299","geojson_lng":7.803737,"geojson_lat":48.03299},"geometry":{"type":"Point","coordinates":[7.803737,48.03299]}},{"type":"Feature","properties":{"SeqNo":"53492","Type":"Q","DHID":"de:08311:30820:0:2","Parent":"de:08311:30820","Name":"Ri. Südosten (Freiburg)","MunicipalityCode":"00000000","Municipality":"-","DistrictCode":"-","District":"-","Description":"","Authority":"NVBW","DelfiName":"-","THID":"-","LastOperationDate":"","SEV":"nein","longitude":"7,803306","latitude":"48,033074","geojson_lng":7.803306,"geojson_lat":48.033074},"geometry":{"type":"Point","coordinates":[7.803306,48.033074]}}]}