{"type":"FeatureCollection","features":[{"type":"Feature","properties":{"SeqNo":"4702","Type":"S","DHID":"de:08115:2218","Parent":"de:08115:2218","Name":"Sindelfingen Rotbühl","MunicipalityCode":"08115045","Municipality":"Sindelfingen","DistrictCode":"-","District":"-","Description":"","Authority":"NVBW","DelfiName":"-","THID":"D91FB30008AA","LastOperationDate":"2025-02-28T00:00:00","SEV":"nein","longitude":"9,003392","latitude":"48,716532","geojson_lng":9.003392,"geojson_lat":48.716532},"geometry":{"type":"Point","coordinates":[9.003392,48.716532]}},{"type":"Feature","properties":{"SeqNo":"4703","Type":"Q","DHID":"de:08115:2218:0:3","Parent":"de:08115:2218","Name":"3","MunicipalityCode":"00000000","Municipality":"-","DistrictCode":"-","District":"-","Description":"Rtg Pfarrwiesengymnasium","Authority":"NVBW","DelfiName":"-","THID":"-","LastOperationDate":"","SEV":"nein","longitude":"9,003392","latitude":"48,716544","geojson_lng":9.003392,"geojson_lat":48.716544},"geometry":{"type":"Point","coordinates":[9.003392,48.716544]}},{"type":"Feature","properties":{"SeqNo":"4704","Type":"Q","DHID":"de:08115:2218:0:4","Parent":"de:08115:2218","Name":"4","MunicipalityCode":"00000000","Municipality":"-","DistrictCode":"-","District":"-","Description":"Rtg Zimmerstr.","Authority":"NVBW","DelfiName":"-","THID":"-","LastOperationDate":"","SEV":"nein","longitude":"9,003392","latitude":"48,716544","geojson_lng":9.003392,"geojson_lat":48.716544},"geometry":{"type":"Point","coordinates":[9.003392,48.716544]}},{"type":"Feature","properties":{"SeqNo":"4719","Type":"Q","DHID":"de:08115:2224:0:4","Parent":"de:08115:2224","Name":"4","MunicipalityCode":"00000000","Municipality":"-","DistrictCode":"-","District":"-","Description":"Rtg Stadion","Authority":"NVBW","DelfiName":"-","THID":"-","LastOperationDate":"","SEV":"nein","longitude":"8,997688","latitude":"48,713794","geojson_lng":8.997688,"geojson_lat":48.713794},"geometry":{"type":"Point","coordinates":[8.997688,48.713794]}},{"type":"Feature","properties":{"SeqNo":"5711","Type":"S","DHID":"de:08115:4606","Parent":"de:08115:4606","Name":"Sindelf. Obere Vorstadt","MunicipalityCode":"08115045","Municipality":"Sindelfingen","DistrictCode":"-","District":"-","Description":"","Authority":"NVBW","DelfiName":"-","THID":"D91FB30011FE","LastOperationDate":"1999-12-31T00:00:00","SEV":"nein","longitude":"8,999709","latitude":"48,713604","geojson_lng":8.999709,"geojson_lat":48.713604},"geometry":{"type":"Point","coordinates":[8.999709,48.713604]}},{"type":"Feature","properties":{"SeqNo":"5712","Type":"Q","DHID":"de:08115:4606:0:3","Parent":"de:08115:4606","Name":"3","MunicipalityCode":"00000000","Municipality":"-","DistrictCode":"-","District":"-","Description":"eRtg Zimmerstraße/Wolfstr. Altenheim","Authority":"NVBW","DelfiName":"-","THID":"-","LastOperationDate":"","SEV":"nein","longitude":"8,999709","latitude":"48,713604","geojson_lng":8.999709,"geojson_lat":48.713604},"geometry":{"type":"Point","coordinates":[8.999709,48.713604]}},{"type":"Feature","properties":{"SeqNo":"5713","Type":"S","DHID":"de:08115:4607","Parent":"de:08115:4607","Name":"Sindelf. Klostergarten","MunicipalityCode":"08115045","Municipality":"Sindelfingen","DistrictCode":"-","District":"-","Description":"","Authority":"NVBW","DelfiName":"-","THID":"D91FB30011FF","LastOperationDate":"2025-02-28T00:00:00","SEV":"nein","longitude":"9,000104","latitude":"48,712946","geojson_lng":9.000104,"geojson_lat":48.712946},"geometry":{"type":"Point","coordinates":[9.000104,48.712946]}},{"type":"Feature","properties":{"SeqNo":"5714","Type":"Q","DHID":"de:08115:4607:0:3","Parent":"de:08115:4607","Name":"Rtg Rotbühl","MunicipalityCode":"00000000","Municipality":"-","DistrictCode":"-","District":"-","Description":"Rtg Rotbühl","Authority":"NVBW","DelfiName":"-","THID":"-","LastOperationDate":"","SEV":"nein","longitude":"9,000347","latitude":"48,713296","geojson_lng":9.000347,"geojson_lat":48.713296},"geometry":{"type":"Point","coordinates":[9.000347,48.713296]}},{"type":"Feature","properties":{"SeqNo":"5715","Type":"Q","DHID":"de:08115:4607:0:4","Parent":"de:08115:4607","Name":"Rtg Domo","MunicipalityCode":"00000000","Municipality":"-","DistrictCode":"-","District":"-","Description":"Rtg Domo","Authority":"NVBW","DelfiName":"-","THID":"-","LastOperationDate":"","SEV":"nein","longitude":"9,000266","latitude":"48,712733","geojson_lng":9.000266,"geojson_lat":48.712733},"geometry":{"type":"Point","coordinates":[9.000266,48.712733]}},{"type":"Feature","properties":{"SeqNo":"5716","Type":"Q","DHID":"de:08115:4607:0:5","Parent":"de:08115:4607","Name":"Rtg Nord","MunicipalityCode":"00000000","Municipality":"-","DistrictCode":"-","District":"-","Description":"Rtg Nord","Authority":"NVBW","DelfiName":"-","THID":"-","LastOperationDate":"","SEV":"nein","longitude":"8,999862","latitude":"48,713314","geojson_lng":8.999862,"geojson_lat":48.713314},"geometry":{"type":"Point","coordinates":[8.999862,48.713314]}},{"type":"Feature","properties":{"SeqNo":"5819","Type":"S","DHID":"de:08115:4649","Parent":"de:08115:4649","Name":"Sifi. Wolfstr.Altenh","MunicipalityCode":"08115045","Municipality":"Sindelfingen","DistrictCode":"-","District":"-","Description":"","Authority":"NVBW","DelfiName":"-","THID":"D91FB3001229","LastOperationDate":"2025-02-28T00:00:00","SEV":"nein","longitude":"8,998227","latitude":"48,71863","geojson_lng":8.998227,"geojson_lat":48.71863},"geometry":{"type":"Point","coordinates":[8.998227,48.71863]}},{"type":"Feature","properties":{"SeqNo":"5820","Type":"Q","DHID":"de:08115:4649:0:3","Parent":"de:08115:4649","Name":"3","MunicipalityCode":"00000000","Municipality":"-","DistrictCode":"-","District":"-","Description":"Rtg Essegger Str.","Authority":"NVBW","DelfiName":"-","THID":"-","LastOperationDate":"","SEV":"nein","longitude":"8,998227","latitude":"48,71863","geojson_lng":8.998227,"geojson_lat":48.71863},"geometry":{"type":"Point","coordinates":[8.998227,48.71863]}},{"type":"Feature","properties":{"SeqNo":"5821","Type":"Q","DHID":"de:08115:4649:0:4","Parent":"de:08115:4649","Name":"4","MunicipalityCode":"00000000","Municipality":"-","DistrictCode":"-","District":"-","Description":"Rtg Obere Vorstadt","Authority":"NVBW","DelfiName":"-","THID":"-","LastOperationDate":"","SEV":"nein","longitude":"8,998227","latitude":"48,71863","geojson_lng":8.998227,"geojson_lat":48.71863},"geometry":{"type":"Point","coordinates":[8.998227,48.71863]}}]}