{"type":"FeatureCollection","features":[{"type":"Feature","properties":{"highway":"bus_stop","public_transport":"platform","name":"Kerkzicht","ref:IFOPT":"NL:Q:24300700","_quaycode":"NL:Q:24300700","_town":"Gorredijk","_status":"available","_mode":"bus","_direction":50,"_visuallyAccessible":false,"_disabledAccessible":false,"geojson_lng":6.054896653266086,"geojson_lat":52.99496033325444},"geometry":{"type":"Point","coordinates":[6.054896653266086,52.99496033325444]}},{"type":"Feature","properties":{"highway":"bus_stop","public_transport":"platform","name":"Kerkzicht","ref:IFOPT":"NL:Q:24300710","_quaycode":"NL:Q:24300710","_town":"Gorredijk","_status":"available","_mode":"bus","_direction":233,"_visuallyAccessible":false,"_disabledAccessible":false,"geojson_lng":6.054520749538772,"geojson_lat":52.99472878490566},"geometry":{"type":"Point","coordinates":[6.054520749538772,52.99472878490566]}},{"type":"Feature","properties":{"highway":"bus_stop","public_transport":"platform","name":"De Miente","ref:IFOPT":"NL:Q:24300310","_quaycode":"NL:Q:24300310","_town":"Gorredijk","_status":"available","_mode":"bus","_direction":229,"_visuallyAccessible":true,"_disabledAccessible":true,"geojson_lng":6.059049755569729,"geojson_lat":52.9986664349068},"geometry":{"type":"Point","coordinates":[6.059049755569729,52.9986664349068]}},{"type":"Feature","properties":{"highway":"bus_stop","public_transport":"platform","name":"Hoofdstraat","ref:IFOPT":"NL:Q:24300600","_quaycode":"NL:Q:24300600","_town":"Gorredijk","_status":"available","_mode":"bus","_direction":31,"_visuallyAccessible":false,"_disabledAccessible":true,"geojson_lng":6.0615223966505285,"geojson_lat":53.00059357092568},"geometry":{"type":"Point","coordinates":[6.0615223966505285,53.00059357092568]}},{"type":"Feature","properties":{"highway":"bus_stop","public_transport":"platform","name":"Hoofdstraat","ref:IFOPT":"NL:Q:24300630","_quaycode":"NL:Q:24300630","_town":"Gorredijk","_status":"available","_mode":"bus","_direction":213,"_visuallyAccessible":true,"_disabledAccessible":true,"geojson_lng":6.061494278212952,"geojson_lat":53.00070156666314},"geometry":{"type":"Point","coordinates":[6.061494278212952,53.00070156666314]}},{"type":"Feature","properties":{"highway":"bus_stop","public_transport":"platform","name":"Dekemaleane","ref:IFOPT":"NL:Q:24200600","_quaycode":"NL:Q:24200600","_town":"Gorredijk","_status":"available","_mode":"bus","_direction":60,"_visuallyAccessible":true,"_disabledAccessible":true,"geojson_lng":6.048590993858637,"geojson_lat":52.99068189706361},"geometry":{"type":"Point","coordinates":[6.048590993858637,52.99068189706361]}},{"type":"Feature","properties":{"highway":"bus_stop","public_transport":"platform","name":"Dekemaleane","ref:IFOPT":"NL:Q:24200610","_quaycode":"NL:Q:24200610","_town":"Gorredijk","_status":"available","_mode":"bus","_direction":245,"_visuallyAccessible":false,"_disabledAccessible":true,"geojson_lng":6.047466641450231,"geojson_lat":52.99019385863144},"geometry":{"type":"Point","coordinates":[6.047466641450231,52.99019385863144]}},{"type":"Feature","properties":{"highway":"bus_stop","public_transport":"platform","name":"De Miente","ref:IFOPT":"NL:Q:24300300","_quaycode":"NL:Q:24300300","_town":"Gorredijk","_status":"available","_mode":"bus","_direction":49,"_visuallyAccessible":false,"_disabledAccessible":true,"geojson_lng":6.059726517574785,"geojson_lat":52.99908499190863},"geometry":{"type":"Point","coordinates":[6.059726517574785,52.99908499190863]}}]}