{"type":"FeatureCollection","features":[{"type":"Feature","properties":{"highway":"bus_stop","public_transport":"platform","name":"Centrum","ref:IFOPT":"NL:Q:68280170","_quaycode":"NL:Q:68280170","_town":"Herkenbosch","_status":"available","_mode":"bus","_direction":255,"_visuallyAccessible":false,"_disabledAccessible":false,"geojson_lng":6.0623517808469805,"geojson_lat":51.153952375657795},"geometry":{"type":"Point","coordinates":[6.0623517808469805,51.153952375657795]}},{"type":"Feature","properties":{"highway":"bus_stop","public_transport":"platform","name":"Reestraat","ref:IFOPT":"NL:Q:68280200","_quaycode":"NL:Q:68280200","_town":"Herkenbosch","_status":"available","_mode":"bus","_direction":342,"_visuallyAccessible":false,"_disabledAccessible":true,"geojson_lng":6.057193071522533,"geojson_lat":51.1569756042458},"geometry":{"type":"Point","coordinates":[6.057193071522533,51.1569756042458]}},{"type":"Feature","properties":{"highway":"bus_stop","public_transport":"platform","name":"Europalaan West","ref:IFOPT":"NL:Q:68280140","_quaycode":"NL:Q:68280140","_town":"Herkenbosch","_status":"available","_mode":"bus","_direction":94,"_visuallyAccessible":true,"_disabledAccessible":true,"geojson_lng":6.058532339973893,"geojson_lat":51.15374080374057},"geometry":{"type":"Point","coordinates":[6.058532339973893,51.15374080374057]}},{"type":"Feature","properties":{"highway":"bus_stop","public_transport":"platform","name":"Reestraat","ref:IFOPT":"NL:Q:68280210","_quaycode":"NL:Q:68280210","_town":"Herkenbosch","_status":"available","_mode":"bus","_direction":192,"_visuallyAccessible":false,"_disabledAccessible":false,"geojson_lng":6.057108885840301,"geojson_lat":51.1570839583957},"geometry":{"type":"Point","coordinates":[6.057108885840301,51.1570839583957]}},{"type":"Feature","properties":{"highway":"bus_stop","public_transport":"platform","name":"Europalaan West","ref:IFOPT":"NL:Q:68280150","_quaycode":"NL:Q:68280150","_town":"Herkenbosch","_status":"available","_mode":"bus","_direction":266,"_visuallyAccessible":true,"_disabledAccessible":true,"geojson_lng":6.058447506531315,"geojson_lat":51.153804217435464},"geometry":{"type":"Point","coordinates":[6.058447506531315,51.153804217435464]}},{"type":"Feature","properties":{"highway":"bus_stop","public_transport":"platform","name":"Centrum","ref:IFOPT":"NL:Q:68280160","_quaycode":"NL:Q:68280160","_town":"Herkenbosch","_status":"available","_mode":"bus","_direction":69,"_visuallyAccessible":false,"_disabledAccessible":true,"geojson_lng":6.063094843956239,"geojson_lat":51.15393906411153},"geometry":{"type":"Point","coordinates":[6.063094843956239,51.15393906411153]}},{"type":"Feature","properties":{"highway":"bus_stop","public_transport":"platform","name":"Randweg","ref:IFOPT":"NL:Q:68170160","_quaycode":"NL:Q:68170160","_town":"Roermond","_status":"available","_mode":"bus","_direction":127,"_visuallyAccessible":false,"_disabledAccessible":false,"geojson_lng":6.054360571722892,"geojson_lat":51.162726917582155},"geometry":{"type":"Point","coordinates":[6.054360571722892,51.162726917582155]}},{"type":"Feature","properties":{"highway":"bus_stop","public_transport":"platform","name":"Randweg","ref:IFOPT":"NL:Q:68170170","_quaycode":"NL:Q:68170170","_town":"Roermond","_status":"available","_mode":"bus","_direction":289,"_visuallyAccessible":false,"_disabledAccessible":false,"geojson_lng":6.055712181373905,"geojson_lat":51.16227868265165},"geometry":{"type":"Point","coordinates":[6.055712181373905,51.16227868265165]}}]}