{"type":"FeatureCollection","features":[{"type":"Feature","properties":{"highway":"bus_stop","public_transport":"platform","name":"Station Barneveld Noord","ref:IFOPT":"NL:Q:91000093","_quaycode":"NL:Q:91000093","_town":"Barneveld","_status":"available","_mode":"bus","_direction":204,"_visuallyAccessible":false,"_disabledAccessible":false,"geojson_lng":5.598033999999997,"geojson_lat":52.16156200000002},"geometry":{"type":"Point","coordinates":[5.598033999999997,52.16156200000002]}},{"type":"Feature","properties":{"highway":"bus_stop","public_transport":"platform","name":"Bosweg","ref:IFOPT":"NL:Q:40746011","_quaycode":"NL:Q:40746011","_town":"Voorthuizen","_status":"available","_mode":"bus","_direction":254,"_visuallyAccessible":false,"_disabledAccessible":false,"geojson_lng":5.625430958174263,"geojson_lat":52.190388813977414},"geometry":{"type":"Point","coordinates":[5.625430958174263,52.190388813977414]}},{"type":"Feature","properties":{"highway":"bus_stop","public_transport":"platform","name":"Kruispunt Harselaar","ref:IFOPT":"NL:Q:50745012","_quaycode":"NL:Q:50745012","_town":"Terschuur","_status":"available","_mode":"bus","_direction":253,"_visuallyAccessible":false,"_disabledAccessible":false,"geojson_lng":5.557428869175232,"geojson_lat":52.17132638709936},"geometry":{"type":"Point","coordinates":[5.557428869175232,52.17132638709936]}},{"type":"Feature","properties":{"highway":"bus_stop","public_transport":"platform","name":"Dorpskerk","ref:IFOPT":"NL:Q:50746022","_quaycode":"NL:Q:50746022","_town":"Voorthuizen","_status":"available","_mode":"bus","_direction":65,"_visuallyAccessible":true,"_disabledAccessible":true,"geojson_lng":5.604994999999996,"geojson_lat":52.19062500000003},"geometry":{"type":"Point","coordinates":[5.604994999999996,52.19062500000003]}},{"type":"Feature","properties":{"highway":"bus_stop","public_transport":"platform","name":"De Punt","ref:IFOPT":"NL:Q:50746008","_quaycode":"NL:Q:50746008","_town":"Voorthuizen","_status":"available","_mode":"bus","_direction":67,"_visuallyAccessible":true,"_disabledAccessible":true,"geojson_lng":5.60289897844235,"geojson_lat":52.1851472860263},"geometry":{"type":"Point","coordinates":[5.60289897844235,52.1851472860263]}},{"type":"Feature","properties":{"highway":"bus_stop","public_transport":"platform","name":"Dorpskerk","ref:IFOPT":"NL:Q:50746021","_quaycode":"NL:Q:50746021","_town":"Voorthuizen","_status":"available","_mode":"bus","_direction":245,"_visuallyAccessible":true,"_disabledAccessible":true,"geojson_lng":5.60515240933017,"geojson_lat":52.19073613183025},"geometry":{"type":"Point","coordinates":[5.60515240933017,52.19073613183025]}},{"type":"Feature","properties":{"highway":"bus_stop","public_transport":"platform","name":"Lankerenseweg","ref:IFOPT":"NL:Q:50746002","_quaycode":"NL:Q:50746002","_town":"Voorthuizen","_status":"available","_mode":"bus","_direction":65,"_visuallyAccessible":false,"_disabledAccessible":false,"geojson_lng":5.5746255469490285,"geojson_lat":52.17623466816235},"geometry":{"type":"Point","coordinates":[5.5746255469490285,52.17623466816235]}},{"type":"Feature","properties":{"highway":"bus_stop","public_transport":"platform","name":"Station Barneveld Noord","ref:IFOPT":"NL:Q:99990033","_quaycode":"NL:Q:99990033","_town":"Barneveld","_status":"available","_mode":"bus","_direction":158,"_visuallyAccessible":true,"_disabledAccessible":true,"geojson_lng":5.598972029462302,"geojson_lat":52.16497651494656},"geometry":{"type":"Point","coordinates":[5.598972029462302,52.16497651494656]}},{"type":"Feature","properties":{"highway":"bus_stop","public_transport":"platform","name":"Nijkerkerweg","ref:IFOPT":"NL:Q:40765042","_quaycode":"NL:Q:40765042","_town":"Barneveld","_status":"available","_mode":"bus","_direction":0,"_visuallyAccessible":false,"_disabledAccessible":true,"geojson_lng":5.573308501581778,"geojson_lat":52.16542428188299},"geometry":{"type":"Point","coordinates":[5.573308501581778,52.16542428188299]}},{"type":"Feature","properties":{"highway":"bus_stop","public_transport":"platform","name":"Akkerweg","ref:IFOPT":"NL:Q:50549004","_quaycode":"NL:Q:50549004","_town":"Appel","_status":"available","_mode":"bus","_direction":314,"_visuallyAccessible":false,"_disabledAccessible":false,"geojson_lng":5.539129401252215,"geojson_lat":52.1805280496362},"geometry":{"type":"Point","coordinates":[5.539129401252215,52.1805280496362]}},{"type":"Feature","properties":{"highway":"bus_stop","public_transport":"platform","name":"Struik","ref:IFOPT":"NL:Q:50747002","_quaycode":"NL:Q:50747002","_town":"Nijkerk","_status":"available","_mode":"bus","_direction":359,"_visuallyAccessible":false,"_disabledAccessible":false,"geojson_lng":5.6078971505325566,"geojson_lat":52.19640886636093},"geometry":{"type":"Point","coordinates":[5.6078971505325566,52.19640886636093]}},{"type":"Feature","properties":{"highway":"bus_stop","public_transport":"platform","name":"Verbindingsweg","ref:IFOPT":"NL:Q:50746004","_quaycode":"NL:Q:50746004","_town":"Voorthuizen","_status":"available","_mode":"bus","_direction":74,"_visuallyAccessible":false,"_disabledAccessible":false,"geojson_lng":5.589733158981572,"geojson_lat":52.18069465419499},"geometry":{"type":"Point","coordinates":[5.589733158981572,52.18069465419499]}},{"type":"Feature","properties":{"highway":"bus_stop","public_transport":"platform","name":"Lankerenseweg","ref:IFOPT":"NL:Q:50746001","_quaycode":"NL:Q:50746001","_town":"Voorthuizen","_status":"available","_mode":"bus","_direction":238,"_visuallyAccessible":false,"_disabledAccessible":false,"geojson_lng":5.573557652875566,"geojson_lat":52.17607457850147},"geometry":{"type":"Point","coordinates":[5.573557652875566,52.17607457850147]}},{"type":"Feature","properties":{"highway":"bus_stop","public_transport":"platform","name":"Nijkerkerweg","ref:IFOPT":"NL:Q:40765041","_quaycode":"NL:Q:40765041","_town":"Barneveld","_status":"available","_mode":"bus","_direction":185,"_visuallyAccessible":false,"_disabledAccessible":false,"geojson_lng":5.573206340473863,"geojson_lat":52.16546039486365},"geometry":{"type":"Point","coordinates":[5.573206340473863,52.16546039486365]}},{"type":"Feature","properties":{"highway":"bus_stop","public_transport":"platform","name":"Bosweg","ref:IFOPT":"NL:Q:50746012","_quaycode":"NL:Q:50746012","_town":"Voorthuizen","_status":"available","_mode":"bus","_direction":75,"_visuallyAccessible":false,"_disabledAccessible":false,"geojson_lng":5.626089231793058,"geojson_lat":52.190423434167464},"geometry":{"type":"Point","coordinates":[5.626089231793058,52.190423434167464]}},{"type":"Feature","properties":{"highway":"bus_stop","public_transport":"platform","name":"Zeumerseweg","ref:IFOPT":"NL:Q:50745021","_quaycode":"NL:Q:50745021","_town":"Barneveld","_status":"available","_mode":"bus","_direction":157,"_visuallyAccessible":false,"_disabledAccessible":false,"geojson_lng":5.596917189714187,"geojson_lat":52.16935731281429},"geometry":{"type":"Point","coordinates":[5.596917189714187,52.16935731281429]}},{"type":"Feature","properties":{"highway":"bus_stop","public_transport":"platform","name":"Van Beek","ref:IFOPT":"NL:Q:50645007","_quaycode":"NL:Q:50645007","_town":"Terschuur","_status":"available","_mode":"bus","_direction":254,"_visuallyAccessible":false,"_disabledAccessible":false,"geojson_lng":5.545971006827994,"geojson_lat":52.16794494319571},"geometry":{"type":"Point","coordinates":[5.545971006827994,52.16794494319571]}},{"type":"Feature","properties":{"highway":"bus_stop","public_transport":"platform","name":"Van Beek","ref:IFOPT":"NL:Q:50645008","_quaycode":"NL:Q:50645008","_town":"Terschuur","_status":"available","_mode":"bus","_direction":74,"_visuallyAccessible":false,"_disabledAccessible":false,"geojson_lng":5.5467460468237855,"geojson_lat":52.16804276377513},"geometry":{"type":"Point","coordinates":[5.5467460468237855,52.16804276377513]}},{"type":"Feature","properties":{"highway":"bus_stop","public_transport":"platform","name":"Zeumerseweg","ref:IFOPT":"NL:Q:50745022","_quaycode":"NL:Q:50745022","_town":"Barneveld","_status":"available","_mode":"bus","_direction":337,"_visuallyAccessible":false,"_disabledAccessible":false,"geojson_lng":5.597166781975884,"geojson_lat":52.169590554795114},"geometry":{"type":"Point","coordinates":[5.597166781975884,52.169590554795114]}},{"type":"Feature","properties":{"highway":"bus_stop","public_transport":"platform","name":"Station Barneveld Noord","ref:IFOPT":"NL:Q:99990032","_quaycode":"NL:Q:99990032","_town":"Barneveld","_status":"available","_mode":"bus","_direction":337,"_visuallyAccessible":true,"_disabledAccessible":true,"geojson_lng":5.599336697085696,"geojson_lat":52.1647188883516},"geometry":{"type":"Point","coordinates":[5.599336697085696,52.1647188883516]}},{"type":"Feature","properties":{"highway":"bus_stop","public_transport":"platform","name":"Oude Ambachten Museum","ref:IFOPT":"NL:Q:50745009","_quaycode":"NL:Q:50745009","_town":"Terschuur","_status":"available","_mode":"bus","_direction":253,"_visuallyAccessible":false,"_disabledAccessible":false,"geojson_lng":5.555189665980915,"geojson_lat":52.170619553802716},"geometry":{"type":"Point","coordinates":[5.555189665980915,52.170619553802716]}},{"type":"Feature","properties":{"highway":"bus_stop","public_transport":"platform","name":"Kruispunt Harselaar","ref:IFOPT":"NL:Q:50745011","_quaycode":"NL:Q:50745011","_town":"Terschuur","_status":"available","_mode":"bus","_direction":74,"_visuallyAccessible":false,"_disabledAccessible":false,"geojson_lng":5.558335691684711,"geojson_lat":52.171459892872235},"geometry":{"type":"Point","coordinates":[5.558335691684711,52.171459892872235]}},{"type":"Feature","properties":{"highway":"bus_stop","public_transport":"platform","name":"Struik","ref:IFOPT":"NL:Q:50847001","_quaycode":"NL:Q:50847001","_town":"Nijkerk","_status":"available","_mode":"bus","_direction":179,"_visuallyAccessible":false,"_disabledAccessible":false,"geojson_lng":5.60776311307176,"geojson_lat":52.19592377087418},"geometry":{"type":"Point","coordinates":[5.60776311307176,52.19592377087418]}},{"type":"Feature","properties":{"highway":"bus_stop","public_transport":"platform","name":"Buitenlust","ref:IFOPT":"NL:Q:50746005","_quaycode":"NL:Q:50746005","_town":"Voorthuizen","_status":"available","_mode":"bus","_direction":251,"_visuallyAccessible":true,"_disabledAccessible":true,"geojson_lng":5.596893716147371,"geojson_lat":52.183010007058},"geometry":{"type":"Point","coordinates":[5.596893716147371,52.183010007058]}},{"type":"Feature","properties":{"highway":"bus_stop","public_transport":"platform","name":"De Punt","ref:IFOPT":"NL:Q:50746007","_quaycode":"NL:Q:50746007","_town":"Voorthuizen","_status":"available","_mode":"bus","_direction":243,"_visuallyAccessible":true,"_disabledAccessible":true,"geojson_lng":5.602591953197279,"geojson_lat":52.18515683510756},"geometry":{"type":"Point","coordinates":[5.602591953197279,52.18515683510756]}},{"type":"Feature","properties":{"highway":"bus_stop","public_transport":"platform","name":"Buitenlust","ref:IFOPT":"NL:Q:50746006","_quaycode":"NL:Q:50746006","_town":"Voorthuizen","_status":"available","_mode":"bus","_direction":72,"_visuallyAccessible":true,"_disabledAccessible":true,"geojson_lng":5.597786569609642,"geojson_lat":52.18320615000101},"geometry":{"type":"Point","coordinates":[5.597786569609642,52.18320615000101]}},{"type":"Feature","properties":{"highway":"bus_stop","public_transport":"platform","name":"Roelenengweg","ref:IFOPT":"NL:Q:50746010","_quaycode":"NL:Q:50746010","_town":"Voorthuizen","_status":"available","_mode":"bus","_direction":79,"_visuallyAccessible":false,"_disabledAccessible":false,"geojson_lng":5.614673808027154,"geojson_lat":52.1887472889593},"geometry":{"type":"Point","coordinates":[5.614673808027154,52.1887472889593]}},{"type":"Feature","properties":{"highway":"bus_stop","public_transport":"platform","name":"Akkerweg","ref:IFOPT":"NL:Q:50549003","_quaycode":"NL:Q:50549003","_town":"Appel","_status":"available","_mode":"bus","_direction":134,"_visuallyAccessible":false,"_disabledAccessible":false,"geojson_lng":5.539158275032855,"geojson_lat":52.1804201575935},"geometry":{"type":"Point","coordinates":[5.539158275032855,52.1804201575935]}},{"type":"Feature","properties":{"highway":"bus_stop","public_transport":"platform","name":"Oude Ambachten Museum","ref:IFOPT":"NL:Q:50645010","_quaycode":"NL:Q:50645010","_town":"Terschuur","_status":"available","_mode":"bus","_direction":73,"_visuallyAccessible":false,"_disabledAccessible":true,"geojson_lng":5.5552332476333515,"geojson_lat":52.170547588319586},"geometry":{"type":"Point","coordinates":[5.5552332476333515,52.170547588319586]}},{"type":"Feature","properties":{"highway":"bus_stop","public_transport":"platform","name":"Roelenengweg","ref:IFOPT":"NL:Q:50746009","_quaycode":"NL:Q:50746009","_town":"Voorthuizen","_status":"available","_mode":"bus","_direction":259,"_visuallyAccessible":false,"_disabledAccessible":false,"geojson_lng":5.614001035961721,"geojson_lat":52.18873060883071},"geometry":{"type":"Point","coordinates":[5.614001035961721,52.18873060883071]}},{"type":"Feature","properties":{"highway":"bus_stop","public_transport":"platform","name":"Verbindingsweg","ref:IFOPT":"NL:Q:50746003","_quaycode":"NL:Q:50746003","_town":"Voorthuizen","_status":"available","_mode":"bus","_direction":254,"_visuallyAccessible":false,"_disabledAccessible":false,"geojson_lng":5.588884456985328,"geojson_lat":52.180543314391606},"geometry":{"type":"Point","coordinates":[5.588884456985328,52.180543314391606]}}]}