{"type":"FeatureCollection","features":[{"type":"Feature","properties":{"highway":"bus_stop","public_transport":"platform","name":"Landschaplaan","ref:IFOPT":"NL:Q:18000330","_quaycode":"NL:Q:18000330","_town":"Emmen","_status":"available","_mode":"bus","_direction":167,"_visuallyAccessible":false,"_disabledAccessible":true,"geojson_lng":6.919807409070862,"geojson_lat":52.78093490357351},"geometry":{"type":"Point","coordinates":[6.919807409070862,52.78093490357351]}},{"type":"Feature","properties":{"highway":"bus_stop","public_transport":"platform","name":"Statenweg","ref:IFOPT":"NL:Q:18000160","_quaycode":"NL:Q:18000160","_town":"Emmen","_status":"available","_mode":"bus","_direction":272,"_visuallyAccessible":false,"_disabledAccessible":false,"geojson_lng":6.911411709219408,"geojson_lat":52.77906524209856},"geometry":{"type":"Point","coordinates":[6.911411709219408,52.77906524209856]}},{"type":"Feature","properties":{"highway":"bus_stop","public_transport":"platform","name":"Oude Meerdijk","ref:IFOPT":"NL:Q:18000180","_quaycode":"NL:Q:18000180","_town":"Emmen","_status":"available","_mode":"bus","_direction":267,"_visuallyAccessible":false,"_disabledAccessible":true,"geojson_lng":6.916565139545219,"geojson_lat":52.77892728208777},"geometry":{"type":"Point","coordinates":[6.916565139545219,52.77892728208777]}},{"type":"Feature","properties":{"highway":"bus_stop","public_transport":"platform","name":"Statenweg","ref:IFOPT":"NL:Q:18000150","_quaycode":"NL:Q:18000150","_town":"Emmen","_status":"available","_mode":"bus","_direction":92,"_visuallyAccessible":false,"_disabledAccessible":true,"geojson_lng":6.911681642065551,"geojson_lat":52.77872922729158},"geometry":{"type":"Point","coordinates":[6.911681642065551,52.77872922729158]}},{"type":"Feature","properties":{"highway":"bus_stop","public_transport":"platform","name":"Oude Meerdijk","ref:IFOPT":"NL:Q:18000170","_quaycode":"NL:Q:18000170","_town":"Emmen","_status":"available","_mode":"bus","_direction":86,"_visuallyAccessible":false,"_disabledAccessible":true,"geojson_lng":6.917937049028597,"geojson_lat":52.778738885282614},"geometry":{"type":"Point","coordinates":[6.917937049028597,52.778738885282614]}},{"type":"Feature","properties":{"highway":"bus_stop","public_transport":"platform","name":"Oldenhave 2","ref:IFOPT":"NL:Q:18000320","_quaycode":"NL:Q:18000320","_town":"Emmen","_status":"available","_mode":"bus","_direction":265,"_visuallyAccessible":false,"_disabledAccessible":true,"geojson_lng":6.920329306501177,"geojson_lat":52.782716825298785},"geometry":{"type":"Point","coordinates":[6.920329306501177,52.782716825298785]}},{"type":"Feature","properties":{"highway":"bus_stop","public_transport":"platform","name":"Boermarkeweg 23","ref:IFOPT":"NL:Q:18000140","_quaycode":"NL:Q:18000140","_town":"Emmen","_status":"available","_mode":"bus","_direction":14,"_visuallyAccessible":false,"_disabledAccessible":true,"geojson_lng":6.910765918031255,"geojson_lat":52.7818058907182},"geometry":{"type":"Point","coordinates":[6.910765918031255,52.7818058907182]}},{"type":"Feature","properties":{"highway":"bus_stop","public_transport":"platform","name":"Oldenhave 2","ref:IFOPT":"NL:Q:18002320","_quaycode":"NL:Q:18002320","_town":"Emmen","_status":"available","_mode":"bus","_direction":87,"_visuallyAccessible":false,"_disabledAccessible":false,"geojson_lng":6.920000185157979,"geojson_lat":52.782631179418644},"geometry":{"type":"Point","coordinates":[6.920000185157979,52.782631179418644]}},{"type":"Feature","properties":{"highway":"bus_stop","public_transport":"platform","name":"Boermarkeweg 23","ref:IFOPT":"NL:Q:18000130","_quaycode":"NL:Q:18000130","_town":"Emmen","_status":"available","_mode":"bus","_direction":188,"_visuallyAccessible":false,"_disabledAccessible":true,"geojson_lng":6.9102772252818685,"geojson_lat":52.78096725764161},"geometry":{"type":"Point","coordinates":[6.9102772252818685,52.78096725764161]}},{"type":"Feature","properties":{"highway":"bus_stop","public_transport":"platform","name":"Landschaplaan","ref:IFOPT":"NL:Q:18002330","_quaycode":"NL:Q:18002330","_town":"Emmen","_status":"available","_mode":"bus","_direction":349,"_visuallyAccessible":false,"_disabledAccessible":false,"geojson_lng":6.919758517464295,"geojson_lat":52.78123214088864},"geometry":{"type":"Point","coordinates":[6.919758517464295,52.78123214088864]}}]}