{"type":"FeatureCollection","features":[{"type":"Feature","properties":{"highway":"bus_stop","public_transport":"platform","name":"Beeckendael","ref:IFOPT":"NL:Q:63109620","_quaycode":"NL:Q:63109620","_town":"'s-Hertogenbosch","_status":"available","_mode":"bus","_direction":81,"_visuallyAccessible":false,"_disabledAccessible":false,"geojson_lng":5.2440300634645975,"geojson_lat":51.73027517920284},"geometry":{"type":"Point","coordinates":[5.2440300634645975,51.73027517920284]}},{"type":"Feature","properties":{"highway":"bus_stop","public_transport":"platform","name":"Kerk","ref:IFOPT":"NL:Q:63101010","_quaycode":"NL:Q:63101010","_town":"Bokhoven","_status":"available","_mode":"bus","_direction":68,"_visuallyAccessible":false,"_disabledAccessible":false,"geojson_lng":5.234077716492148,"geojson_lat":51.73692306406675},"geometry":{"type":"Point","coordinates":[5.234077716492148,51.73692306406675]}},{"type":"Feature","properties":{"highway":"bus_stop","public_transport":"platform","name":"Haverleij","ref:IFOPT":"NL:Q:63106480","_quaycode":"NL:Q:63106480","_town":"'s-Hertogenbosch","_status":"available","_mode":"bus","_direction":138,"_visuallyAccessible":true,"_disabledAccessible":true,"geojson_lng":5.253142867831272,"geojson_lat":51.727562440605496},"geometry":{"type":"Point","coordinates":[5.253142867831272,51.727562440605496]}},{"type":"Feature","properties":{"highway":"bus_stop","public_transport":"platform","name":"Lelienhuyze","ref:IFOPT":"NL:Q:63109630","_quaycode":"NL:Q:63109630","_town":"'s-Hertogenbosch","_status":"available","_mode":"bus","_direction":119,"_visuallyAccessible":false,"_disabledAccessible":false,"geojson_lng":5.248780949250602,"geojson_lat":51.72926518412828},"geometry":{"type":"Point","coordinates":[5.248780949250602,51.72926518412828]}},{"type":"Feature","properties":{"highway":"bus_stop","public_transport":"platform","name":"Treurenburg","ref:IFOPT":"NL:Q:63010070","_quaycode":"NL:Q:63010070","_town":"'s-Hertogenbosch","_status":"available","_mode":"bus","_direction":291,"_visuallyAccessible":false,"_disabledAccessible":false,"geojson_lng":5.273563625213486,"geojson_lat":51.7342084928454},"geometry":{"type":"Point","coordinates":[5.273563625213486,51.7342084928454]}},{"type":"Feature","properties":{"highway":"bus_stop","public_transport":"platform","name":"Prinses Beatrixstraat","ref:IFOPT":"NL:Q:63010210","_quaycode":"NL:Q:63010210","_town":"Hedel","_status":"available","_mode":"bus","_direction":323,"_visuallyAccessible":false,"_disabledAccessible":false,"geojson_lng":5.268762902824346,"geojson_lat":51.750549338549924},"geometry":{"type":"Point","coordinates":[5.268762902824346,51.750549338549924]}},{"type":"Feature","properties":{"highway":"bus_stop","public_transport":"platform","name":"Uithovensestraat","ref:IFOPT":"NL:Q:63010330","_quaycode":"NL:Q:63010330","_town":"Hedel","_status":"available","_mode":"bus","_direction":300,"_visuallyAccessible":false,"_disabledAccessible":false,"geojson_lng":5.258331658857389,"geojson_lat":51.74541034690383},"geometry":{"type":"Point","coordinates":[5.258331658857389,51.74541034690383]}},{"type":"Feature","properties":{"highway":"bus_stop","public_transport":"platform","name":"Ammerzodenseweg","ref:IFOPT":"NL:Q:62230100","_quaycode":"NL:Q:62230100","_town":"Ammerzoden","_status":"available","_mode":"bus","_direction":90,"_visuallyAccessible":false,"_disabledAccessible":false,"geojson_lng":5.233710422629809,"geojson_lat":51.74703459959047},"geometry":{"type":"Point","coordinates":[5.233710422629809,51.74703459959047]}},{"type":"Feature","properties":{"highway":"bus_stop","public_transport":"platform","name":"Oudewaai","ref:IFOPT":"NL:Q:63010350","_quaycode":"NL:Q:63010350","_town":"Hedel","_status":"available","_mode":"bus","_direction":272,"_visuallyAccessible":false,"_disabledAccessible":false,"geojson_lng":5.247550760472211,"geojson_lat":51.74796870953089},"geometry":{"type":"Point","coordinates":[5.247550760472211,51.74796870953089]}},{"type":"Feature","properties":{"highway":"bus_stop","public_transport":"platform","name":"Uithovensestraat","ref:IFOPT":"NL:Q:63010340","_quaycode":"NL:Q:63010340","_town":"Hedel","_status":"available","_mode":"bus","_direction":120,"_visuallyAccessible":false,"_disabledAccessible":false,"geojson_lng":5.258636347701447,"geojson_lat":51.745194958268904},"geometry":{"type":"Point","coordinates":[5.258636347701447,51.745194958268904]}},{"type":"Feature","properties":{"highway":"bus_stop","public_transport":"platform","name":"Brandweerkazerne","ref:IFOPT":"NL:Q:63010370","_quaycode":"NL:Q:63010370","_town":"Hedel","_status":"available","_mode":"bus","_direction":135,"_visuallyAccessible":null,"_disabledAccessible":null,"geojson_lng":5.25294064817841,"geojson_lat":51.74690537472614},"geometry":{"type":"Point","coordinates":[5.25294064817841,51.74690537472614]}},{"type":"Feature","properties":{"highway":"bus_stop","public_transport":"platform","name":"Blankensteijn","ref:IFOPT":"NL:Q:63010140","_quaycode":"NL:Q:63010140","_town":"Hedel","_status":"available","_mode":"bus","_direction":99,"_visuallyAccessible":false,"_disabledAccessible":true,"geojson_lng":5.2621159068469545,"geojson_lat":51.743571809269866},"geometry":{"type":"Point","coordinates":[5.2621159068469545,51.743571809269866]}},{"type":"Feature","properties":{"highway":"bus_stop","public_transport":"platform","name":"Ammerzodenseweg","ref:IFOPT":"NL:Q:62230110","_quaycode":"NL:Q:62230110","_town":"Ammerzoden","_status":"available","_mode":"bus","_direction":269,"_visuallyAccessible":false,"_disabledAccessible":false,"geojson_lng":5.2387590889967415,"geojson_lat":51.74855115511372},"geometry":{"type":"Point","coordinates":[5.2387590889967415,51.74855115511372]}},{"type":"Feature","properties":{"highway":"bus_stop","public_transport":"platform","name":"Breedstraat","ref:IFOPT":"NL:Q:63011050","_quaycode":"NL:Q:63011050","_town":"Hedel","_status":"available","_mode":"bus","_direction":230,"_visuallyAccessible":false,"_disabledAccessible":false,"geojson_lng":5.265114898302656,"geojson_lat":51.75012143147292},"geometry":{"type":"Point","coordinates":[5.265114898302656,51.75012143147292]}},{"type":"Feature","properties":{"highway":"bus_stop","public_transport":"platform","name":"Blankensteijn","ref:IFOPT":"NL:Q:63010150","_quaycode":"NL:Q:63010150","_town":"Hedel","_status":"available","_mode":"bus","_direction":270,"_visuallyAccessible":true,"_disabledAccessible":true,"geojson_lng":5.262492390123004,"geojson_lat":51.7435901864256},"geometry":{"type":"Point","coordinates":[5.262492390123004,51.7435901864256]}},{"type":"Feature","properties":{"highway":"bus_stop","public_transport":"platform","name":"Breedstraat","ref:IFOPT":"NL:Q:63011080","_quaycode":"NL:Q:63011080","_town":"Hedel","_status":"available","_mode":"bus","_direction":323,"_visuallyAccessible":false,"_disabledAccessible":false,"geojson_lng":5.2652641376339675,"geojson_lat":51.749994648094635},"geometry":{"type":"Point","coordinates":[5.2652641376339675,51.749994648094635]}},{"type":"Feature","properties":{"highway":"bus_stop","public_transport":"platform","name":"Oudewaai","ref:IFOPT":"NL:Q:63010360","_quaycode":"NL:Q:63010360","_town":"Hedel","_status":"available","_mode":"bus","_direction":100,"_visuallyAccessible":false,"_disabledAccessible":false,"geojson_lng":5.249158985640034,"geojson_lat":51.747682981961084},"geometry":{"type":"Point","coordinates":[5.249158985640034,51.747682981961084]}},{"type":"Feature","properties":{"highway":"bus_stop","public_transport":"platform","name":"Prinses Beatrixstraat","ref:IFOPT":"NL:Q:63010240","_quaycode":"NL:Q:63010240","_town":"Hedel","_status":"available","_mode":"bus","_direction":149,"_visuallyAccessible":false,"_disabledAccessible":false,"geojson_lng":5.268159545275596,"geojson_lat":51.751210449849246},"geometry":{"type":"Point","coordinates":[5.268159545275596,51.751210449849246]}},{"type":"Feature","properties":{"highway":"bus_stop","public_transport":"platform","name":"Haverleij","ref:IFOPT":"NL:Q:63106520","_quaycode":"NL:Q:63106520","_town":"Engelen","_status":"available","_mode":"bus","_direction":330,"_visuallyAccessible":false,"_disabledAccessible":true,"geojson_lng":5.25328755528401,"geojson_lat":51.727580582787304},"geometry":{"type":"Point","coordinates":[5.25328755528401,51.727580582787304]}}]}