{"type":"FeatureCollection","features":[{"type":"Feature","properties":{"highway":"bus_stop","public_transport":"platform","name":"Burg. van Damstraat","ref:IFOPT":"NL:Q:30000258","_quaycode":"NL:Q:30000258","_town":"Duivendrecht","_status":"available","_mode":"bus","_direction":200,"_visuallyAccessible":false,"_disabledAccessible":true,"geojson_lng":4.941797788328193,"geojson_lat":52.33498883241145},"geometry":{"type":"Point","coordinates":[4.941797788328193,52.33498883241145]}},{"type":"Feature","properties":{"highway":"bus_stop","public_transport":"platform","name":"Astronautenweg","ref:IFOPT":"NL:Q:30000268","_quaycode":"NL:Q:30000268","_town":"Duivendrecht","_status":"available","_mode":"bus","_direction":98,"_visuallyAccessible":false,"_disabledAccessible":false,"geojson_lng":4.934206081755537,"geojson_lat":52.329854968781554},"geometry":{"type":"Point","coordinates":[4.934206081755537,52.329854968781554]}},{"type":"Feature","properties":{"highway":"bus_stop","public_transport":"platform","name":"Plataanstraat","ref:IFOPT":"NL:Q:30000370","_quaycode":"NL:Q:30000370","_town":"Duivendrecht","_status":"available","_mode":"bus","_direction":204,"_visuallyAccessible":true,"_disabledAccessible":false,"geojson_lng":4.940972406317161,"geojson_lat":52.33244218920993},"geometry":{"type":"Point","coordinates":[4.940972406317161,52.33244218920993]}},{"type":"Feature","properties":{"highway":"bus_stop","public_transport":"platform","name":"Korenbloemstraat","ref:IFOPT":"NL:Q:30000266","_quaycode":"NL:Q:30000266","_town":"Duivendrecht","_status":"available","_mode":"bus","_direction":199,"_visuallyAccessible":false,"_disabledAccessible":true,"geojson_lng":4.939914304298336,"geojson_lat":52.3297059163223},"geometry":{"type":"Point","coordinates":[4.939914304298336,52.3297059163223]}},{"type":"Feature","properties":{"highway":"bus_stop","public_transport":"platform","name":"Korenbloemstraat","ref:IFOPT":"NL:Q:30000267","_quaycode":"NL:Q:30000267","_town":"Duivendrecht","_status":"available","_mode":"bus","_direction":18,"_visuallyAccessible":false,"_disabledAccessible":false,"geojson_lng":4.940101842883189,"geojson_lat":52.3300211966426},"geometry":{"type":"Point","coordinates":[4.940101842883189,52.3300211966426]}},{"type":"Feature","properties":{"highway":"bus_stop","public_transport":"platform","name":"Plataanstraat","ref:IFOPT":"NL:Q:30000371","_quaycode":"NL:Q:30000371","_town":"Duivendrecht","_status":"available","_mode":"bus","_direction":25,"_visuallyAccessible":true,"_disabledAccessible":true,"geojson_lng":4.941060971216279,"geojson_lat":52.332388596624305},"geometry":{"type":"Point","coordinates":[4.941060971216279,52.332388596624305]}},{"type":"Feature","properties":{"highway":"bus_stop","public_transport":"platform","name":"Burg. van Damstraat","ref:IFOPT":"NL:Q:30000259","_quaycode":"NL:Q:30000259","_town":"Duivendrecht","_status":"available","_mode":"bus","_direction":18,"_visuallyAccessible":false,"_disabledAccessible":true,"geojson_lng":4.9419265864731425,"geojson_lat":52.33531287606537},"geometry":{"type":"Point","coordinates":[4.9419265864731425,52.33531287606537]}}]}