{"type":"FeatureCollection","features":[{"type":"Feature","properties":{"highway":"bus_stop","public_transport":"platform","name":"Willem van Noortstraat","ref:IFOPT":"NL:Q:50001840","_quaycode":"NL:Q:50001840","_town":"Utrecht","_status":"available","_mode":"bus","_direction":47,"_visuallyAccessible":true,"_disabledAccessible":true,"geojson_lng":5.120234996268227,"geojson_lat":52.10076274313027},"geometry":{"type":"Point","coordinates":[5.120234996268227,52.10076274313027]}},{"type":"Feature","properties":{"highway":"bus_stop","public_transport":"platform","name":"Eykmanplein","ref:IFOPT":"NL:Q:50000300","_quaycode":"NL:Q:50000300","_town":"Utrecht","_status":"available","_mode":"bus","_direction":198,"_visuallyAccessible":true,"_disabledAccessible":true,"geojson_lng":5.129786797092834,"geojson_lat":52.10212319805139},"geometry":{"type":"Point","coordinates":[5.129786797092834,52.10212319805139]}},{"type":"Feature","properties":{"highway":"bus_stop","public_transport":"platform","name":"Willem van Noortplein","ref:IFOPT":"NL:Q:50001820","_quaycode":"NL:Q:50001820","_town":"Utrecht","_status":"available","_mode":"bus","_direction":331,"_visuallyAccessible":true,"_disabledAccessible":true,"geojson_lng":5.123098521965474,"geojson_lat":52.10273757333291},"geometry":{"type":"Point","coordinates":[5.123098521965474,52.10273757333291]}},{"type":"Feature","properties":{"highway":"bus_stop","public_transport":"platform","name":"Juliusstraat","ref:IFOPT":"NL:Q:50003320","_quaycode":"NL:Q:50003320","_town":"Utrecht","_status":"available","_mode":"bus","_direction":289,"_visuallyAccessible":true,"_disabledAccessible":true,"geojson_lng":5.1259185128104905,"geojson_lat":52.10471223649821},"geometry":{"type":"Point","coordinates":[5.1259185128104905,52.10471223649821]}},{"type":"Feature","properties":{"highway":"bus_stop","public_transport":"platform","name":"Juliusstraat","ref:IFOPT":"NL:Q:50003310","_quaycode":"NL:Q:50003310","_town":"Utrecht","_status":"available","_mode":"bus","_direction":107,"_visuallyAccessible":true,"_disabledAccessible":true,"geojson_lng":5.127074991579588,"geojson_lat":52.104130570056796},"geometry":{"type":"Point","coordinates":[5.127074991579588,52.104130570056796]}},{"type":"Feature","properties":{"highway":"bus_stop","public_transport":"platform","name":"Eykmanplein","ref:IFOPT":"NL:Q:50000290","_quaycode":"NL:Q:50000290","_town":"Utrecht","_status":"available","_mode":"bus","_direction":18,"_visuallyAccessible":true,"_disabledAccessible":true,"geojson_lng":5.129860496678042,"geojson_lat":52.10199752624445},"geometry":{"type":"Point","coordinates":[5.129860496678042,52.10199752624445]}},{"type":"Feature","properties":{"highway":"bus_stop","public_transport":"platform","name":"Willem van Noortplein","ref:IFOPT":"NL:Q:50001810","_quaycode":"NL:Q:50001810","_town":"Utrecht","_status":"available","_mode":"bus","_direction":225,"_visuallyAccessible":true,"_disabledAccessible":true,"geojson_lng":5.122634396401031,"geojson_lat":52.10224219043415},"geometry":{"type":"Point","coordinates":[5.122634396401031,52.10224219043415]}}]}