{"type":"FeatureCollection","features":[{"type":"Feature","properties":{"highway":"bus_stop","public_transport":"platform","name":"Hugo van Rijkenlaan","ref:IFOPT":"NL:Q:42074501","_quaycode":"NL:Q:42074501","_town":"Delft","_status":"available","_mode":"bus","_direction":334,"_visuallyAccessible":true,"_disabledAccessible":true,"geojson_lng":4.367901021854507,"geojson_lat":52.01339591508376},"geometry":{"type":"Point","coordinates":[4.367901021854507,52.01339591508376]}},{"type":"Feature","properties":{"highway":"bus_stop","public_transport":"platform","name":"De Bieslandhof","ref:IFOPT":"NL:Q:42001401","_quaycode":"NL:Q:42001401","_town":"Delft","_status":"available","_mode":"bus","_direction":150,"_visuallyAccessible":true,"_disabledAccessible":true,"geojson_lng":4.365947820324734,"geojson_lat":52.01536549815517},"geometry":{"type":"Point","coordinates":[4.365947820324734,52.01536549815517]}},{"type":"Feature","properties":{"highway":"bus_stop","public_transport":"platform","name":"Nieuwe Langendijk","ref:IFOPT":"NL:Q:42005102","_quaycode":"NL:Q:42005102","_town":"Delft","_status":"available","_mode":"bus","_direction":52,"_visuallyAccessible":true,"_disabledAccessible":true,"geojson_lng":4.364229690500702,"geojson_lat":52.013409010516305},"geometry":{"type":"Point","coordinates":[4.364229690500702,52.013409010516305]}},{"type":"Feature","properties":{"highway":"bus_stop","public_transport":"platform","name":"Burgwal","ref:IFOPT":"NL:Q:42002001","_quaycode":"NL:Q:42002001","_town":"Delft","_status":"available","_mode":"bus","_direction":57,"_visuallyAccessible":true,"_disabledAccessible":true,"geojson_lng":4.362039536233488,"geojson_lat":52.012356249161954},"geometry":{"type":"Point","coordinates":[4.362039536233488,52.012356249161954]}},{"type":"Feature","properties":{"highway":"bus_stop","public_transport":"platform","name":"Burgwal","ref:IFOPT":"NL:Q:42002002","_quaycode":"NL:Q:42002002","_town":"Delft","_status":"available","_mode":"bus","_direction":235,"_visuallyAccessible":true,"_disabledAccessible":true,"geojson_lng":4.3616748824332525,"geojson_lat":52.01238003760546},"geometry":{"type":"Point","coordinates":[4.3616748824332525,52.01238003760546]}},{"type":"Feature","properties":{"highway":"bus_stop","public_transport":"platform","name":"Nieuwe Langendijk","ref:IFOPT":"NL:Q:42005101","_quaycode":"NL:Q:42005101","_town":"Delft","_status":"available","_mode":"bus","_direction":234,"_visuallyAccessible":true,"_disabledAccessible":true,"geojson_lng":4.3639530315435096,"geojson_lat":52.01340660453278},"geometry":{"type":"Point","coordinates":[4.3639530315435096,52.01340660453278]}},{"type":"Feature","properties":{"highway":"bus_stop","public_transport":"platform","name":"De Bieslandhof","ref:IFOPT":"NL:Q:42001402","_quaycode":"NL:Q:42001402","_town":"Delft","_status":"available","_mode":"bus","_direction":328,"_visuallyAccessible":true,"_disabledAccessible":true,"geojson_lng":4.36503680185297,"geojson_lat":52.01634635284201},"geometry":{"type":"Point","coordinates":[4.36503680185297,52.01634635284201]}},{"type":"Feature","properties":{"highway":"bus_stop","public_transport":"platform","name":"Bieslandsekade","ref:IFOPT":"NL:Q:42001501","_quaycode":"NL:Q:42001501","_town":"Delft","_status":"available","_mode":"bus","_direction":138,"_visuallyAccessible":true,"_disabledAccessible":true,"geojson_lng":4.370819401882792,"geojson_lat":52.01446384505449},"geometry":{"type":"Point","coordinates":[4.370819401882792,52.01446384505449]}},{"type":"Feature","properties":{"highway":"bus_stop","public_transport":"platform","name":"Bieslandsekade","ref:IFOPT":"NL:Q:42001502","_quaycode":"NL:Q:42001502","_town":"Delft","_status":"available","_mode":"bus","_direction":318,"_visuallyAccessible":true,"_disabledAccessible":true,"geojson_lng":4.370789456958914,"geojson_lat":52.014499541453226},"geometry":{"type":"Point","coordinates":[4.370789456958914,52.014499541453226]}},{"type":"Feature","properties":{"highway":"bus_stop","public_transport":"platform","name":"Hugo van Rijkenlaan","ref:IFOPT":"NL:Q:42074502","_quaycode":"NL:Q:42074502","_town":"Delft","_status":"available","_mode":"bus","_direction":154,"_visuallyAccessible":true,"_disabledAccessible":true,"geojson_lng":4.367949211733563,"geojson_lat":52.013198579951016},"geometry":{"type":"Point","coordinates":[4.367949211733563,52.013198579951016]}}]}