{"type":"FeatureCollection","features":[{"type":"Feature","properties":{"SeqNo":"835219","Type":"S","DHID":"de:14523:891","Parent":"de:14523:891","Name":"Hartmannsgrün, Kulturhaus","MunicipalityCode":"14523430","Municipality":"Treuen","DistrictCode":"","District":"","Description":"","Authority":"VVO","DelfiName":"-","THID":"D938BB00037B","LastOperationDate":"2025-06-14T00:00:00","SEV":"nein","longitude":"12,29031","latitude":"50,560429","geojson_lng":12.29031,"geojson_lat":50.560429},"geometry":{"type":"Point","coordinates":[12.29031,50.560429]}},{"type":"Feature","properties":{"SeqNo":"835220","Type":"A","DHID":"de:14523:891:2","Parent":"de:14523:891","Name":"Bus","MunicipalityCode":"00000000","Municipality":"-","DistrictCode":"-","District":"-","Description":"","Authority":"VVO","DelfiName":"-","THID":"-","LastOperationDate":"","SEV":"nein","longitude":"12,290328","latitude":"50,560418","geojson_lng":12.290328,"geojson_lat":50.560418},"geometry":{"type":"Point","coordinates":[12.290328,50.560418]}},{"type":"Feature","properties":{"SeqNo":"835221","Type":"Q","DHID":"de:14523:891:2:1","Parent":"de:14523:891:2","Name":"A R Reichenbach","MunicipalityCode":"00000000","Municipality":"-","DistrictCode":"-","District":"-","Description":"","Authority":"VVO","DelfiName":"-","THID":"-","LastOperationDate":"","SEV":"nein","longitude":"12,290211","latitude":"50,560498","geojson_lng":12.290211,"geojson_lat":50.560498},"geometry":{"type":"Point","coordinates":[12.290211,50.560498]}},{"type":"Feature","properties":{"SeqNo":"835222","Type":"Q","DHID":"de:14523:891:2:2","Parent":"de:14523:891:2","Name":"B R Treuen","MunicipalityCode":"00000000","Municipality":"-","DistrictCode":"-","District":"-","Description":"","Authority":"VVO","DelfiName":"-","THID":"-","LastOperationDate":"","SEV":"nein","longitude":"12,290426","latitude":"50,560309","geojson_lng":12.290426,"geojson_lat":50.560309},"geometry":{"type":"Point","coordinates":[12.290426,50.560309]}},{"type":"Feature","properties":{"SeqNo":"835223","Type":"S","DHID":"de:14523:893","Parent":"de:14523:893","Name":"Hartmannsgrün, Feuerwehr","MunicipalityCode":"14523430","Municipality":"Treuen","DistrictCode":"","District":"","Description":"","Authority":"VVO","DelfiName":"-","THID":"D938BB00037D","LastOperationDate":"2025-06-14T00:00:00","SEV":"nein","longitude":"12,293858","latitude":"50,558038","geojson_lng":12.293858,"geojson_lat":50.558038},"geometry":{"type":"Point","coordinates":[12.293858,50.558038]}},{"type":"Feature","properties":{"SeqNo":"835224","Type":"A","DHID":"de:14523:893:2","Parent":"de:14523:893","Name":"Bus","MunicipalityCode":"00000000","Municipality":"-","DistrictCode":"-","District":"-","Description":"","Authority":"VVO","DelfiName":"-","THID":"-","LastOperationDate":"","SEV":"nein","longitude":"12,293858","latitude":"50,558044","geojson_lng":12.293858,"geojson_lat":50.558044},"geometry":{"type":"Point","coordinates":[12.293858,50.558044]}},{"type":"Feature","properties":{"SeqNo":"835225","Type":"Q","DHID":"de:14523:893:2:1","Parent":"de:14523:893:2","Name":"A R Reichenbach","MunicipalityCode":"00000000","Municipality":"-","DistrictCode":"-","District":"-","Description":"","Authority":"VVO","DelfiName":"-","THID":"-","LastOperationDate":"","SEV":"nein","longitude":"12,292969","latitude":"50,558683","geojson_lng":12.292969,"geojson_lat":50.558683},"geometry":{"type":"Point","coordinates":[12.292969,50.558683]}}]}