{"type":"FeatureCollection","features":[{"type":"Feature","properties":{"SeqNo":"861497","Type":"S","DHID":"de:14628:3388","Parent":"de:14628:3388","Name":"Pirna Landratsamt","MunicipalityCode":"14628270","Municipality":"Pirna","DistrictCode":"","District":"","Description":"","Authority":"VVO","DelfiName":"Pirna, Landratsamt","THID":"D93924000D3C","LastOperationDate":"2025-02-28T00:00:00","SEV":"nein","longitude":"13,947513","latitude":"50,959506","geojson_lng":13.947513,"geojson_lat":50.959506},"geometry":{"type":"Point","coordinates":[13.947513,50.959506]}},{"type":"Feature","properties":{"SeqNo":"861498","Type":"Q","DHID":"de:14628:3388:0:1","Parent":"de:14628:3388","Name":"1","MunicipalityCode":"00000000","Municipality":"-","DistrictCode":"-","District":"-","Description":"","Authority":"VVO","DelfiName":"-","THID":"-","LastOperationDate":"","SEV":"nein","longitude":"13,947611","latitude":"50,959376","geojson_lng":13.947611,"geojson_lat":50.959376},"geometry":{"type":"Point","coordinates":[13.947611,50.959376]}},{"type":"Feature","properties":{"SeqNo":"861499","Type":"Q","DHID":"de:14628:3388:0:2","Parent":"de:14628:3388","Name":"2","MunicipalityCode":"00000000","Municipality":"-","DistrictCode":"-","District":"-","Description":"","Authority":"VVO","DelfiName":"-","THID":"-","LastOperationDate":"","SEV":"nein","longitude":"13,947656","latitude":"50,959512","geojson_lng":13.947656,"geojson_lat":50.959512},"geometry":{"type":"Point","coordinates":[13.947656,50.959512]}},{"type":"Feature","properties":{"SeqNo":"861595","Type":"S","DHID":"de:14628:3421","Parent":"de:14628:3421","Name":"Pirna Lange Straße/Steinplatz","MunicipalityCode":"14628270","Municipality":"Pirna","DistrictCode":"","District":"","Description":"","Authority":"VVO","DelfiName":"Pirna, Lange Straße/Steinplatz","THID":"D93924000D5D","LastOperationDate":"1999-12-31T00:00:00","SEV":"nein","longitude":"13,945411","latitude":"50,963314","geojson_lng":13.945411,"geojson_lat":50.963314},"geometry":{"type":"Point","coordinates":[13.945411,50.963314]}},{"type":"Feature","properties":{"SeqNo":"861596","Type":"Q","DHID":"de:14628:3421:0:1","Parent":"de:14628:3421","Name":"","MunicipalityCode":"00000000","Municipality":"-","DistrictCode":"-","District":"-","Description":"","Authority":"VVO","DelfiName":"-","THID":"-","LastOperationDate":"","SEV":"nein","longitude":"13,945411","latitude":"50,963314","geojson_lng":13.945411,"geojson_lat":50.963314},"geometry":{"type":"Point","coordinates":[13.945411,50.963314]}},{"type":"Feature","properties":{"SeqNo":"861597","Type":"S","DHID":"de:14628:3422","Parent":"de:14628:3422","Name":"Pirna Badergasse (Markt)","MunicipalityCode":"14628270","Municipality":"Pirna","DistrictCode":"","District":"","Description":"","Authority":"VVO","DelfiName":"Pirna, Badergasse (Markt)","THID":"D93924000D5E","LastOperationDate":"1999-12-31T00:00:00","SEV":"nein","longitude":"13,941871","latitude":"50,962692","geojson_lng":13.941871,"geojson_lat":50.962692},"geometry":{"type":"Point","coordinates":[13.941871,50.962692]}},{"type":"Feature","properties":{"SeqNo":"861598","Type":"Q","DHID":"de:14628:3422:0:1","Parent":"de:14628:3422","Name":"","MunicipalityCode":"00000000","Municipality":"-","DistrictCode":"-","District":"-","Description":"","Authority":"VVO","DelfiName":"-","THID":"-","LastOperationDate":"","SEV":"nein","longitude":"13,941871","latitude":"50,962692","geojson_lng":13.941871,"geojson_lat":50.962692},"geometry":{"type":"Point","coordinates":[13.941871,50.962692]}},{"type":"Feature","properties":{"SeqNo":"861601","Type":"S","DHID":"de:14628:3424","Parent":"de:14628:3424","Name":"Pirna Obere Burgstraße","MunicipalityCode":"14628270","Municipality":"Pirna","DistrictCode":"","District":"","Description":"","Authority":"VVO","DelfiName":"Pirna, Obere Burgstraße","THID":"D93924000D60","LastOperationDate":"1999-12-31T00:00:00","SEV":"nein","longitude":"13,944","latitude":"50,961215","geojson_lng":13.944,"geojson_lat":50.961215},"geometry":{"type":"Point","coordinates":[13.944,50.961215]}},{"type":"Feature","properties":{"SeqNo":"861602","Type":"Q","DHID":"de:14628:3424:0:1","Parent":"de:14628:3424","Name":"","MunicipalityCode":"00000000","Municipality":"-","DistrictCode":"-","District":"-","Description":"","Authority":"VVO","DelfiName":"-","THID":"-","LastOperationDate":"","SEV":"nein","longitude":"13,944","latitude":"50,961215","geojson_lng":13.944,"geojson_lat":50.961215},"geometry":{"type":"Point","coordinates":[13.944,50.961215]}},{"type":"Feature","properties":{"SeqNo":"861603","Type":"S","DHID":"de:14628:3425","Parent":"de:14628:3425","Name":"Pirna Nicolaistraße","MunicipalityCode":"14628270","Municipality":"Pirna","DistrictCode":"","District":"","Description":"","Authority":"VVO","DelfiName":"Pirna, Nicolaistraße","THID":"D93924000D61","LastOperationDate":"1999-12-31T00:00:00","SEV":"nein","longitude":"13,942069","latitude":"50,959642","geojson_lng":13.942069,"geojson_lat":50.959642},"geometry":{"type":"Point","coordinates":[13.942069,50.959642]}},{"type":"Feature","properties":{"SeqNo":"861604","Type":"Q","DHID":"de:14628:3425:0:1","Parent":"de:14628:3425","Name":"","MunicipalityCode":"00000000","Municipality":"-","DistrictCode":"-","District":"-","Description":"","Authority":"VVO","DelfiName":"-","THID":"-","LastOperationDate":"","SEV":"nein","longitude":"13,942069","latitude":"50,959642","geojson_lng":13.942069,"geojson_lat":50.959642},"geometry":{"type":"Point","coordinates":[13.942069,50.959642]}}]}