{"type":"FeatureCollection","features":[{"type":"Feature","properties":{"SeqNo":"835060","Type":"S","DHID":"de:14523:846","Parent":"de:14523:846","Name":"Zwota, Rathaus","MunicipalityCode":"14523160","Municipality":"Klingenthal","DistrictCode":"","District":"","Description":"","Authority":"VVO","DelfiName":"-","THID":"D938BB00034E","LastOperationDate":"2025-06-14T00:00:00","SEV":"nein","longitude":"12,425767","latitude":"50,352105","geojson_lng":12.425767,"geojson_lat":50.352105},"geometry":{"type":"Point","coordinates":[12.425767,50.352105]}},{"type":"Feature","properties":{"SeqNo":"835061","Type":"A","DHID":"de:14523:846:2","Parent":"de:14523:846","Name":"Bus","MunicipalityCode":"00000000","Municipality":"-","DistrictCode":"-","District":"-","Description":"","Authority":"VVO","DelfiName":"-","THID":"-","LastOperationDate":"","SEV":"nein","longitude":"12,425793","latitude":"50,352105","geojson_lng":12.425793,"geojson_lat":50.352105},"geometry":{"type":"Point","coordinates":[12.425793,50.352105]}},{"type":"Feature","properties":{"SeqNo":"835062","Type":"Q","DHID":"de:14523:846:2:1","Parent":"de:14523:846:2","Name":"A R Bad Elster","MunicipalityCode":"00000000","Municipality":"-","DistrictCode":"-","District":"-","Description":"","Authority":"VVO","DelfiName":"-","THID":"-","LastOperationDate":"","SEV":"nein","longitude":"12,425793","latitude":"50,352139","geojson_lng":12.425793,"geojson_lat":50.352139},"geometry":{"type":"Point","coordinates":[12.425793,50.352139]}},{"type":"Feature","properties":{"SeqNo":"835063","Type":"Q","DHID":"de:14523:846:2:2","Parent":"de:14523:846:2","Name":"B R Klingenthal","MunicipalityCode":"00000000","Municipality":"-","DistrictCode":"-","District":"-","Description":"","Authority":"VVO","DelfiName":"-","THID":"-","LastOperationDate":"","SEV":"nein","longitude":"12,425749","latitude":"50,352025","geojson_lng":12.425749,"geojson_lat":50.352025},"geometry":{"type":"Point","coordinates":[12.425749,50.352025]}},{"type":"Feature","properties":{"SeqNo":"835064","Type":"Q","DHID":"de:14523:846:2:M1","Parent":"de:14523:846:2","Name":"M1 R Bad Elster","MunicipalityCode":"00000000","Municipality":"-","DistrictCode":"-","District":"-","Description":"","Authority":"VVO","DelfiName":"-","THID":"-","LastOperationDate":"","SEV":"nein","longitude":"12,425749","latitude":"50,352151","geojson_lng":12.425749,"geojson_lat":50.352151},"geometry":{"type":"Point","coordinates":[12.425749,50.352151]}},{"type":"Feature","properties":{"SeqNo":"835065","Type":"Q","DHID":"de:14523:846:2:M2","Parent":"de:14523:846:2","Name":"M2 R Klingenthal","MunicipalityCode":"00000000","Municipality":"-","DistrictCode":"-","District":"-","Description":"","Authority":"VVO","DelfiName":"-","THID":"-","LastOperationDate":"","SEV":"nein","longitude":"12,425793","latitude":"50,352065","geojson_lng":12.425793,"geojson_lat":50.352065},"geometry":{"type":"Point","coordinates":[12.425793,50.352065]}}]}