{"type":"FeatureCollection","features":[{"type":"Feature","properties":{"SeqNo":"630612","Type":"S","DHID":"de:05711:10365","Parent":"de:05711:10365","Name":"Bi-Brake, Marktplatz","MunicipalityCode":"05711000","Municipality":"Bielefeld","DistrictCode":"-","District":"-","Description":"","Authority":"VRR","DelfiName":"-","THID":"D9164F00287D","LastOperationDate":"2025-01-06T00:00:00","SEV":"nein","longitude":"8,604172","latitude":"52,071467","geojson_lng":8.604172,"geojson_lat":52.071467},"geometry":{"type":"Point","coordinates":[8.604172,52.071467]}},{"type":"Feature","properties":{"SeqNo":"631062","Type":"S","DHID":"de:05711:5060","Parent":"de:05711:5060","Name":"Bielefeld, Brake Bahnhof","MunicipalityCode":"05711000","Municipality":"Bielefeld","DistrictCode":"","District":"","Description":"","Authority":"VRR","DelfiName":"-","THID":"D9164F0013C4","LastOperationDate":"2025-01-04T00:00:00","SEV":"nein","longitude":"8,604908","latitude":"52,069656","geojson_lng":8.604908,"geojson_lat":52.069656},"geometry":{"type":"Point","coordinates":[8.604908,52.069656]}},{"type":"Feature","properties":{"SeqNo":"631063","Type":"A","DHID":"de:05711:5060:1","Parent":"de:05711:5060","Name":"Zugang","MunicipalityCode":"00000000","Municipality":"-","DistrictCode":"-","District":"-","Description":"","Authority":"VRR","DelfiName":"-","THID":"-","LastOperationDate":"","SEV":"nein","longitude":"8,606193","latitude":"52,069745","geojson_lng":8.606193,"geojson_lat":52.069745},"geometry":{"type":"Point","coordinates":[8.606193,52.069745]}},{"type":"Feature","properties":{"SeqNo":"631064","Type":"A","DHID":"de:05711:5060:30","Parent":"de:05711:5060","Name":"Bahn","MunicipalityCode":"00000000","Municipality":"-","DistrictCode":"-","District":"-","Description":"","Authority":"VRR","DelfiName":"-","THID":"-","LastOperationDate":"","SEV":"nein","longitude":"8,604684","latitude":"52,069529","geojson_lng":8.604684,"geojson_lat":52.069529},"geometry":{"type":"Point","coordinates":[8.604684,52.069529]}},{"type":"Feature","properties":{"SeqNo":"631065","Type":"A","DHID":"de:05711:5060:71","Parent":"de:05711:5060","Name":"Bus","MunicipalityCode":"00000000","Municipality":"-","DistrictCode":"-","District":"-","Description":"","Authority":"VRR","DelfiName":"-","THID":"-","LastOperationDate":"","SEV":"nein","longitude":"8,607657","latitude":"52,069297","geojson_lng":8.607657,"geojson_lat":52.069297},"geometry":{"type":"Point","coordinates":[8.607657,52.069297]}},{"type":"Feature","properties":{"SeqNo":"631066","Type":"A","DHID":"de:05711:5060:89","Parent":"de:05711:5060","Name":"Schienenersatzv.","MunicipalityCode":"00000000","Municipality":"-","DistrictCode":"-","District":"-","Description":"","Authority":"VRR","DelfiName":"-","THID":"-","LastOperationDate":"","SEV":"nein","longitude":"8,607702","latitude":"52,069292","geojson_lng":8.607702,"geojson_lat":52.069292},"geometry":{"type":"Point","coordinates":[8.607702,52.069292]}},{"type":"Feature","properties":{"SeqNo":"631067","Type":"A","DHID":"de:05711:5060:91","Parent":"de:05711:5060","Name":"Bahnsteig 1","MunicipalityCode":"00000000","Municipality":"-","DistrictCode":"-","District":"-","Description":"","Authority":"VRR","DelfiName":"-","THID":"-","LastOperationDate":"","SEV":"nein","longitude":"8,604567","latitude":"52,069435","geojson_lng":8.604567,"geojson_lat":52.069435},"geometry":{"type":"Point","coordinates":[8.604567,52.069435]}},{"type":"Feature","properties":{"SeqNo":"631068","Type":"Q","DHID":"de:05711:5060:71:71","Parent":"de:05711:5060:71","Name":"Welscher","MunicipalityCode":"00000000","Municipality":"-","DistrictCode":"-","District":"-","Description":"","Authority":"VRR","DelfiName":"-","THID":"-","LastOperationDate":"","SEV":"nein","longitude":"8,607792","latitude":"52,069214","geojson_lng":8.607792,"geojson_lat":52.069214},"geometry":{"type":"Point","coordinates":[8.607792,52.069214]}},{"type":"Feature","properties":{"SeqNo":"631069","Type":"Q","DHID":"de:05711:5060:71:72","Parent":"de:05711:5060:71","Name":"Ladestraße","MunicipalityCode":"00000000","Municipality":"-","DistrictCode":"-","District":"-","Description":"","Authority":"VRR","DelfiName":"-","THID":"-","LastOperationDate":"","SEV":"nein","longitude":"8,607522","latitude":"52,069375","geojson_lng":8.607522,"geojson_lat":52.069375},"geometry":{"type":"Point","coordinates":[8.607522,52.069375]}},{"type":"Feature","properties":{"SeqNo":"631070","Type":"Q","DHID":"de:05711:5060:91:91","Parent":"de:05711:5060:91","Name":"Gleis 1","MunicipalityCode":"00000000","Municipality":"-","DistrictCode":"-","District":"-","Description":"","Authority":"VRR","DelfiName":"-","THID":"-","LastOperationDate":"","SEV":"nein","longitude":"8,604333","latitude":"52,069303","geojson_lng":8.604333,"geojson_lat":52.069303},"geometry":{"type":"Point","coordinates":[8.604333,52.069303]}},{"type":"Feature","properties":{"SeqNo":"631071","Type":"Q","DHID":"de:05711:5060:91:92","Parent":"de:05711:5060:91","Name":"Gleis 2","MunicipalityCode":"00000000","Municipality":"-","DistrictCode":"-","District":"-","Description":"","Authority":"VRR","DelfiName":"-","THID":"-","LastOperationDate":"","SEV":"nein","longitude":"8,604261","latitude":"52,069386","geojson_lng":8.604261,"geojson_lat":52.069386},"geometry":{"type":"Point","coordinates":[8.604261,52.069386]}},{"type":"Feature","properties":{"SeqNo":"633049","Type":"S","DHID":"de:05711:5595","Parent":"de:05711:5595","Name":"Bi-Brake, Querstraße","MunicipalityCode":"05711000","Municipality":"Bielefeld","DistrictCode":"","District":"","Description":"","Authority":"VRR","DelfiName":"-","THID":"D9164F0015DB","LastOperationDate":"2025-01-06T00:00:00","SEV":"nein","longitude":"8,612328","latitude":"52,067856","geojson_lng":8.612328,"geojson_lat":52.067856},"geometry":{"type":"Point","coordinates":[8.612328,52.067856]}},{"type":"Feature","properties":{"SeqNo":"633050","Type":"Q","DHID":"de:05711:5595:0:1","Parent":"de:05711:5595","Name":"Bahnhof","MunicipalityCode":"00000000","Municipality":"-","DistrictCode":"-","District":"-","Description":"","Authority":"VRR","DelfiName":"-","THID":"-","LastOperationDate":"","SEV":"nein","longitude":"8,612328","latitude":"52,067823","geojson_lng":8.612328,"geojson_lat":52.067823},"geometry":{"type":"Point","coordinates":[8.612328,52.067823]}},{"type":"Feature","properties":{"SeqNo":"633051","Type":"Q","DHID":"de:05711:5595:0:2","Parent":"de:05711:5595","Name":"Meerwiese","MunicipalityCode":"00000000","Municipality":"-","DistrictCode":"-","District":"-","Description":"","Authority":"VRR","DelfiName":"-","THID":"-","LastOperationDate":"","SEV":"nein","longitude":"8,61231","latitude":"52,067795","geojson_lng":8.61231,"geojson_lat":52.067795},"geometry":{"type":"Point","coordinates":[8.61231,52.067795]}},{"type":"Feature","properties":{"SeqNo":"633052","Type":"Q","DHID":"de:05711:5595:0:3","Parent":"de:05711:5595","Name":"Stedefreund Friedhof","MunicipalityCode":"00000000","Municipality":"-","DistrictCode":"-","District":"-","Description":"","Authority":"VRR","DelfiName":"-","THID":"-","LastOperationDate":"","SEV":"nein","longitude":"8,612418","latitude":"52,067856","geojson_lng":8.612418,"geojson_lat":52.067856},"geometry":{"type":"Point","coordinates":[8.612418,52.067856]}},{"type":"Feature","properties":{"SeqNo":"633053","Type":"Q","DHID":"de:05711:5595:0:4","Parent":"de:05711:5595","Name":"","MunicipalityCode":"00000000","Municipality":"-","DistrictCode":"-","District":"-","Description":"","Authority":"VRR","DelfiName":"-","THID":"-","LastOperationDate":"","SEV":"nein","longitude":"8,612508","latitude":"52,067856","geojson_lng":8.612508,"geojson_lat":52.067856},"geometry":{"type":"Point","coordinates":[8.612508,52.067856]}},{"type":"Feature","properties":{"SeqNo":"633407","Type":"S","DHID":"de:05711:9711","Parent":"de:05711:9711","Name":"Bi-Brake, Wefelshof","MunicipalityCode":"05711000","Municipality":"Bielefeld","DistrictCode":"","District":"","Description":"","Authority":"VRR","DelfiName":"-","THID":"D9164F0025EF","LastOperationDate":"2025-01-06T00:00:00","SEV":"nein","longitude":"8,606328","latitude":"52,071953","geojson_lng":8.606328,"geojson_lat":52.071953},"geometry":{"type":"Point","coordinates":[8.606328,52.071953]}},{"type":"Feature","properties":{"SeqNo":"633408","Type":"Q","DHID":"de:05711:9711:0:1","Parent":"de:05711:9711","Name":"Ri Brakhofstraße","MunicipalityCode":"00000000","Municipality":"-","DistrictCode":"-","District":"-","Description":"","Authority":"VRR","DelfiName":"-","THID":"-","LastOperationDate":"","SEV":"nein","longitude":"8,606265","latitude":"52,071937","geojson_lng":8.606265,"geojson_lat":52.071937},"geometry":{"type":"Point","coordinates":[8.606265,52.071937]}},{"type":"Feature","properties":{"SeqNo":"633409","Type":"Q","DHID":"de:05711:9711:0:2","Parent":"de:05711:9711","Name":"Ri Ladestraße","MunicipalityCode":"00000000","Municipality":"-","DistrictCode":"-","District":"-","Description":"","Authority":"VRR","DelfiName":"-","THID":"-","LastOperationDate":"","SEV":"nein","longitude":"8,606265","latitude":"52,071909","geojson_lng":8.606265,"geojson_lat":52.071909},"geometry":{"type":"Point","coordinates":[8.606265,52.071909]}},{"type":"Feature","properties":{"SeqNo":"633410","Type":"Q","DHID":"de:05711:9711:0:3","Parent":"de:05711:9711","Name":"","MunicipalityCode":"00000000","Municipality":"-","DistrictCode":"-","District":"-","Description":"","Authority":"VRR","DelfiName":"-","THID":"-","LastOperationDate":"","SEV":"nein","longitude":"8,606417","latitude":"52,071953","geojson_lng":8.606417,"geojson_lat":52.071953},"geometry":{"type":"Point","coordinates":[8.606417,52.071953]}},{"type":"Feature","properties":{"SeqNo":"633411","Type":"Q","DHID":"de:05711:9711:0:4","Parent":"de:05711:9711","Name":"","MunicipalityCode":"00000000","Municipality":"-","DistrictCode":"-","District":"-","Description":"","Authority":"VRR","DelfiName":"-","THID":"-","LastOperationDate":"","SEV":"nein","longitude":"8,606507","latitude":"52,071953","geojson_lng":8.606507,"geojson_lat":52.071953},"geometry":{"type":"Point","coordinates":[8.606507,52.071953]}}]}