{"type":"FeatureCollection","features":[{"type":"Feature","properties":{"SeqNo":"222543","Type":"S","DHID":"de:09575:14935","Parent":"de:09575:14935","Name":"Custenlohr","MunicipalityCode":"09575168","Municipality":"Uffenheim","DistrictCode":"","District":"","Description":"","Authority":"BEG","DelfiName":"-","THID":"D92567003A57","LastOperationDate":"2025-02-28T00:00:00","SEV":"nein","longitude":"10,243552","latitude":"49,513068","geojson_lng":10.243552,"geojson_lat":49.513068},"geometry":{"type":"Point","coordinates":[10.243552,49.513068]}},{"type":"Feature","properties":{"SeqNo":"222544","Type":"Q","DHID":"de:09575:14935:0:1","Parent":"de:09575:14935","Name":"1","MunicipalityCode":"00000000","Municipality":"-","DistrictCode":"-","District":"-","Description":"","Authority":"BEG","DelfiName":"-","THID":"-","LastOperationDate":"","SEV":"nein","longitude":"10,243336","latitude":"49,512981","geojson_lng":10.243336,"geojson_lat":49.512981},"geometry":{"type":"Point","coordinates":[10.243336,49.512981]}},{"type":"Feature","properties":{"SeqNo":"222545","Type":"Q","DHID":"de:09575:14935:0:2","Parent":"de:09575:14935","Name":"2","MunicipalityCode":"00000000","Municipality":"-","DistrictCode":"-","District":"-","Description":"","Authority":"BEG","DelfiName":"-","THID":"-","LastOperationDate":"","SEV":"nein","longitude":"10,243336","latitude":"49,512981","geojson_lng":10.243336,"geojson_lat":49.512981},"geometry":{"type":"Point","coordinates":[10.243336,49.512981]}},{"type":"Feature","properties":{"SeqNo":"223028","Type":"S","DHID":"de:09575:64952","Parent":"de:09575:64952","Name":"Custenlohr Am Gasthaus","MunicipalityCode":"09575168","Municipality":"Uffenheim","DistrictCode":"","District":"","Description":"","Authority":"BEG","DelfiName":"-","THID":"D9256700FDB8","LastOperationDate":"1999-12-31T00:00:00","SEV":"nein","longitude":"10,245133","latitude":"49,513966","geojson_lng":10.245133,"geojson_lat":49.513966},"geometry":{"type":"Point","coordinates":[10.245133,49.513966]}},{"type":"Feature","properties":{"SeqNo":"223029","Type":"Q","DHID":"de:09575:64952:0:1","Parent":"de:09575:64952","Name":"1","MunicipalityCode":"00000000","Municipality":"-","DistrictCode":"-","District":"-","Description":"","Authority":"BEG","DelfiName":"-","THID":"-","LastOperationDate":"","SEV":"nein","longitude":"10,245196","latitude":"49,513955","geojson_lng":10.245196,"geojson_lat":49.513955},"geometry":{"type":"Point","coordinates":[10.245196,49.513955]}},{"type":"Feature","properties":{"SeqNo":"223030","Type":"S","DHID":"de:09575:64953","Parent":"de:09575:64953","Name":"Custenlohr Mitte","MunicipalityCode":"09575168","Municipality":"Uffenheim","DistrictCode":"","District":"","Description":"","Authority":"BEG","DelfiName":"-","THID":"D9256700FDB9","LastOperationDate":"1999-12-31T00:00:00","SEV":"nein","longitude":"10,242492","latitude":"49,51392","geojson_lng":10.242492,"geojson_lat":49.51392},"geometry":{"type":"Point","coordinates":[10.242492,49.51392]}},{"type":"Feature","properties":{"SeqNo":"223031","Type":"Q","DHID":"de:09575:64953:0:1","Parent":"de:09575:64953","Name":"1","MunicipalityCode":"00000000","Municipality":"-","DistrictCode":"-","District":"-","Description":"","Authority":"BEG","DelfiName":"-","THID":"-","LastOperationDate":"","SEV":"nein","longitude":"10,242537","latitude":"49,513931","geojson_lng":10.242537,"geojson_lat":49.513931},"geometry":{"type":"Point","coordinates":[10.242537,49.513931]}},{"type":"Feature","properties":{"SeqNo":"223032","Type":"S","DHID":"de:09575:64955","Parent":"de:09575:64955","Name":"Custenlohr Ringweg","MunicipalityCode":"09575168","Municipality":"Uffenheim","DistrictCode":"","District":"","Description":"","Authority":"BEG","DelfiName":"-","THID":"D9256700FDBB","LastOperationDate":"1999-12-31T00:00:00","SEV":"nein","longitude":"10,244396","latitude":"49,511832","geojson_lng":10.244396,"geojson_lat":49.511832},"geometry":{"type":"Point","coordinates":[10.244396,49.511832]}},{"type":"Feature","properties":{"SeqNo":"223033","Type":"Q","DHID":"de:09575:64955:0:1","Parent":"de:09575:64955","Name":"1","MunicipalityCode":"00000000","Municipality":"-","DistrictCode":"-","District":"-","Description":"","Authority":"BEG","DelfiName":"-","THID":"-","LastOperationDate":"","SEV":"nein","longitude":"10,244432","latitude":"49,511832","geojson_lng":10.244432,"geojson_lat":49.511832},"geometry":{"type":"Point","coordinates":[10.244432,49.511832]}}]}