{"type":"FeatureCollection","features":[{"type":"Feature","properties":{"SeqNo":"327854","Type":"S","DHID":"de:01059:81692","Parent":"de:01059:81692","Name":"Schleswig Bahnhofstraße","MunicipalityCode":"01059075","Municipality":"Schleswig","DistrictCode":"","District":"","Description":"","Authority":"VBN","DelfiName":"-","THID":"D90423013F1C","LastOperationDate":"2025-06-14T00:00:00","SEV":"nein","longitude":"9,54028","latitude":"54,503114","geojson_lng":9.54028,"geojson_lat":54.503114},"geometry":{"type":"Point","coordinates":[9.54028,54.503114]}},{"type":"Feature","properties":{"SeqNo":"327855","Type":"Q","DHID":"de:01059:81692::1","Parent":"de:01059:81692","Name":"Schleswig Bahnhofstraße","MunicipalityCode":"00000000","Municipality":"-","DistrictCode":"-","District":"-","Description":"","Authority":"VBN","DelfiName":"-","THID":"-","LastOperationDate":"","SEV":"nein","longitude":"9,540371","latitude":"54,503626","geojson_lng":9.540371,"geojson_lat":54.503626},"geometry":{"type":"Point","coordinates":[9.540371,54.503626]}},{"type":"Feature","properties":{"SeqNo":"327856","Type":"Q","DHID":"de:01059:81692::2","Parent":"de:01059:81692","Name":"Schleswig Bahnhofstraße","MunicipalityCode":"00000000","Municipality":"-","DistrictCode":"-","District":"-","Description":"","Authority":"VBN","DelfiName":"-","THID":"-","LastOperationDate":"","SEV":"nein","longitude":"9,540188","latitude":"54,502602","geojson_lng":9.540188,"geojson_lat":54.502602},"geometry":{"type":"Point","coordinates":[9.540188,54.502602]}},{"type":"Feature","properties":{"SeqNo":"327954","Type":"S","DHID":"de:01059:81724","Parent":"de:01059:81724","Name":"Schleswig Kleinberg","MunicipalityCode":"01059075","Municipality":"Schleswig","DistrictCode":"","District":"","Description":"","Authority":"VBN","DelfiName":"-","THID":"D90423013F3C","LastOperationDate":"2025-06-14T00:00:00","SEV":"nein","longitude":"9,54126","latitude":"54,505886","geojson_lng":9.54126,"geojson_lat":54.505886},"geometry":{"type":"Point","coordinates":[9.54126,54.505886]}},{"type":"Feature","properties":{"SeqNo":"327955","Type":"Q","DHID":"de:01059:81724::1","Parent":"de:01059:81724","Name":"Schleswig Kleinberg","MunicipalityCode":"00000000","Municipality":"-","DistrictCode":"-","District":"-","Description":"","Authority":"VBN","DelfiName":"-","THID":"-","LastOperationDate":"","SEV":"nein","longitude":"9,54126","latitude":"54,505886","geojson_lng":9.54126,"geojson_lat":54.505886},"geometry":{"type":"Point","coordinates":[9.54126,54.505886]}},{"type":"Feature","properties":{"SeqNo":"327992","Type":"S","DHID":"de:01059:81738","Parent":"de:01059:81738","Name":"Schleswig Oberlandesgericht","MunicipalityCode":"01059075","Municipality":"Schleswig","DistrictCode":"","District":"","Description":"","Authority":"VBN","DelfiName":"-","THID":"D90423013F4A","LastOperationDate":"2025-06-14T00:00:00","SEV":"nein","longitude":"9,541678","latitude":"54,508154","geojson_lng":9.541678,"geojson_lat":54.508154},"geometry":{"type":"Point","coordinates":[9.541678,54.508154]}},{"type":"Feature","properties":{"SeqNo":"327993","Type":"Q","DHID":"de:01059:81738::1","Parent":"de:01059:81738","Name":"Schleswig Oberlandesgericht","MunicipalityCode":"00000000","Municipality":"-","DistrictCode":"-","District":"-","Description":"","Authority":"VBN","DelfiName":"-","THID":"-","LastOperationDate":"","SEV":"nein","longitude":"9,5415","latitude":"54,50805","geojson_lng":9.5415,"geojson_lat":54.50805},"geometry":{"type":"Point","coordinates":[9.5415,54.50805]}},{"type":"Feature","properties":{"SeqNo":"327994","Type":"Q","DHID":"de:01059:81738::2","Parent":"de:01059:81738","Name":"Schleswig Oberlandesgericht","MunicipalityCode":"00000000","Municipality":"-","DistrictCode":"-","District":"-","Description":"","Authority":"VBN","DelfiName":"-","THID":"-","LastOperationDate":"","SEV":"nein","longitude":"9,541856","latitude":"54,508257","geojson_lng":9.541856,"geojson_lat":54.508257},"geometry":{"type":"Point","coordinates":[9.541856,54.508257]}},{"type":"Feature","properties":{"SeqNo":"328055","Type":"S","DHID":"de:01059:81760","Parent":"de:01059:81760","Name":"Schleswig Volksbank","MunicipalityCode":"01059075","Municipality":"Schleswig","DistrictCode":"","District":"","Description":"","Authority":"VBN","DelfiName":"-","THID":"D90423013F60","LastOperationDate":"1999-12-31T00:00:00","SEV":"nein","longitude":"9,541907","latitude":"54,502895","geojson_lng":9.541907,"geojson_lat":54.502895},"geometry":{"type":"Point","coordinates":[9.541907,54.502895]}},{"type":"Feature","properties":{"SeqNo":"328056","Type":"Q","DHID":"de:01059:81760::1","Parent":"de:01059:81760","Name":"Schleswig Volksbank","MunicipalityCode":"00000000","Municipality":"-","DistrictCode":"-","District":"-","Description":"","Authority":"VBN","DelfiName":"-","THID":"-","LastOperationDate":"","SEV":"nein","longitude":"9,541907","latitude":"54,502895","geojson_lng":9.541907,"geojson_lat":54.502895},"geometry":{"type":"Point","coordinates":[9.541907,54.502895]}},{"type":"Feature","properties":{"SeqNo":"328077","Type":"S","DHID":"de:01059:81766","Parent":"de:01059:81766","Name":"Schleswig Zum Öhr","MunicipalityCode":"01059075","Municipality":"Schleswig","DistrictCode":"","District":"","Description":"","Authority":"VBN","DelfiName":"-","THID":"D90423013F66","LastOperationDate":"1999-12-31T00:00:00","SEV":"nein","longitude":"9,544874","latitude":"54,502918","geojson_lng":9.544874,"geojson_lat":54.502918},"geometry":{"type":"Point","coordinates":[9.544874,54.502918]}},{"type":"Feature","properties":{"SeqNo":"328078","Type":"Q","DHID":"de:01059:81766::1","Parent":"de:01059:81766","Name":"Schleswig Zum Öhr","MunicipalityCode":"00000000","Municipality":"-","DistrictCode":"-","District":"-","Description":"","Authority":"VBN","DelfiName":"-","THID":"-","LastOperationDate":"","SEV":"nein","longitude":"9,544874","latitude":"54,502918","geojson_lng":9.544874,"geojson_lat":54.502918},"geometry":{"type":"Point","coordinates":[9.544874,54.502918]}}]}