{"type":"FeatureCollection","features":[{"type":"Feature","properties":{"SeqNo":"527146","Type":"S","DHID":"de:05119:14041","Parent":"de:05119:14041","Name":"Oberhausen Liebknechtstr.","MunicipalityCode":"05119000","Municipality":"Oberhausen","DistrictCode":"","District":"","Description":"","Authority":"VRR","DelfiName":"-","THID":"D913FF0036D9","LastOperationDate":"2025-06-14T00:00:00","SEV":"nein","longitude":"6,87001","latitude":"51,475527","geojson_lng":6.87001,"geojson_lat":51.475527},"geometry":{"type":"Point","coordinates":[6.87001,51.475527]}},{"type":"Feature","properties":{"SeqNo":"527147","Type":"Q","DHID":"de:05119:14041:0:1","Parent":"de:05119:14041","Name":"Ri EKO","MunicipalityCode":"00000000","Municipality":"-","DistrictCode":"-","District":"-","Description":"","Authority":"VRR","DelfiName":"-","THID":"-","LastOperationDate":"","SEV":"nein","longitude":"6,87001","latitude":"51,475527","geojson_lng":6.87001,"geojson_lat":51.475527},"geometry":{"type":"Point","coordinates":[6.87001,51.475527]}},{"type":"Feature","properties":{"SeqNo":"527148","Type":"Q","DHID":"de:05119:14041:0:2","Parent":"de:05119:14041","Name":"Ri Uhlandstr","MunicipalityCode":"00000000","Municipality":"-","DistrictCode":"-","District":"-","Description":"","Authority":"VRR","DelfiName":"-","THID":"-","LastOperationDate":"","SEV":"nein","longitude":"6,869974","latitude":"51,475516","geojson_lng":6.869974,"geojson_lat":51.475516},"geometry":{"type":"Point","coordinates":[6.869974,51.475516]}},{"type":"Feature","properties":{"SeqNo":"527149","Type":"Q","DHID":"de:05119:14041:0:4","Parent":"de:05119:14041","Name":"Ri Bismarkstr","MunicipalityCode":"00000000","Municipality":"-","DistrictCode":"-","District":"-","Description":"","Authority":"VRR","DelfiName":"-","THID":"-","LastOperationDate":"","SEV":"nein","longitude":"6,87001","latitude":"51,475511","geojson_lng":6.87001,"geojson_lat":51.475511},"geometry":{"type":"Point","coordinates":[6.87001,51.475511]}},{"type":"Feature","properties":{"SeqNo":"527150","Type":"S","DHID":"de:05119:14042","Parent":"de:05119:14042","Name":"Oberhausen Uhlandstr.","MunicipalityCode":"05119000","Municipality":"Oberhausen","DistrictCode":"","District":"","Description":"","Authority":"VRR","DelfiName":"-","THID":"D913FF0036DA","LastOperationDate":"2025-06-14T00:00:00","SEV":"nein","longitude":"6,875265","latitude":"51,475236","geojson_lng":6.875265,"geojson_lat":51.475236},"geometry":{"type":"Point","coordinates":[6.875265,51.475236]}},{"type":"Feature","properties":{"SeqNo":"527151","Type":"Q","DHID":"de:05119:14042:0:1","Parent":"de:05119:14042","Name":"Ri Liebknechtsr","MunicipalityCode":"00000000","Municipality":"-","DistrictCode":"-","District":"-","Description":"","Authority":"VRR","DelfiName":"-","THID":"-","LastOperationDate":"","SEV":"nein","longitude":"6,875265","latitude":"51,47522","geojson_lng":6.875265,"geojson_lat":51.47522},"geometry":{"type":"Point","coordinates":[6.875265,51.47522]}},{"type":"Feature","properties":{"SeqNo":"527152","Type":"Q","DHID":"de:05119:14042:0:2","Parent":"de:05119:14042","Name":"Ri Michaelkirche","MunicipalityCode":"00000000","Municipality":"-","DistrictCode":"-","District":"-","Description":"","Authority":"VRR","DelfiName":"-","THID":"-","LastOperationDate":"","SEV":"nein","longitude":"6,875247","latitude":"51,47527","geojson_lng":6.875247,"geojson_lat":51.47527},"geometry":{"type":"Point","coordinates":[6.875247,51.47527]}},{"type":"Feature","properties":{"SeqNo":"527164","Type":"S","DHID":"de:05119:14047","Parent":"de:05119:14047","Name":"Oberhausen Bertha v.S. Gymn.","MunicipalityCode":"05119000","Municipality":"Oberhausen","DistrictCode":"","District":"","Description":"","Authority":"VRR","DelfiName":"-","THID":"D913FF0036DF","LastOperationDate":"2025-06-14T00:00:00","SEV":"nein","longitude":"6,870791","latitude":"51,477698","geojson_lng":6.870791,"geojson_lat":51.477698},"geometry":{"type":"Point","coordinates":[6.870791,51.477698]}},{"type":"Feature","properties":{"SeqNo":"527165","Type":"Q","DHID":"de:05119:14047:0:1","Parent":"de:05119:14047","Name":"Ri Uhlandstr","MunicipalityCode":"00000000","Municipality":"-","DistrictCode":"-","District":"-","Description":"","Authority":"VRR","DelfiName":"-","THID":"-","LastOperationDate":"","SEV":"nein","longitude":"6,870755","latitude":"51,477704","geojson_lng":6.870755,"geojson_lat":51.477704},"geometry":{"type":"Point","coordinates":[6.870755,51.477704]}},{"type":"Feature","properties":{"SeqNo":"527166","Type":"Q","DHID":"de:05119:14047:0:2","Parent":"de:05119:14047","Name":"Ri Brücktorstr","MunicipalityCode":"00000000","Municipality":"-","DistrictCode":"-","District":"-","Description":"","Authority":"VRR","DelfiName":"-","THID":"-","LastOperationDate":"","SEV":"nein","longitude":"6,870764","latitude":"51,477698","geojson_lng":6.870764,"geojson_lat":51.477698},"geometry":{"type":"Point","coordinates":[6.870764,51.477698]}},{"type":"Feature","properties":{"SeqNo":"527169","Type":"S","DHID":"de:05119:14049","Parent":"de:05119:14049","Name":"Oberhausen Uhlandplatz","MunicipalityCode":"05119000","Municipality":"Oberhausen","DistrictCode":"","District":"","Description":"","Authority":"VRR","DelfiName":"-","THID":"D913FF0036E1","LastOperationDate":"2025-06-14T00:00:00","SEV":"nein","longitude":"6,87628","latitude":"51,479964","geojson_lng":6.87628,"geojson_lat":51.479964},"geometry":{"type":"Point","coordinates":[6.87628,51.479964]}},{"type":"Feature","properties":{"SeqNo":"527170","Type":"Q","DHID":"de:05119:14049:0:1","Parent":"de:05119:14049","Name":"Ri Bismarkstr","MunicipalityCode":"00000000","Municipality":"-","DistrictCode":"-","District":"-","Description":"","Authority":"VRR","DelfiName":"-","THID":"-","LastOperationDate":"","SEV":"nein","longitude":"6,876163","latitude":"51,479981","geojson_lng":6.876163,"geojson_lat":51.479981},"geometry":{"type":"Point","coordinates":[6.876163,51.479981]}},{"type":"Feature","properties":{"SeqNo":"527171","Type":"Q","DHID":"de:05119:14049:0:2","Parent":"de:05119:14049","Name":"Ri Knappenmarkt","MunicipalityCode":"00000000","Municipality":"-","DistrictCode":"-","District":"-","Description":"","Authority":"VRR","DelfiName":"-","THID":"-","LastOperationDate":"","SEV":"nein","longitude":"6,876127","latitude":"51,480003","geojson_lng":6.876127,"geojson_lat":51.480003},"geometry":{"type":"Point","coordinates":[6.876127,51.480003]}},{"type":"Feature","properties":{"SeqNo":"527261","Type":"S","DHID":"de:05119:14078","Parent":"de:05119:14078","Name":"Oberhausen Körnerstr.","MunicipalityCode":"05119000","Municipality":"Oberhausen","DistrictCode":"","District":"","Description":"","Authority":"VRR","DelfiName":"-","THID":"D913FF0036FE","LastOperationDate":"2025-06-14T00:00:00","SEV":"nein","longitude":"6,873675","latitude":"51,479019","geojson_lng":6.873675,"geojson_lat":51.479019},"geometry":{"type":"Point","coordinates":[6.873675,51.479019]}},{"type":"Feature","properties":{"SeqNo":"527262","Type":"Q","DHID":"de:05119:14078:0:1","Parent":"de:05119:14078","Name":"Ri Uhlandplatz","MunicipalityCode":"00000000","Municipality":"-","DistrictCode":"-","District":"-","Description":"","Authority":"VRR","DelfiName":"-","THID":"-","LastOperationDate":"","SEV":"nein","longitude":"6,873522","latitude":"51,478968","geojson_lng":6.873522,"geojson_lat":51.478968},"geometry":{"type":"Point","coordinates":[6.873522,51.478968]}},{"type":"Feature","properties":{"SeqNo":"528155","Type":"S","DHID":"de:05119:14783","Parent":"de:05119:14783","Name":"Oberhausen Brücktorstr.","MunicipalityCode":"05119000","Municipality":"Oberhausen","DistrictCode":"","District":"","Description":"","Authority":"VRR","DelfiName":"-","THID":"D913FF0039BF","LastOperationDate":"2025-02-28T00:00:00","SEV":"nein","longitude":"6,871285","latitude":"51,481346","geojson_lng":6.871285,"geojson_lat":51.481346},"geometry":{"type":"Point","coordinates":[6.871285,51.481346]}},{"type":"Feature","properties":{"SeqNo":"528156","Type":"A","DHID":"de:05119:14783:1","Parent":"de:05119:14783","Name":"Ost/Nord-Süd","MunicipalityCode":"00000000","Municipality":"-","DistrictCode":"-","District":"-","Description":"","Authority":"VRR","DelfiName":"-","THID":"-","LastOperationDate":"","SEV":"nein","longitude":"6,87125","latitude":"51,481122","geojson_lng":6.87125,"geojson_lat":51.481122},"geometry":{"type":"Point","coordinates":[6.87125,51.481122]}},{"type":"Feature","properties":{"SeqNo":"528157","Type":"A","DHID":"de:05119:14783:2","Parent":"de:05119:14783","Name":"Ost-Trasse","MunicipalityCode":"00000000","Municipality":"-","DistrictCode":"-","District":"-","Description":"","Authority":"VRR","DelfiName":"-","THID":"-","LastOperationDate":"","SEV":"nein","longitude":"6,871528","latitude":"51,48129","geojson_lng":6.871528,"geojson_lat":51.48129},"geometry":{"type":"Point","coordinates":[6.871528,51.48129]}},{"type":"Feature","properties":{"SeqNo":"528158","Type":"Q","DHID":"de:05119:14783:1:1","Parent":"de:05119:14783:1","Name":"Ri Uhlandstr","MunicipalityCode":"00000000","Municipality":"-","DistrictCode":"-","District":"-","Description":"","Authority":"VRR","DelfiName":"-","THID":"-","LastOperationDate":"","SEV":"nein","longitude":"6,871232","latitude":"51,481077","geojson_lng":6.871232,"geojson_lat":51.481077},"geometry":{"type":"Point","coordinates":[6.871232,51.481077]}},{"type":"Feature","properties":{"SeqNo":"528159","Type":"Q","DHID":"de:05119:14783:1:2","Parent":"de:05119:14783:1","Name":"Ri Lipperfeld","MunicipalityCode":"00000000","Municipality":"-","DistrictCode":"-","District":"-","Description":"","Authority":"VRR","DelfiName":"-","THID":"-","LastOperationDate":"","SEV":"nein","longitude":"6,871241","latitude":"51,481172","geojson_lng":6.871241,"geojson_lat":51.481172},"geometry":{"type":"Point","coordinates":[6.871241,51.481172]}},{"type":"Feature","properties":{"SeqNo":"528160","Type":"Q","DHID":"de:05119:14783:1:3","Parent":"de:05119:14783:1","Name":"Ri lipperfeld v Uhland","MunicipalityCode":"00000000","Municipality":"-","DistrictCode":"-","District":"-","Description":"","Authority":"VRR","DelfiName":"-","THID":"-","LastOperationDate":"","SEV":"nein","longitude":"6,871429","latitude":"51,481357","geojson_lng":6.871429,"geojson_lat":51.481357},"geometry":{"type":"Point","coordinates":[6.871429,51.481357]}}]}