{"type":"FeatureCollection","features":[{"type":"Feature","properties":{"SeqNo":"540627","Type":"S","DHID":"de:05158:19210","Parent":"de:05158:19210","Name":"Ratingen Schwarzbachtal","MunicipalityCode":"05158028","Municipality":"Ratingen","DistrictCode":"-","District":"-","Description":"","Authority":"VRR","DelfiName":"-","THID":"D91426004B0A","LastOperationDate":"2025-01-31T00:00:00","SEV":"nein","longitude":"6,872858","latitude":"51,285609","geojson_lng":6.872858,"geojson_lat":51.285609},"geometry":{"type":"Point","coordinates":[6.872858,51.285609]}},{"type":"Feature","properties":{"SeqNo":"540628","Type":"A","DHID":"de:05158:19210:1","Parent":"de:05158:19210","Name":"für Steig 1","MunicipalityCode":"00000000","Municipality":"-","DistrictCode":"-","District":"-","Description":"","Authority":"VRR","DelfiName":"-","THID":"-","LastOperationDate":"","SEV":"nein","longitude":"6,872911","latitude":"51,285558","geojson_lng":6.872911,"geojson_lat":51.285558},"geometry":{"type":"Point","coordinates":[6.872911,51.285558]}},{"type":"Feature","properties":{"SeqNo":"540629","Type":"A","DHID":"de:05158:19210:2","Parent":"de:05158:19210","Name":"für Steig 2","MunicipalityCode":"00000000","Municipality":"-","DistrictCode":"-","District":"-","Description":"","Authority":"VRR","DelfiName":"-","THID":"-","LastOperationDate":"","SEV":"nein","longitude":"6,872777","latitude":"51,285648","geojson_lng":6.872777,"geojson_lat":51.285648},"geometry":{"type":"Point","coordinates":[6.872777,51.285648]}},{"type":"Feature","properties":{"SeqNo":"540630","Type":"Q","DHID":"de:05158:19210:0:1","Parent":"de:05158:19210:1","Name":"Ri. Mettmann","MunicipalityCode":"00000000","Municipality":"-","DistrictCode":"-","District":"-","Description":"Ri. Mettmann","Authority":"VRR","DelfiName":"-","THID":"-","LastOperationDate":"","SEV":"nein","longitude":"6,87292","latitude":"51,285581","geojson_lng":6.87292,"geojson_lat":51.285581},"geometry":{"type":"Point","coordinates":[6.87292,51.285581]}},{"type":"Feature","properties":{"SeqNo":"540631","Type":"Q","DHID":"de:05158:19210:0:2","Parent":"de:05158:19210:2","Name":"Ri. Ratingen","MunicipalityCode":"00000000","Municipality":"-","DistrictCode":"-","District":"-","Description":"Ri. Ratingen","Authority":"VRR","DelfiName":"-","THID":"-","LastOperationDate":"","SEV":"nein","longitude":"6,872777","latitude":"51,285626","geojson_lng":6.872777,"geojson_lat":51.285626},"geometry":{"type":"Point","coordinates":[6.872777,51.285626]}}]}