{"type":"FeatureCollection","features":[{"type":"Feature","properties":{"SeqNo":"558973","Type":"S","DHID":"de:05315:16853","Parent":"de:05315:16853","Name":"Köln Worringen Sankt-Tönnis-Str.","MunicipalityCode":"05315000","Municipality":"Köln","DistrictCode":"","District":"","Description":"","Authority":"VRR","DelfiName":"-","THID":"D914C30041D5","LastOperationDate":"2025-02-28T00:00:00","SEV":"nein","longitude":"6,86789","latitude":"51,065014","geojson_lng":6.86789,"geojson_lat":51.065014},"geometry":{"type":"Point","coordinates":[6.86789,51.065014]}},{"type":"Feature","properties":{"SeqNo":"558974","Type":"A","DHID":"de:05315:16853:2","Parent":"de:05315:16853","Name":"Sankt-Tönnis-Str.","MunicipalityCode":"00000000","Municipality":"-","DistrictCode":"-","District":"-","Description":"","Authority":"VRR","DelfiName":"-","THID":"-","LastOperationDate":"","SEV":"nein","longitude":"6,867818","latitude":"51,064935","geojson_lng":6.867818,"geojson_lat":51.064935},"geometry":{"type":"Point","coordinates":[6.867818,51.064935]}},{"type":"Feature","properties":{"SeqNo":"558975","Type":"Q","DHID":"de:05315:16853:2:21","Parent":"de:05315:16853:2","Name":"","MunicipalityCode":"00000000","Municipality":"-","DistrictCode":"-","District":"-","Description":"","Authority":"VRR","DelfiName":"-","THID":"-","LastOperationDate":"","SEV":"nein","longitude":"6,868007","latitude":"51,065183","geojson_lng":6.868007,"geojson_lat":51.065183},"geometry":{"type":"Point","coordinates":[6.868007,51.065183]}},{"type":"Feature","properties":{"SeqNo":"558976","Type":"Q","DHID":"de:05315:16853:2:22","Parent":"de:05315:16853:2","Name":"","MunicipalityCode":"00000000","Municipality":"-","DistrictCode":"-","District":"-","Description":"","Authority":"VRR","DelfiName":"-","THID":"-","LastOperationDate":"","SEV":"nein","longitude":"6,867827","latitude":"51,064856","geojson_lng":6.867827,"geojson_lat":51.064856},"geometry":{"type":"Point","coordinates":[6.867827,51.064856]}},{"type":"Feature","properties":{"SeqNo":"559009","Type":"S","DHID":"de:05315:16865","Parent":"de:05315:16865","Name":"Köln Worringen Am Frohnweiher","MunicipalityCode":"05315000","Municipality":"Köln","DistrictCode":"","District":"","Description":"","Authority":"VRR","DelfiName":"-","THID":"D914C30041E1","LastOperationDate":"2025-01-06T00:00:00","SEV":"nein","longitude":"6,870746","latitude":"51,062344","geojson_lng":6.870746,"geojson_lat":51.062344},"geometry":{"type":"Point","coordinates":[6.870746,51.062344]}},{"type":"Feature","properties":{"SeqNo":"559010","Type":"A","DHID":"de:05315:16865:2","Parent":"de:05315:16865","Name":"Am Frohnweiher","MunicipalityCode":"00000000","Municipality":"-","DistrictCode":"-","District":"-","Description":"","Authority":"VRR","DelfiName":"-","THID":"-","LastOperationDate":"","SEV":"nein","longitude":"6,870746","latitude":"51,062344","geojson_lng":6.870746,"geojson_lat":51.062344},"geometry":{"type":"Point","coordinates":[6.870746,51.062344]}},{"type":"Feature","properties":{"SeqNo":"559011","Type":"Q","DHID":"de:05315:16865:2:21","Parent":"de:05315:16865:2","Name":"","MunicipalityCode":"00000000","Municipality":"-","DistrictCode":"-","District":"-","Description":"","Authority":"VRR","DelfiName":"-","THID":"-","LastOperationDate":"","SEV":"nein","longitude":"6,870809","latitude":"51,062332","geojson_lng":6.870809,"geojson_lat":51.062332},"geometry":{"type":"Point","coordinates":[6.870809,51.062332]}},{"type":"Feature","properties":{"SeqNo":"559012","Type":"Q","DHID":"de:05315:16865:2:22","Parent":"de:05315:16865:2","Name":"","MunicipalityCode":"00000000","Municipality":"-","DistrictCode":"-","District":"-","Description":"","Authority":"VRR","DelfiName":"-","THID":"-","LastOperationDate":"","SEV":"nein","longitude":"6,870675","latitude":"51,062349","geojson_lng":6.870675,"geojson_lat":51.062349},"geometry":{"type":"Point","coordinates":[6.870675,51.062349]}}]}