{"type":"FeatureCollection","features":[{"type":"Feature","properties":{"SeqNo":"587420","Type":"S","DHID":"de:05374:48143","Parent":"de:05374:48143","Name":"Gummersbach Ekz","MunicipalityCode":"05374012","Municipality":"Gummersbach","DistrictCode":"","District":"","Description":"","Authority":"VRR","DelfiName":"-","THID":"D914FE00BC0F","LastOperationDate":"2025-01-06T00:00:00","SEV":"nein","longitude":"7,564138","latitude":"51,027525","geojson_lng":7.564138,"geojson_lat":51.027525},"geometry":{"type":"Point","coordinates":[7.564138,51.027525]}},{"type":"Feature","properties":{"SeqNo":"587421","Type":"A","DHID":"de:05374:48143:2","Parent":"de:05374:48143","Name":"EKZ","MunicipalityCode":"00000000","Municipality":"-","DistrictCode":"-","District":"-","Description":"","Authority":"VRR","DelfiName":"-","THID":"-","LastOperationDate":"","SEV":"nein","longitude":"7,56412","latitude":"51,027536","geojson_lng":7.56412,"geojson_lat":51.027536},"geometry":{"type":"Point","coordinates":[7.56412,51.027536]}},{"type":"Feature","properties":{"SeqNo":"587422","Type":"Q","DHID":"de:05374:48143:2:21","Parent":"de:05374:48143:2","Name":"","MunicipalityCode":"00000000","Municipality":"-","DistrictCode":"-","District":"-","Description":"","Authority":"VRR","DelfiName":"-","THID":"-","LastOperationDate":"","SEV":"nein","longitude":"7,564138","latitude":"51,027491","geojson_lng":7.564138,"geojson_lat":51.027491},"geometry":{"type":"Point","coordinates":[7.564138,51.027491]}},{"type":"Feature","properties":{"SeqNo":"587432","Type":"S","DHID":"de:05374:48146","Parent":"de:05374:48146","Name":"Gummersbach EKZ / Hebekeuser","MunicipalityCode":"05374012","Municipality":"Gummersbach","DistrictCode":"","District":"","Description":"","Authority":"VRR","DelfiName":"-","THID":"D914FE00BC12","LastOperationDate":"2025-01-06T00:00:00","SEV":"nein","longitude":"7,563931","latitude":"51,027689","geojson_lng":7.563931,"geojson_lat":51.027689},"geometry":{"type":"Point","coordinates":[7.563931,51.027689]}},{"type":"Feature","properties":{"SeqNo":"587433","Type":"A","DHID":"de:05374:48146:2","Parent":"de:05374:48146","Name":"EKZ / Hebekeuser","MunicipalityCode":"00000000","Municipality":"-","DistrictCode":"-","District":"-","Description":"","Authority":"VRR","DelfiName":"-","THID":"-","LastOperationDate":"","SEV":"nein","longitude":"7,564084","latitude":"51,027644","geojson_lng":7.564084,"geojson_lat":51.027644},"geometry":{"type":"Point","coordinates":[7.564084,51.027644]}},{"type":"Feature","properties":{"SeqNo":"587434","Type":"Q","DHID":"de:05374:48146:2:21","Parent":"de:05374:48146:2","Name":"","MunicipalityCode":"00000000","Municipality":"-","DistrictCode":"-","District":"-","Description":"","Authority":"VRR","DelfiName":"-","THID":"-","LastOperationDate":"","SEV":"nein","longitude":"7,56386","latitude":"51,02774","geojson_lng":7.56386,"geojson_lat":51.02774},"geometry":{"type":"Point","coordinates":[7.56386,51.02774]}},{"type":"Feature","properties":{"SeqNo":"587435","Type":"Q","DHID":"de:05374:48146:2:61","Parent":"de:05374:48146:2","Name":"","MunicipalityCode":"00000000","Municipality":"-","DistrictCode":"-","District":"-","Description":"","Authority":"VRR","DelfiName":"-","THID":"-","LastOperationDate":"","SEV":"nein","longitude":"7,563105","latitude":"51,02783","geojson_lng":7.563105,"geojson_lat":51.02783},"geometry":{"type":"Point","coordinates":[7.563105,51.02783]}},{"type":"Feature","properties":{"SeqNo":"587473","Type":"S","DHID":"de:05374:48163","Parent":"de:05374:48163","Name":"Gummersbach Rathaus","MunicipalityCode":"05374012","Municipality":"Gummersbach","DistrictCode":"","District":"","Description":"","Authority":"VRR","DelfiName":"-","THID":"D914FE00BC23","LastOperationDate":"2025-01-06T00:00:00","SEV":"nein","longitude":"7,568702","latitude":"51,028949","geojson_lng":7.568702,"geojson_lat":51.028949},"geometry":{"type":"Point","coordinates":[7.568702,51.028949]}},{"type":"Feature","properties":{"SeqNo":"587474","Type":"A","DHID":"de:05374:48163:2","Parent":"de:05374:48163","Name":"Gummersbach Ratha","MunicipalityCode":"00000000","Municipality":"-","DistrictCode":"-","District":"-","Description":"","Authority":"VRR","DelfiName":"-","THID":"-","LastOperationDate":"","SEV":"nein","longitude":"7,568639","latitude":"51,02835","geojson_lng":7.568639,"geojson_lat":51.02835},"geometry":{"type":"Point","coordinates":[7.568639,51.02835]}},{"type":"Feature","properties":{"SeqNo":"587475","Type":"Q","DHID":"de:05374:48163:2:21","Parent":"de:05374:48163:2","Name":"","MunicipalityCode":"00000000","Municipality":"-","DistrictCode":"-","District":"-","Description":"","Authority":"VRR","DelfiName":"-","THID":"-","LastOperationDate":"","SEV":"nein","longitude":"7,567821","latitude":"51,028531","geojson_lng":7.567821,"geojson_lat":51.028531},"geometry":{"type":"Point","coordinates":[7.567821,51.028531]}},{"type":"Feature","properties":{"SeqNo":"587476","Type":"Q","DHID":"de:05374:48163:2:22","Parent":"de:05374:48163:2","Name":"","MunicipalityCode":"00000000","Municipality":"-","DistrictCode":"-","District":"-","Description":"","Authority":"VRR","DelfiName":"-","THID":"-","LastOperationDate":"","SEV":"nein","longitude":"7,569034","latitude":"51,028197","geojson_lng":7.569034,"geojson_lat":51.028197},"geometry":{"type":"Point","coordinates":[7.569034,51.028197]}},{"type":"Feature","properties":{"SeqNo":"587477","Type":"Q","DHID":"de:05374:48163:2:23","Parent":"de:05374:48163:2","Name":"","MunicipalityCode":"00000000","Municipality":"-","DistrictCode":"-","District":"-","Description":"","Authority":"VRR","DelfiName":"-","THID":"-","LastOperationDate":"","SEV":"nein","longitude":"7,568818","latitude":"51,02909","geojson_lng":7.568818,"geojson_lat":51.02909},"geometry":{"type":"Point","coordinates":[7.568818,51.02909]}}]}