{"type":"FeatureCollection","features":[{"type":"Feature","properties":{"SeqNo":"502732","Type":"S","DHID":"de:13075:6149","Parent":"de:13075:6149","Name":"Pasewalk Volkskulturpark","MunicipalityCode":"13075105","Municipality":"Pasewalk","DistrictCode":"","District":"","Description":"","Authority":"VMV","DelfiName":"-","THID":"D93313001805","LastOperationDate":"1999-12-31T00:00:00","SEV":"nein","longitude":"13,990766","latitude":"53,496285","geojson_lng":13.990766,"geojson_lat":53.496285},"geometry":{"type":"Point","coordinates":[13.990766,53.496285]}},{"type":"Feature","properties":{"SeqNo":"502733","Type":"A","DHID":"de:13075:6149:1","Parent":"de:13075:6149","Name":"Bus","MunicipalityCode":"00000000","Municipality":"-","DistrictCode":"-","District":"-","Description":"","Authority":"VMV","DelfiName":"-","THID":"-","LastOperationDate":"","SEV":"nein","longitude":"13,990856","latitude":"53,496231","geojson_lng":13.990856,"geojson_lat":53.496231},"geometry":{"type":"Point","coordinates":[13.990856,53.496231]}},{"type":"Feature","properties":{"SeqNo":"502894","Type":"S","DHID":"de:13075:6235","Parent":"de:13075:6235","Name":"Pasewalk Alter Friedhof","MunicipalityCode":"13075105","Municipality":"Pasewalk","DistrictCode":"","District":"","Description":"","Authority":"VMV","DelfiName":"-","THID":"D9331300185B","LastOperationDate":"2024-12-31T00:00:00","SEV":"nein","longitude":"13,986805","latitude":"53,499555","geojson_lng":13.986805,"geojson_lat":53.499555},"geometry":{"type":"Point","coordinates":[13.986805,53.499555]}},{"type":"Feature","properties":{"SeqNo":"502895","Type":"A","DHID":"de:13075:6235:1","Parent":"de:13075:6235","Name":"Bus","MunicipalityCode":"00000000","Municipality":"-","DistrictCode":"-","District":"-","Description":"","Authority":"VMV","DelfiName":"-","THID":"-","LastOperationDate":"","SEV":"nein","longitude":"13,986895","latitude":"53,499502","geojson_lng":13.986895,"geojson_lat":53.499502},"geometry":{"type":"Point","coordinates":[13.986895,53.499502]}},{"type":"Feature","properties":{"SeqNo":"502896","Type":"Q","DHID":"de:13075:6235:1:1","Parent":"de:13075:6235:1","Name":"62351","MunicipalityCode":"00000000","Municipality":"-","DistrictCode":"-","District":"-","Description":"","Authority":"VMV","DelfiName":"-","THID":"-","LastOperationDate":"","SEV":"nein","longitude":"13,987353","latitude":"53,49971","geojson_lng":13.987353,"geojson_lat":53.49971},"geometry":{"type":"Point","coordinates":[13.987353,53.49971]}},{"type":"Feature","properties":{"SeqNo":"503795","Type":"S","DHID":"de:13075:6703","Parent":"de:13075:6703","Name":"Pasewalk Landratsamt/VKP","MunicipalityCode":"13075105","Municipality":"Pasewalk","DistrictCode":"","District":"","Description":"","Authority":"VMV","DelfiName":"-","THID":"D93313001A2F","LastOperationDate":"1999-12-31T00:00:00","SEV":"nein","longitude":"13,990048","latitude":"53,498294","geojson_lng":13.990048,"geojson_lat":53.498294},"geometry":{"type":"Point","coordinates":[13.990048,53.498294]}},{"type":"Feature","properties":{"SeqNo":"503796","Type":"A","DHID":"de:13075:6703:1","Parent":"de:13075:6703","Name":"Bus","MunicipalityCode":"00000000","Municipality":"-","DistrictCode":"-","District":"-","Description":"","Authority":"VMV","DelfiName":"-","THID":"-","LastOperationDate":"","SEV":"nein","longitude":"13,990138","latitude":"53,498241","geojson_lng":13.990138,"geojson_lat":53.498241},"geometry":{"type":"Point","coordinates":[13.990138,53.498241]}}]}