{"type":"FeatureCollection","features":[{"type":"Feature","properties":{"SeqNo":"575912","Type":"S","DHID":"de:05362:88833","Parent":"de:05362:88833","Name":"Bergheim Oberaußem Post","MunicipalityCode":"05362008","Municipality":"Bergheim","DistrictCode":"","District":"","Description":"","Authority":"VRR","DelfiName":"-","THID":"D914F2015B01","LastOperationDate":"2025-01-06T00:00:00","SEV":"nein","longitude":"6,678318","latitude":"50,972994","geojson_lng":6.678318,"geojson_lat":50.972994},"geometry":{"type":"Point","coordinates":[6.678318,50.972994]}},{"type":"Feature","properties":{"SeqNo":"575913","Type":"A","DHID":"de:05362:88833:2","Parent":"de:05362:88833","Name":"Oberaußem Post","MunicipalityCode":"00000000","Municipality":"-","DistrictCode":"-","District":"-","Description":"","Authority":"VRR","DelfiName":"-","THID":"-","LastOperationDate":"","SEV":"nein","longitude":"6,678318","latitude":"50,972994","geojson_lng":6.678318,"geojson_lat":50.972994},"geometry":{"type":"Point","coordinates":[6.678318,50.972994]}},{"type":"Feature","properties":{"SeqNo":"575914","Type":"Q","DHID":"de:05362:88833:2:21","Parent":"de:05362:88833:2","Name":"","MunicipalityCode":"00000000","Municipality":"-","DistrictCode":"-","District":"-","Description":"","Authority":"VRR","DelfiName":"-","THID":"-","LastOperationDate":"","SEV":"nein","longitude":"6,678785","latitude":"50,972586","geojson_lng":6.678785,"geojson_lat":50.972586},"geometry":{"type":"Point","coordinates":[6.678785,50.972586]}},{"type":"Feature","properties":{"SeqNo":"575915","Type":"Q","DHID":"de:05362:88833:2:22","Parent":"de:05362:88833:2","Name":"","MunicipalityCode":"00000000","Municipality":"-","DistrictCode":"-","District":"-","Description":"","Authority":"VRR","DelfiName":"-","THID":"-","LastOperationDate":"","SEV":"nein","longitude":"6,677896","latitude":"50,973373","geojson_lng":6.677896,"geojson_lat":50.973373},"geometry":{"type":"Point","coordinates":[6.677896,50.973373]}},{"type":"Feature","properties":{"SeqNo":"575916","Type":"Q","DHID":"de:05362:88833:2:61","Parent":"de:05362:88833:2","Name":"","MunicipalityCode":"00000000","Municipality":"-","DistrictCode":"-","District":"-","Description":"","Authority":"VRR","DelfiName":"-","THID":"-","LastOperationDate":"","SEV":"nein","longitude":"6,678318","latitude":"50,972994","geojson_lng":6.678318,"geojson_lat":50.972994},"geometry":{"type":"Point","coordinates":[6.678318,50.972994]}},{"type":"Feature","properties":{"SeqNo":"575917","Type":"Q","DHID":"de:05362:88833:2:62","Parent":"de:05362:88833:2","Name":"","MunicipalityCode":"00000000","Municipality":"-","DistrictCode":"-","District":"-","Description":"","Authority":"VRR","DelfiName":"-","THID":"-","LastOperationDate":"","SEV":"nein","longitude":"6,678318","latitude":"50,972994","geojson_lng":6.678318,"geojson_lat":50.972994},"geometry":{"type":"Point","coordinates":[6.678318,50.972994]}},{"type":"Feature","properties":{"SeqNo":"575930","Type":"S","DHID":"de:05362:88837","Parent":"de:05362:88837","Name":"Bergheim Oberaußem Realschule","MunicipalityCode":"05362008","Municipality":"Bergheim","DistrictCode":"","District":"","Description":"","Authority":"VRR","DelfiName":"-","THID":"D914F2015B05","LastOperationDate":"2025-01-06T00:00:00","SEV":"nein","longitude":"6,675345","latitude":"50,978825","geojson_lng":6.675345,"geojson_lat":50.978825},"geometry":{"type":"Point","coordinates":[6.675345,50.978825]}},{"type":"Feature","properties":{"SeqNo":"575931","Type":"A","DHID":"de:05362:88837:2","Parent":"de:05362:88837","Name":"Oberaußem Realsch","MunicipalityCode":"00000000","Municipality":"-","DistrictCode":"-","District":"-","Description":"","Authority":"VRR","DelfiName":"-","THID":"-","LastOperationDate":"","SEV":"nein","longitude":"6,675345","latitude":"50,978825","geojson_lng":6.675345,"geojson_lat":50.978825},"geometry":{"type":"Point","coordinates":[6.675345,50.978825]}},{"type":"Feature","properties":{"SeqNo":"575932","Type":"Q","DHID":"de:05362:88837:2:21","Parent":"de:05362:88837:2","Name":"","MunicipalityCode":"00000000","Municipality":"-","DistrictCode":"-","District":"-","Description":"","Authority":"VRR","DelfiName":"-","THID":"-","LastOperationDate":"","SEV":"nein","longitude":"6,675327","latitude":"50,978814","geojson_lng":6.675327,"geojson_lat":50.978814},"geometry":{"type":"Point","coordinates":[6.675327,50.978814]}},{"type":"Feature","properties":{"SeqNo":"575933","Type":"Q","DHID":"de:05362:88837:2:22","Parent":"de:05362:88837:2","Name":"","MunicipalityCode":"00000000","Municipality":"-","DistrictCode":"-","District":"-","Description":"","Authority":"VRR","DelfiName":"-","THID":"-","LastOperationDate":"","SEV":"nein","longitude":"6,675354","latitude":"50,978797","geojson_lng":6.675354,"geojson_lat":50.978797},"geometry":{"type":"Point","coordinates":[6.675354,50.978797]}},{"type":"Feature","properties":{"SeqNo":"575953","Type":"S","DHID":"de:05362:88844","Parent":"de:05362:88844","Name":"Bergheim Oberaußem Fortunaschule","MunicipalityCode":"05362008","Municipality":"Bergheim","DistrictCode":"","District":"","Description":"","Authority":"VRR","DelfiName":"-","THID":"D914F2015B0C","LastOperationDate":"2024-12-20T00:00:00","SEV":"nein","longitude":"6,674986","latitude":"50,977881","geojson_lng":6.674986,"geojson_lat":50.977881},"geometry":{"type":"Point","coordinates":[6.674986,50.977881]}},{"type":"Feature","properties":{"SeqNo":"575954","Type":"A","DHID":"de:05362:88844:2","Parent":"de:05362:88844","Name":"Fortunaschule","MunicipalityCode":"00000000","Municipality":"-","DistrictCode":"-","District":"-","Description":"","Authority":"VRR","DelfiName":"-","THID":"-","LastOperationDate":"","SEV":"nein","longitude":"6,674986","latitude":"50,977881","geojson_lng":6.674986,"geojson_lat":50.977881},"geometry":{"type":"Point","coordinates":[6.674986,50.977881]}},{"type":"Feature","properties":{"SeqNo":"575955","Type":"Q","DHID":"de:05362:88844:2:21","Parent":"de:05362:88844:2","Name":"","MunicipalityCode":"00000000","Municipality":"-","DistrictCode":"-","District":"-","Description":"","Authority":"VRR","DelfiName":"-","THID":"-","LastOperationDate":"","SEV":"nein","longitude":"6,675004","latitude":"50,977858","geojson_lng":6.675004,"geojson_lat":50.977858},"geometry":{"type":"Point","coordinates":[6.675004,50.977858]}}]}