{"type":"FeatureCollection","features":[{"type":"Feature","properties":{"SeqNo":"744816","Type":"S","DHID":"de:06431:305","Parent":"de:06431:305","Name":"Nieder-Liebersbach","MunicipalityCode":"06431004","Municipality":"Birkenau","DistrictCode":"06431","District":"","Description":"","Authority":"VRN","DelfiName":"-","THID":"D9191F000131","LastOperationDate":"1999-12-31T00:00:00","SEV":"nein","longitude":"8,702645","latitude":"49,584034","geojson_lng":8.702645,"geojson_lat":49.584034},"geometry":{"type":"Point","coordinates":[8.702645,49.584034]}},{"type":"Feature","properties":{"SeqNo":"745971","Type":"S","DHID":"de:06431:6811","Parent":"de:06431:6811","Name":"Nieder-Liebersbach, Kirche","MunicipalityCode":"06431004","Municipality":"Birkenau","DistrictCode":"06431","District":"","Description":"","Authority":"VRN","DelfiName":"-","THID":"D9191F001A9B","LastOperationDate":"2025-06-13T00:00:00","SEV":"nein","longitude":"8,702672","latitude":"49,584004","geojson_lng":8.702672,"geojson_lat":49.584004},"geometry":{"type":"Point","coordinates":[8.702672,49.584004]}},{"type":"Feature","properties":{"SeqNo":"745972","Type":"Q","DHID":"de:06431:6811:0:Ri N","Parent":"de:06431:6811","Name":"Richtung N/ Rathaus","MunicipalityCode":"00000000","Municipality":"-","DistrictCode":"-","District":"-","Description":"","Authority":"VRN","DelfiName":"-","THID":"-","LastOperationDate":"","SEV":"nein","longitude":"8,702699","latitude":"49,584156","geojson_lng":8.702699,"geojson_lat":49.584156},"geometry":{"type":"Point","coordinates":[8.702699,49.584156]}},{"type":"Feature","properties":{"SeqNo":"745973","Type":"Q","DHID":"de:06431:6811:0:Ri S","Parent":"de:06431:6811","Name":"Richtung S/ Sparkasse","MunicipalityCode":"00000000","Municipality":"-","DistrictCode":"-","District":"-","Description":"","Authority":"VRN","DelfiName":"-","THID":"-","LastOperationDate":"","SEV":"nein","longitude":"8,702537","latitude":"49,584051","geojson_lng":8.702537,"geojson_lat":49.584051},"geometry":{"type":"Point","coordinates":[8.702537,49.584051]}},{"type":"Feature","properties":{"SeqNo":"746057","Type":"S","DHID":"de:06431:716","Parent":"de:06431:716","Name":"Nieder-Liebersbach, Friedhof","MunicipalityCode":"06431004","Municipality":"Birkenau","DistrictCode":"06431","District":"","Description":"","Authority":"VRN","DelfiName":"-","THID":"D9191F0002CC","LastOperationDate":"2025-06-14T00:00:00","SEV":"nein","longitude":"8,701774","latitude":"49,588157","geojson_lng":8.701774,"geojson_lat":49.588157},"geometry":{"type":"Point","coordinates":[8.701774,49.588157]}},{"type":"Feature","properties":{"SeqNo":"746058","Type":"Q","DHID":"de:06431:716:0:1","Parent":"de:06431:716","Name":"1","MunicipalityCode":"00000000","Municipality":"-","DistrictCode":"-","District":"-","Description":"","Authority":"VRN","DelfiName":"-","THID":"-","LastOperationDate":"","SEV":"nein","longitude":"8,701783","latitude":"49,588157","geojson_lng":8.701783,"geojson_lat":49.588157},"geometry":{"type":"Point","coordinates":[8.701783,49.588157]}},{"type":"Feature","properties":{"SeqNo":"746063","Type":"S","DHID":"de:06431:718","Parent":"de:06431:718","Name":"Nieder-Liebersbach, Schule","MunicipalityCode":"06431004","Municipality":"Birkenau","DistrictCode":"06431","District":"","Description":"","Authority":"VRN","DelfiName":"-","THID":"D9191F0002CE","LastOperationDate":"2025-06-14T00:00:00","SEV":"nein","longitude":"8,702672","latitude":"49,584034","geojson_lng":8.702672,"geojson_lat":49.584034},"geometry":{"type":"Point","coordinates":[8.702672,49.584034]}},{"type":"Feature","properties":{"SeqNo":"746064","Type":"Q","DHID":"de:06431:718:0:1","Parent":"de:06431:718","Name":"1","MunicipalityCode":"00000000","Municipality":"-","DistrictCode":"-","District":"-","Description":"","Authority":"VRN","DelfiName":"-","THID":"-","LastOperationDate":"","SEV":"nein","longitude":"8,70269","latitude":"49,584039","geojson_lng":8.70269,"geojson_lat":49.584039},"geometry":{"type":"Point","coordinates":[8.70269,49.584039]}},{"type":"Feature","properties":{"SeqNo":"746065","Type":"S","DHID":"de:06431:719","Parent":"de:06431:719","Name":"N-Liebersbach, Weiherwiese","MunicipalityCode":"06431004","Municipality":"Birkenau","DistrictCode":"06431","District":"","Description":"","Authority":"VRN","DelfiName":"-","THID":"D9191F0002CF","LastOperationDate":"2025-06-14T00:00:00","SEV":"nein","longitude":"8,706481","latitude":"49,583078","geojson_lng":8.706481,"geojson_lat":49.583078},"geometry":{"type":"Point","coordinates":[8.706481,49.583078]}},{"type":"Feature","properties":{"SeqNo":"746066","Type":"Q","DHID":"de:06431:719:0:1","Parent":"de:06431:719","Name":"1","MunicipalityCode":"00000000","Municipality":"-","DistrictCode":"-","District":"-","Description":"","Authority":"VRN","DelfiName":"-","THID":"-","LastOperationDate":"","SEV":"nein","longitude":"8,706472","latitude":"49,583078","geojson_lng":8.706472,"geojson_lat":49.583078},"geometry":{"type":"Point","coordinates":[8.706472,49.583078]}}]}