{"type":"FeatureCollection","features":[{"type":"Feature","properties":{"SeqNo":"105966","Type":"S","DHID":"de:09162:1054","Parent":"de:09162:1054","Name":"Obernzeller Straße","Latitude":"48,092786","Longitude":"11,609845","MunicipalityCode":"09162000","Municipality":"München","DistrictCode":"","District":"","Description":"","Authority":"BEG","DelfiName":"-","THID":"D923CA00041E","TariffProvider":"-","LastOperationDate":"2025-12-13T00:00:00","SEV":"nein","geojson_lng":11.609845,"geojson_lat":48.092786},"geometry":{"type":"Point","coordinates":[11.609845,48.092786]}},{"type":"Feature","properties":{"SeqNo":"105967","Type":"A","DHID":"de:09162:1054:3","Parent":"de:09162:1054","Name":"Steig 1+2","Latitude":"48,092786","Longitude":"11,609845","MunicipalityCode":"00000000","Municipality":"-","DistrictCode":"-","District":"-","Description":"","Authority":"BEG","DelfiName":"-","THID":"-","TariffProvider":"-","LastOperationDate":"","SEV":"nein","geojson_lng":11.609845,"geojson_lat":48.092786},"geometry":{"type":"Point","coordinates":[11.609845,48.092786]}},{"type":"Feature","properties":{"SeqNo":"105968","Type":"Q","DHID":"de:09162:1054:3:OBZ 1","Parent":"de:09162:1054:3","Name":"1","Latitude":"48,092852","Longitude":"11,609926","MunicipalityCode":"00000000","Municipality":"-","DistrictCode":"-","District":"-","Description":"","Authority":"BEG","DelfiName":"-","THID":"-","TariffProvider":"-","LastOperationDate":"","SEV":"nein","geojson_lng":11.609926,"geojson_lat":48.092852},"geometry":{"type":"Point","coordinates":[11.609926,48.092852]}},{"type":"Feature","properties":{"SeqNo":"105969","Type":"Q","DHID":"de:09162:1054:3:OBZ 2","Parent":"de:09162:1054:3","Name":"2","Latitude":"48,092708","Longitude":"11,609728","MunicipalityCode":"00000000","Municipality":"-","DistrictCode":"-","District":"-","Description":"","Authority":"BEG","DelfiName":"-","THID":"-","TariffProvider":"-","LastOperationDate":"","SEV":"nein","geojson_lng":11.609728,"geojson_lat":48.092708},"geometry":{"type":"Point","coordinates":[11.609728,48.092708]}},{"type":"Feature","properties":{"SeqNo":"105970","Type":"S","DHID":"de:09162:1055","Parent":"de:09162:1055","Name":"Plassenburgstraße","Latitude":"48,097358","Longitude":"11,607868","MunicipalityCode":"09162000","Municipality":"München","DistrictCode":"","District":"","Description":"","Authority":"BEG","DelfiName":"-","THID":"D923CA00041F","TariffProvider":"-","LastOperationDate":"2025-12-13T00:00:00","SEV":"nein","geojson_lng":11.607868,"geojson_lat":48.097358},"geometry":{"type":"Point","coordinates":[11.607868,48.097358]}},{"type":"Feature","properties":{"SeqNo":"105971","Type":"A","DHID":"de:09162:1055:1","Parent":"de:09162:1055","Name":"Steig 1","Latitude":"48,097406","Longitude":"11,607689","MunicipalityCode":"00000000","Municipality":"-","DistrictCode":"-","District":"-","Description":"","Authority":"BEG","DelfiName":"-","THID":"-","TariffProvider":"-","LastOperationDate":"","SEV":"nein","geojson_lng":11.607689,"geojson_lat":48.097406},"geometry":{"type":"Point","coordinates":[11.607689,48.097406]}},{"type":"Feature","properties":{"SeqNo":"105972","Type":"A","DHID":"de:09162:1055:2","Parent":"de:09162:1055","Name":"Steig 2","Latitude":"48,097334","Longitude":"11,60803","MunicipalityCode":"00000000","Municipality":"-","DistrictCode":"-","District":"-","Description":"","Authority":"BEG","DelfiName":"-","THID":"-","TariffProvider":"-","LastOperationDate":"","SEV":"nein","geojson_lng":11.60803,"geojson_lat":48.097334},"geometry":{"type":"Point","coordinates":[11.60803,48.097334]}},{"type":"Feature","properties":{"SeqNo":"105973","Type":"Q","DHID":"de:09162:1055:1:1","Parent":"de:09162:1055:1","Name":"1","Latitude":"48,097406","Longitude":"11,607689","MunicipalityCode":"00000000","Municipality":"-","DistrictCode":"-","District":"-","Description":"","Authority":"BEG","DelfiName":"-","THID":"-","TariffProvider":"-","LastOperationDate":"","SEV":"nein","geojson_lng":11.607689,"geojson_lat":48.097406},"geometry":{"type":"Point","coordinates":[11.607689,48.097406]}},{"type":"Feature","properties":{"SeqNo":"105974","Type":"Q","DHID":"de:09162:1055:2:2","Parent":"de:09162:1055:2","Name":"2","Latitude":"48,097334","Longitude":"11,60803","MunicipalityCode":"00000000","Municipality":"-","DistrictCode":"-","District":"-","Description":"","Authority":"BEG","DelfiName":"-","THID":"-","TariffProvider":"-","LastOperationDate":"","SEV":"nein","geojson_lng":11.60803,"geojson_lat":48.097334},"geometry":{"type":"Point","coordinates":[11.60803,48.097334]}},{"type":"Feature","properties":{"SeqNo":"105995","Type":"S","DHID":"de:09162:1059","Parent":"de:09162:1059","Name":"Görzer Straße","Latitude":"48,095558","Longitude":"11,609396","MunicipalityCode":"09162000","Municipality":"München","DistrictCode":"","District":"","Description":"","Authority":"BEG","DelfiName":"-","THID":"D923CA000423","TariffProvider":"-","LastOperationDate":"2025-12-13T00:00:00","SEV":"nein","geojson_lng":11.609396,"geojson_lat":48.095558},"geometry":{"type":"Point","coordinates":[11.609396,48.095558]}},{"type":"Feature","properties":{"SeqNo":"105996","Type":"A","DHID":"de:09162:1059:3","Parent":"de:09162:1059","Name":"Steig 1+2","Latitude":"48,095558","Longitude":"11,609396","MunicipalityCode":"00000000","Municipality":"-","DistrictCode":"-","District":"-","Description":"","Authority":"BEG","DelfiName":"-","THID":"-","TariffProvider":"-","LastOperationDate":"","SEV":"nein","geojson_lng":11.609396,"geojson_lat":48.095558},"geometry":{"type":"Point","coordinates":[11.609396,48.095558]}},{"type":"Feature","properties":{"SeqNo":"105997","Type":"A","DHID":"de:09162:1059:31","Parent":"de:09162:1059","Name":"Steig 71","Latitude":"48,09593","Longitude":"11,609045","MunicipalityCode":"00000000","Municipality":"-","DistrictCode":"-","District":"-","Description":"","Authority":"BEG","DelfiName":"-","THID":"-","TariffProvider":"-","LastOperationDate":"","SEV":"nein","geojson_lng":11.609045,"geojson_lat":48.09593},"geometry":{"type":"Point","coordinates":[11.609045,48.09593]}},{"type":"Feature","properties":{"SeqNo":"105998","Type":"Q","DHID":"de:09162:1059:3:GRZ 1","Parent":"de:09162:1059:3","Name":"1","Latitude":"48,095546","Longitude":"11,609261","MunicipalityCode":"00000000","Municipality":"-","DistrictCode":"-","District":"-","Description":"","Authority":"BEG","DelfiName":"-","THID":"-","TariffProvider":"-","LastOperationDate":"","SEV":"nein","geojson_lng":11.609261,"geojson_lat":48.095546},"geometry":{"type":"Point","coordinates":[11.609261,48.095546]}},{"type":"Feature","properties":{"SeqNo":"105999","Type":"Q","DHID":"de:09162:1059:3:GRZ 2","Parent":"de:09162:1059:3","Name":"2","Latitude":"48,09554","Longitude":"11,609548","MunicipalityCode":"00000000","Municipality":"-","DistrictCode":"-","District":"-","Description":"","Authority":"BEG","DelfiName":"-","THID":"-","TariffProvider":"-","LastOperationDate":"","SEV":"nein","geojson_lng":11.609548,"geojson_lat":48.09554},"geometry":{"type":"Point","coordinates":[11.609548,48.09554]}},{"type":"Feature","properties":{"SeqNo":"106000","Type":"Q","DHID":"de:09162:1059:31:71","Parent":"de:09162:1059:31","Name":"71","Latitude":"48,095912","Longitude":"11,60909","MunicipalityCode":"00000000","Municipality":"-","DistrictCode":"-","District":"-","Description":"","Authority":"BEG","DelfiName":"-","THID":"-","TariffProvider":"-","LastOperationDate":"","SEV":"nein","geojson_lng":11.60909,"geojson_lat":48.095912},"geometry":{"type":"Point","coordinates":[11.60909,48.095912]}},{"type":"Feature","properties":{"SeqNo":"106052","Type":"S","DHID":"de:09162:1062","Parent":"de:09162:1062","Name":"Cincinnatistraße","Latitude":"48,092726","Longitude":"11,601796","MunicipalityCode":"09162000","Municipality":"München","DistrictCode":"","District":"","Description":"","Authority":"BEG","DelfiName":"-","THID":"D923CA000426","TariffProvider":"-","LastOperationDate":"2025-12-13T00:00:00","SEV":"nein","geojson_lng":11.601796,"geojson_lat":48.092726},"geometry":{"type":"Point","coordinates":[11.601796,48.092726]}},{"type":"Feature","properties":{"SeqNo":"106053","Type":"A","DHID":"de:09162:1062:1","Parent":"de:09162:1062","Name":"Steig 1","Latitude":"48,092816","Longitude":"11,60194","MunicipalityCode":"00000000","Municipality":"-","DistrictCode":"-","District":"-","Description":"","Authority":"BEG","DelfiName":"-","THID":"-","TariffProvider":"-","LastOperationDate":"","SEV":"nein","geojson_lng":11.60194,"geojson_lat":48.092816},"geometry":{"type":"Point","coordinates":[11.60194,48.092816]}},{"type":"Feature","properties":{"SeqNo":"106055","Type":"Q","DHID":"de:09162:1062:1:1","Parent":"de:09162:1062:1","Name":"1","Latitude":"48,092816","Longitude":"11,60194","MunicipalityCode":"00000000","Municipality":"-","DistrictCode":"-","District":"-","Description":"","Authority":"BEG","DelfiName":"-","THID":"-","TariffProvider":"-","LastOperationDate":"","SEV":"nein","geojson_lng":11.60194,"geojson_lat":48.092816},"geometry":{"type":"Point","coordinates":[11.60194,48.092816]}},{"type":"Feature","properties":{"SeqNo":"106481","Type":"S","DHID":"de:09162:1120","Parent":"de:09162:1120","Name":"Fasangarten","Latitude":"48,09338","Longitude":"11,604697","MunicipalityCode":"09162000","Municipality":"München","DistrictCode":"","District":"","Description":"","Authority":"BEG","DelfiName":"-","THID":"D923CA000460","TariffProvider":"-","LastOperationDate":"2025-12-13T00:00:00","SEV":"nein","geojson_lng":11.604697,"geojson_lat":48.09338},"geometry":{"type":"Point","coordinates":[11.604697,48.09338]}},{"type":"Feature","properties":{"SeqNo":"106482","Type":"A","DHID":"de:09162:1120:1","Parent":"de:09162:1120","Name":"Steig 1","Latitude":"48,093416","Longitude":"11,604033","MunicipalityCode":"00000000","Municipality":"-","DistrictCode":"-","District":"-","Description":"","Authority":"BEG","DelfiName":"-","THID":"-","TariffProvider":"-","LastOperationDate":"","SEV":"nein","geojson_lng":11.604033,"geojson_lat":48.093416},"geometry":{"type":"Point","coordinates":[11.604033,48.093416]}},{"type":"Feature","properties":{"SeqNo":"106483","Type":"A","DHID":"de:09162:1120:2","Parent":"de:09162:1120","Name":"Steig 2","Latitude":"48,093158","Longitude":"11,603871","MunicipalityCode":"00000000","Municipality":"-","DistrictCode":"-","District":"-","Description":"","Authority":"BEG","DelfiName":"-","THID":"-","TariffProvider":"-","LastOperationDate":"","SEV":"nein","geojson_lng":11.603871,"geojson_lat":48.093158},"geometry":{"type":"Point","coordinates":[11.603871,48.093158]}},{"type":"Feature","properties":{"SeqNo":"106484","Type":"A","DHID":"de:09162:1120:20","Parent":"de:09162:1120","Name":"B+R Ost","Latitude":"48,09389","Longitude":"11,605991","MunicipalityCode":"00000000","Municipality":"-","DistrictCode":"-","District":"-","Description":"","Authority":"BEG","DelfiName":"-","THID":"-","TariffProvider":"-","LastOperationDate":"","SEV":"nein","geojson_lng":11.605991,"geojson_lat":48.09389},"geometry":{"type":"Point","coordinates":[11.605991,48.09389]}},{"type":"Feature","properties":{"SeqNo":"106486","Type":"A","DHID":"de:09162:1120:22","Parent":"de:09162:1120","Name":"B+R West","Latitude":"48,093674","Longitude":"11,60538","MunicipalityCode":"00000000","Municipality":"-","DistrictCode":"-","District":"-","Description":"","Authority":"BEG","DelfiName":"-","THID":"-","TariffProvider":"-","LastOperationDate":"","SEV":"nein","geojson_lng":11.60538,"geojson_lat":48.093674},"geometry":{"type":"Point","coordinates":[11.60538,48.093674]}},{"type":"Feature","properties":{"SeqNo":"106488","Type":"A","DHID":"de:09162:1120:41","Parent":"de:09162:1120","Name":"Gleis 1","Latitude":"48,092798","Longitude":"11,606054","MunicipalityCode":"00000000","Municipality":"-","DistrictCode":"-","District":"-","Description":"","Authority":"BEG","DelfiName":"-","THID":"-","TariffProvider":"-","LastOperationDate":"","SEV":"nein","geojson_lng":11.606054,"geojson_lat":48.092798},"geometry":{"type":"Point","coordinates":[11.606054,48.092798]}},{"type":"Feature","properties":{"SeqNo":"106489","Type":"A","DHID":"de:09162:1120:42","Parent":"de:09162:1120","Name":"Gleis 2","Latitude":"48,092768","Longitude":"11,605901","MunicipalityCode":"00000000","Municipality":"-","DistrictCode":"-","District":"-","Description":"","Authority":"BEG","DelfiName":"-","THID":"-","TariffProvider":"-","LastOperationDate":"","SEV":"nein","geojson_lng":11.605901,"geojson_lat":48.092768},"geometry":{"type":"Point","coordinates":[11.605901,48.092768]}},{"type":"Feature","properties":{"SeqNo":"106490","Type":"A","DHID":"de:09162:1120:61","Parent":"de:09162:1120","Name":"Zugang Treppe 81","Latitude":"48,09371","Longitude":"11,605694","MunicipalityCode":"00000000","Municipality":"-","DistrictCode":"-","District":"-","Description":"","Authority":"BEG","DelfiName":"-","THID":"-","TariffProvider":"-","LastOperationDate":"","SEV":"nein","geojson_lng":11.605694,"geojson_lat":48.09371},"geometry":{"type":"Point","coordinates":[11.605694,48.09371]}},{"type":"Feature","properties":{"SeqNo":"106491","Type":"A","DHID":"de:09162:1120:62","Parent":"de:09162:1120","Name":"Zugang Treppe 82","Latitude":"48,093626","Longitude":"11,605479","MunicipalityCode":"00000000","Municipality":"-","DistrictCode":"-","District":"-","Description":"","Authority":"BEG","DelfiName":"-","THID":"-","TariffProvider":"-","LastOperationDate":"","SEV":"nein","geojson_lng":11.605479,"geojson_lat":48.093626},"geometry":{"type":"Point","coordinates":[11.605479,48.093626]}},{"type":"Feature","properties":{"SeqNo":"106494","Type":"A","DHID":"de:09162:1120:70","Parent":"de:09162:1120","Name":"Zugang Verteiler","Latitude":"48,093548","Longitude":"11,6052","MunicipalityCode":"00000000","Municipality":"-","DistrictCode":"-","District":"-","Description":"","Authority":"BEG","DelfiName":"-","THID":"-","TariffProvider":"-","LastOperationDate":"","SEV":"nein","geojson_lng":11.6052,"geojson_lat":48.093548},"geometry":{"type":"Point","coordinates":[11.6052,48.093548]}},{"type":"Feature","properties":{"SeqNo":"106495","Type":"A","DHID":"de:09162:1120:71","Parent":"de:09162:1120","Name":"Zugang Rampe 81","Latitude":"48,09368","Longitude":"11,605748","MunicipalityCode":"00000000","Municipality":"-","DistrictCode":"-","District":"-","Description":"","Authority":"BEG","DelfiName":"-","THID":"-","TariffProvider":"-","LastOperationDate":"","SEV":"nein","geojson_lng":11.605748,"geojson_lat":48.09368},"geometry":{"type":"Point","coordinates":[11.605748,48.09368]}},{"type":"Feature","properties":{"SeqNo":"106496","Type":"A","DHID":"de:09162:1120:72","Parent":"de:09162:1120","Name":"Zugang Rampe 82","Latitude":"48,093566","Longitude":"11,605533","MunicipalityCode":"00000000","Municipality":"-","DistrictCode":"-","District":"-","Description":"","Authority":"BEG","DelfiName":"-","THID":"-","TariffProvider":"-","LastOperationDate":"","SEV":"nein","geojson_lng":11.605533,"geojson_lat":48.093566},"geometry":{"type":"Point","coordinates":[11.605533,48.093566]}},{"type":"Feature","properties":{"SeqNo":"106499","Type":"A","DHID":"de:09162:1120:79","Parent":"de:09162:1120","Name":"Zugang Arzbergers","Latitude":"48,093974","Longitude":"11,606323","MunicipalityCode":"00000000","Municipality":"-","DistrictCode":"-","District":"-","Description":"","Authority":"BEG","DelfiName":"-","THID":"-","TariffProvider":"-","LastOperationDate":"","SEV":"nein","geojson_lng":11.606323,"geojson_lat":48.093974},"geometry":{"type":"Point","coordinates":[11.606323,48.093974]}},{"type":"Feature","properties":{"SeqNo":"106500","Type":"Q","DHID":"de:09162:1120:1:1","Parent":"de:09162:1120:1","Name":"1","Latitude":"48,093416","Longitude":"11,604033","MunicipalityCode":"00000000","Municipality":"-","DistrictCode":"-","District":"-","Description":"","Authority":"BEG","DelfiName":"-","THID":"-","TariffProvider":"-","LastOperationDate":"","SEV":"nein","geojson_lng":11.604033,"geojson_lat":48.093416},"geometry":{"type":"Point","coordinates":[11.604033,48.093416]}},{"type":"Feature","properties":{"SeqNo":"106501","Type":"Q","DHID":"de:09162:1120:2:2","Parent":"de:09162:1120:2","Name":"2","Latitude":"48,093158","Longitude":"11,603853","MunicipalityCode":"00000000","Municipality":"-","DistrictCode":"-","District":"-","Description":"","Authority":"BEG","DelfiName":"-","THID":"-","TariffProvider":"-","LastOperationDate":"","SEV":"nein","geojson_lng":11.603853,"geojson_lat":48.093158},"geometry":{"type":"Point","coordinates":[11.603853,48.093158]}},{"type":"Feature","properties":{"SeqNo":"106503","Type":"Q","DHID":"de:09162:1120:41:81","Parent":"de:09162:1120:41","Name":"Gleis 1","Latitude":"48,092702","Longitude":"11,606018","MunicipalityCode":"00000000","Municipality":"-","DistrictCode":"-","District":"-","Description":"","Authority":"BEG","DelfiName":"-","THID":"-","TariffProvider":"-","LastOperationDate":"","SEV":"nein","geojson_lng":11.606018,"geojson_lat":48.092702},"geometry":{"type":"Point","coordinates":[11.606018,48.092702]}},{"type":"Feature","properties":{"SeqNo":"106504","Type":"Q","DHID":"de:09162:1120:42:82","Parent":"de:09162:1120:42","Name":"Gleis 2","Latitude":"48,09269","Longitude":"11,605982","MunicipalityCode":"00000000","Municipality":"-","DistrictCode":"-","District":"-","Description":"","Authority":"BEG","DelfiName":"-","THID":"-","TariffProvider":"-","LastOperationDate":"","SEV":"nein","geojson_lng":11.605982,"geojson_lat":48.09269},"geometry":{"type":"Point","coordinates":[11.605982,48.09269]}}]}