{"type":"FeatureCollection","features":[{"type":"Feature","properties":{"SeqNo":"99958","Type":"S","DHID":"de:09162:1054","Parent":"de:09162:1054","Name":"Obernzeller Straße","MunicipalityCode":"09162000","Municipality":"München","DistrictCode":"","District":"","Description":"","Authority":"BEG","DelfiName":"-","THID":"D923CA00041E","LastOperationDate":"2025-06-14T00:00:00","SEV":"nein","longitude":"11,609845","latitude":"48,092786","geojson_lng":11.609845,"geojson_lat":48.092786},"geometry":{"type":"Point","coordinates":[11.609845,48.092786]}},{"type":"Feature","properties":{"SeqNo":"99959","Type":"A","DHID":"de:09162:1054:3","Parent":"de:09162:1054","Name":"Steig 1+2","MunicipalityCode":"00000000","Municipality":"-","DistrictCode":"-","District":"-","Description":"","Authority":"BEG","DelfiName":"-","THID":"-","LastOperationDate":"","SEV":"nein","longitude":"11,609845","latitude":"48,092786","geojson_lng":11.609845,"geojson_lat":48.092786},"geometry":{"type":"Point","coordinates":[11.609845,48.092786]}},{"type":"Feature","properties":{"SeqNo":"99960","Type":"Q","DHID":"de:09162:1054:3:OBZ 1","Parent":"de:09162:1054:3","Name":"1","MunicipalityCode":"00000000","Municipality":"-","DistrictCode":"-","District":"-","Description":"","Authority":"BEG","DelfiName":"-","THID":"-","LastOperationDate":"","SEV":"nein","longitude":"11,609926","latitude":"48,092852","geojson_lng":11.609926,"geojson_lat":48.092852},"geometry":{"type":"Point","coordinates":[11.609926,48.092852]}},{"type":"Feature","properties":{"SeqNo":"99961","Type":"Q","DHID":"de:09162:1054:3:OBZ 2","Parent":"de:09162:1054:3","Name":"2","MunicipalityCode":"00000000","Municipality":"-","DistrictCode":"-","District":"-","Description":"","Authority":"BEG","DelfiName":"-","THID":"-","LastOperationDate":"","SEV":"nein","longitude":"11,609728","latitude":"48,092708","geojson_lng":11.609728,"geojson_lat":48.092708},"geometry":{"type":"Point","coordinates":[11.609728,48.092708]}},{"type":"Feature","properties":{"SeqNo":"99962","Type":"S","DHID":"de:09162:1055","Parent":"de:09162:1055","Name":"Plassenburgstraße","MunicipalityCode":"09162000","Municipality":"München","DistrictCode":"","District":"","Description":"","Authority":"BEG","DelfiName":"-","THID":"D923CA00041F","LastOperationDate":"2025-06-14T00:00:00","SEV":"nein","longitude":"11,607868","latitude":"48,097358","geojson_lng":11.607868,"geojson_lat":48.097358},"geometry":{"type":"Point","coordinates":[11.607868,48.097358]}},{"type":"Feature","properties":{"SeqNo":"99963","Type":"A","DHID":"de:09162:1055:1","Parent":"de:09162:1055","Name":"Steig 1","MunicipalityCode":"00000000","Municipality":"-","DistrictCode":"-","District":"-","Description":"","Authority":"BEG","DelfiName":"-","THID":"-","LastOperationDate":"","SEV":"nein","longitude":"11,607689","latitude":"48,097406","geojson_lng":11.607689,"geojson_lat":48.097406},"geometry":{"type":"Point","coordinates":[11.607689,48.097406]}},{"type":"Feature","properties":{"SeqNo":"99964","Type":"A","DHID":"de:09162:1055:2","Parent":"de:09162:1055","Name":"Steig 2","MunicipalityCode":"00000000","Municipality":"-","DistrictCode":"-","District":"-","Description":"","Authority":"BEG","DelfiName":"-","THID":"-","LastOperationDate":"","SEV":"nein","longitude":"11,60803","latitude":"48,097334","geojson_lng":11.60803,"geojson_lat":48.097334},"geometry":{"type":"Point","coordinates":[11.60803,48.097334]}},{"type":"Feature","properties":{"SeqNo":"99965","Type":"Q","DHID":"de:09162:1055:1:1","Parent":"de:09162:1055:1","Name":"1","MunicipalityCode":"00000000","Municipality":"-","DistrictCode":"-","District":"-","Description":"","Authority":"BEG","DelfiName":"-","THID":"-","LastOperationDate":"","SEV":"nein","longitude":"11,607689","latitude":"48,097406","geojson_lng":11.607689,"geojson_lat":48.097406},"geometry":{"type":"Point","coordinates":[11.607689,48.097406]}},{"type":"Feature","properties":{"SeqNo":"99966","Type":"Q","DHID":"de:09162:1055:2:2","Parent":"de:09162:1055:2","Name":"2","MunicipalityCode":"00000000","Municipality":"-","DistrictCode":"-","District":"-","Description":"","Authority":"BEG","DelfiName":"-","THID":"-","LastOperationDate":"","SEV":"nein","longitude":"11,60803","latitude":"48,097334","geojson_lng":11.60803,"geojson_lat":48.097334},"geometry":{"type":"Point","coordinates":[11.60803,48.097334]}},{"type":"Feature","properties":{"SeqNo":"99987","Type":"S","DHID":"de:09162:1059","Parent":"de:09162:1059","Name":"Görzer Straße","MunicipalityCode":"09162000","Municipality":"München","DistrictCode":"","District":"","Description":"","Authority":"BEG","DelfiName":"-","THID":"D923CA000423","LastOperationDate":"2025-06-14T00:00:00","SEV":"nein","longitude":"11,609396","latitude":"48,095558","geojson_lng":11.609396,"geojson_lat":48.095558},"geometry":{"type":"Point","coordinates":[11.609396,48.095558]}},{"type":"Feature","properties":{"SeqNo":"99988","Type":"A","DHID":"de:09162:1059:3","Parent":"de:09162:1059","Name":"Steig 1+2","MunicipalityCode":"00000000","Municipality":"-","DistrictCode":"-","District":"-","Description":"","Authority":"BEG","DelfiName":"-","THID":"-","LastOperationDate":"","SEV":"nein","longitude":"11,609396","latitude":"48,095558","geojson_lng":11.609396,"geojson_lat":48.095558},"geometry":{"type":"Point","coordinates":[11.609396,48.095558]}},{"type":"Feature","properties":{"SeqNo":"99989","Type":"A","DHID":"de:09162:1059:31","Parent":"de:09162:1059","Name":"Steig 71","MunicipalityCode":"00000000","Municipality":"-","DistrictCode":"-","District":"-","Description":"","Authority":"BEG","DelfiName":"-","THID":"-","LastOperationDate":"","SEV":"nein","longitude":"11,609045","latitude":"48,09593","geojson_lng":11.609045,"geojson_lat":48.09593},"geometry":{"type":"Point","coordinates":[11.609045,48.09593]}},{"type":"Feature","properties":{"SeqNo":"99990","Type":"Q","DHID":"de:09162:1059:3:GRZ 1","Parent":"de:09162:1059:3","Name":"1","MunicipalityCode":"00000000","Municipality":"-","DistrictCode":"-","District":"-","Description":"","Authority":"BEG","DelfiName":"-","THID":"-","LastOperationDate":"","SEV":"nein","longitude":"11,609261","latitude":"48,095546","geojson_lng":11.609261,"geojson_lat":48.095546},"geometry":{"type":"Point","coordinates":[11.609261,48.095546]}},{"type":"Feature","properties":{"SeqNo":"99991","Type":"Q","DHID":"de:09162:1059:3:GRZ 2","Parent":"de:09162:1059:3","Name":"2","MunicipalityCode":"00000000","Municipality":"-","DistrictCode":"-","District":"-","Description":"","Authority":"BEG","DelfiName":"-","THID":"-","LastOperationDate":"","SEV":"nein","longitude":"11,609548","latitude":"48,09554","geojson_lng":11.609548,"geojson_lat":48.09554},"geometry":{"type":"Point","coordinates":[11.609548,48.09554]}},{"type":"Feature","properties":{"SeqNo":"99992","Type":"Q","DHID":"de:09162:1059:31:71","Parent":"de:09162:1059:31","Name":"71","MunicipalityCode":"00000000","Municipality":"-","DistrictCode":"-","District":"-","Description":"","Authority":"BEG","DelfiName":"-","THID":"-","LastOperationDate":"","SEV":"nein","longitude":"11,60909","latitude":"48,095912","geojson_lng":11.60909,"geojson_lat":48.095912},"geometry":{"type":"Point","coordinates":[11.60909,48.095912]}},{"type":"Feature","properties":{"SeqNo":"100044","Type":"S","DHID":"de:09162:1062","Parent":"de:09162:1062","Name":"Cincinnatistraße","MunicipalityCode":"09162000","Municipality":"München","DistrictCode":"","District":"","Description":"","Authority":"BEG","DelfiName":"-","THID":"D923CA000426","LastOperationDate":"2025-06-14T00:00:00","SEV":"nein","longitude":"11,601796","latitude":"48,092726","geojson_lng":11.601796,"geojson_lat":48.092726},"geometry":{"type":"Point","coordinates":[11.601796,48.092726]}},{"type":"Feature","properties":{"SeqNo":"100045","Type":"A","DHID":"de:09162:1062:1","Parent":"de:09162:1062","Name":"Steig 1","MunicipalityCode":"00000000","Municipality":"-","DistrictCode":"-","District":"-","Description":"","Authority":"BEG","DelfiName":"-","THID":"-","LastOperationDate":"","SEV":"nein","longitude":"11,60194","latitude":"48,092816","geojson_lng":11.60194,"geojson_lat":48.092816},"geometry":{"type":"Point","coordinates":[11.60194,48.092816]}},{"type":"Feature","properties":{"SeqNo":"100047","Type":"Q","DHID":"de:09162:1062:1:1","Parent":"de:09162:1062:1","Name":"1","MunicipalityCode":"00000000","Municipality":"-","DistrictCode":"-","District":"-","Description":"","Authority":"BEG","DelfiName":"-","THID":"-","LastOperationDate":"","SEV":"nein","longitude":"11,60194","latitude":"48,092816","geojson_lng":11.60194,"geojson_lat":48.092816},"geometry":{"type":"Point","coordinates":[11.60194,48.092816]}},{"type":"Feature","properties":{"SeqNo":"100468","Type":"S","DHID":"de:09162:1120","Parent":"de:09162:1120","Name":"Fasangarten","MunicipalityCode":"09162000","Municipality":"München","DistrictCode":"","District":"","Description":"","Authority":"BEG","DelfiName":"-","THID":"D923CA000460","LastOperationDate":"2025-02-20T00:00:00","SEV":"nein","longitude":"11,604697","latitude":"48,09338","geojson_lng":11.604697,"geojson_lat":48.09338},"geometry":{"type":"Point","coordinates":[11.604697,48.09338]}},{"type":"Feature","properties":{"SeqNo":"100469","Type":"A","DHID":"de:09162:1120:1","Parent":"de:09162:1120","Name":"Steig 1","MunicipalityCode":"00000000","Municipality":"-","DistrictCode":"-","District":"-","Description":"","Authority":"BEG","DelfiName":"-","THID":"-","LastOperationDate":"","SEV":"nein","longitude":"11,604033","latitude":"48,093416","geojson_lng":11.604033,"geojson_lat":48.093416},"geometry":{"type":"Point","coordinates":[11.604033,48.093416]}},{"type":"Feature","properties":{"SeqNo":"100470","Type":"A","DHID":"de:09162:1120:2","Parent":"de:09162:1120","Name":"Steig 2","MunicipalityCode":"00000000","Municipality":"-","DistrictCode":"-","District":"-","Description":"","Authority":"BEG","DelfiName":"-","THID":"-","LastOperationDate":"","SEV":"nein","longitude":"11,603871","latitude":"48,093158","geojson_lng":11.603871,"geojson_lat":48.093158},"geometry":{"type":"Point","coordinates":[11.603871,48.093158]}},{"type":"Feature","properties":{"SeqNo":"100471","Type":"A","DHID":"de:09162:1120:20","Parent":"de:09162:1120","Name":"B+R Ost","MunicipalityCode":"00000000","Municipality":"-","DistrictCode":"-","District":"-","Description":"","Authority":"BEG","DelfiName":"-","THID":"-","LastOperationDate":"","SEV":"nein","longitude":"11,605991","latitude":"48,09389","geojson_lng":11.605991,"geojson_lat":48.09389},"geometry":{"type":"Point","coordinates":[11.605991,48.09389]}},{"type":"Feature","properties":{"SeqNo":"100473","Type":"A","DHID":"de:09162:1120:22","Parent":"de:09162:1120","Name":"B+R West","MunicipalityCode":"00000000","Municipality":"-","DistrictCode":"-","District":"-","Description":"","Authority":"BEG","DelfiName":"-","THID":"-","LastOperationDate":"","SEV":"nein","longitude":"11,60538","latitude":"48,093674","geojson_lng":11.60538,"geojson_lat":48.093674},"geometry":{"type":"Point","coordinates":[11.60538,48.093674]}},{"type":"Feature","properties":{"SeqNo":"100475","Type":"A","DHID":"de:09162:1120:41","Parent":"de:09162:1120","Name":"Gleis 1","MunicipalityCode":"00000000","Municipality":"-","DistrictCode":"-","District":"-","Description":"","Authority":"BEG","DelfiName":"-","THID":"-","LastOperationDate":"","SEV":"nein","longitude":"11,606054","latitude":"48,092798","geojson_lng":11.606054,"geojson_lat":48.092798},"geometry":{"type":"Point","coordinates":[11.606054,48.092798]}},{"type":"Feature","properties":{"SeqNo":"100476","Type":"A","DHID":"de:09162:1120:42","Parent":"de:09162:1120","Name":"Gleis 2","MunicipalityCode":"00000000","Municipality":"-","DistrictCode":"-","District":"-","Description":"","Authority":"BEG","DelfiName":"-","THID":"-","LastOperationDate":"","SEV":"nein","longitude":"11,605901","latitude":"48,092768","geojson_lng":11.605901,"geojson_lat":48.092768},"geometry":{"type":"Point","coordinates":[11.605901,48.092768]}},{"type":"Feature","properties":{"SeqNo":"100477","Type":"A","DHID":"de:09162:1120:61","Parent":"de:09162:1120","Name":"Zugang Treppe 81","MunicipalityCode":"00000000","Municipality":"-","DistrictCode":"-","District":"-","Description":"","Authority":"BEG","DelfiName":"-","THID":"-","LastOperationDate":"","SEV":"nein","longitude":"11,605694","latitude":"48,09371","geojson_lng":11.605694,"geojson_lat":48.09371},"geometry":{"type":"Point","coordinates":[11.605694,48.09371]}},{"type":"Feature","properties":{"SeqNo":"100478","Type":"A","DHID":"de:09162:1120:62","Parent":"de:09162:1120","Name":"Zugang Treppe 82","MunicipalityCode":"00000000","Municipality":"-","DistrictCode":"-","District":"-","Description":"","Authority":"BEG","DelfiName":"-","THID":"-","LastOperationDate":"","SEV":"nein","longitude":"11,605479","latitude":"48,093626","geojson_lng":11.605479,"geojson_lat":48.093626},"geometry":{"type":"Point","coordinates":[11.605479,48.093626]}},{"type":"Feature","properties":{"SeqNo":"100481","Type":"A","DHID":"de:09162:1120:70","Parent":"de:09162:1120","Name":"Zugang Verteiler","MunicipalityCode":"00000000","Municipality":"-","DistrictCode":"-","District":"-","Description":"","Authority":"BEG","DelfiName":"-","THID":"-","LastOperationDate":"","SEV":"nein","longitude":"11,6052","latitude":"48,093548","geojson_lng":11.6052,"geojson_lat":48.093548},"geometry":{"type":"Point","coordinates":[11.6052,48.093548]}},{"type":"Feature","properties":{"SeqNo":"100482","Type":"A","DHID":"de:09162:1120:71","Parent":"de:09162:1120","Name":"Zugang Rampe 81","MunicipalityCode":"00000000","Municipality":"-","DistrictCode":"-","District":"-","Description":"","Authority":"BEG","DelfiName":"-","THID":"-","LastOperationDate":"","SEV":"nein","longitude":"11,605748","latitude":"48,09368","geojson_lng":11.605748,"geojson_lat":48.09368},"geometry":{"type":"Point","coordinates":[11.605748,48.09368]}},{"type":"Feature","properties":{"SeqNo":"100483","Type":"A","DHID":"de:09162:1120:72","Parent":"de:09162:1120","Name":"Zugang Rampe 82","MunicipalityCode":"00000000","Municipality":"-","DistrictCode":"-","District":"-","Description":"","Authority":"BEG","DelfiName":"-","THID":"-","LastOperationDate":"","SEV":"nein","longitude":"11,605533","latitude":"48,093566","geojson_lng":11.605533,"geojson_lat":48.093566},"geometry":{"type":"Point","coordinates":[11.605533,48.093566]}},{"type":"Feature","properties":{"SeqNo":"100486","Type":"A","DHID":"de:09162:1120:79","Parent":"de:09162:1120","Name":"Zugang Arzbergers","MunicipalityCode":"00000000","Municipality":"-","DistrictCode":"-","District":"-","Description":"","Authority":"BEG","DelfiName":"-","THID":"-","LastOperationDate":"","SEV":"nein","longitude":"11,606323","latitude":"48,093974","geojson_lng":11.606323,"geojson_lat":48.093974},"geometry":{"type":"Point","coordinates":[11.606323,48.093974]}},{"type":"Feature","properties":{"SeqNo":"100487","Type":"Q","DHID":"de:09162:1120:1:1","Parent":"de:09162:1120:1","Name":"1","MunicipalityCode":"00000000","Municipality":"-","DistrictCode":"-","District":"-","Description":"","Authority":"BEG","DelfiName":"-","THID":"-","LastOperationDate":"","SEV":"nein","longitude":"11,604033","latitude":"48,093416","geojson_lng":11.604033,"geojson_lat":48.093416},"geometry":{"type":"Point","coordinates":[11.604033,48.093416]}},{"type":"Feature","properties":{"SeqNo":"100488","Type":"Q","DHID":"de:09162:1120:2:2","Parent":"de:09162:1120:2","Name":"2","MunicipalityCode":"00000000","Municipality":"-","DistrictCode":"-","District":"-","Description":"","Authority":"BEG","DelfiName":"-","THID":"-","LastOperationDate":"","SEV":"nein","longitude":"11,603853","latitude":"48,093158","geojson_lng":11.603853,"geojson_lat":48.093158},"geometry":{"type":"Point","coordinates":[11.603853,48.093158]}},{"type":"Feature","properties":{"SeqNo":"100490","Type":"Q","DHID":"de:09162:1120:41:81","Parent":"de:09162:1120:41","Name":"Gleis 1","MunicipalityCode":"00000000","Municipality":"-","DistrictCode":"-","District":"-","Description":"","Authority":"BEG","DelfiName":"-","THID":"-","LastOperationDate":"","SEV":"nein","longitude":"11,606018","latitude":"48,092702","geojson_lng":11.606018,"geojson_lat":48.092702},"geometry":{"type":"Point","coordinates":[11.606018,48.092702]}},{"type":"Feature","properties":{"SeqNo":"100491","Type":"Q","DHID":"de:09162:1120:42:82","Parent":"de:09162:1120:42","Name":"Gleis 2","MunicipalityCode":"00000000","Municipality":"-","DistrictCode":"-","District":"-","Description":"","Authority":"BEG","DelfiName":"-","THID":"-","LastOperationDate":"","SEV":"nein","longitude":"11,605982","latitude":"48,09269","geojson_lng":11.605982,"geojson_lat":48.09269},"geometry":{"type":"Point","coordinates":[11.605982,48.09269]}}]}