{"type":"FeatureCollection","features":[{"type":"Feature","properties":{"highway":"bus_stop","public_transport":"platform","name":"Arrestruwe","ref:IFOPT":"NL:Q:66580650","_quaycode":"NL:Q:66580650","_town":"Maastricht","_status":"available","_mode":"bus","_direction":258,"_visuallyAccessible":true,"_disabledAccessible":true,"geojson_lng":5.658165773165235,"geojson_lat":50.865169897904934},"geometry":{"type":"Point","coordinates":[5.658165773165235,50.865169897904934]}},{"type":"Feature","properties":{"highway":"bus_stop","public_transport":"platform","name":"Arrestruwe","ref:IFOPT":"NL:Q:66580660","_quaycode":"NL:Q:66580660","_town":"Maastricht","_status":"available","_mode":"bus","_direction":42,"_visuallyAccessible":true,"_disabledAccessible":false,"geojson_lng":5.659019261730588,"geojson_lat":50.865383625673964},"geometry":{"type":"Point","coordinates":[5.659019261730588,50.865383625673964]}},{"type":"Feature","properties":{"highway":"bus_stop","public_transport":"platform","name":"Papyrussingel","ref:IFOPT":"NL:Q:66580750","_quaycode":"NL:Q:66580750","_town":"Maastricht","_status":"available","_mode":"bus","_direction":178,"_visuallyAccessible":true,"_disabledAccessible":true,"geojson_lng":5.663684567996113,"geojson_lat":50.86407817083754},"geometry":{"type":"Point","coordinates":[5.663684567996113,50.86407817083754]}},{"type":"Feature","properties":{"highway":"bus_stop","public_transport":"platform","name":"Vezeldonk","ref:IFOPT":"NL:Q:66580880","_quaycode":"NL:Q:66580880","_town":"Maastricht","_status":"available","_mode":"bus","_direction":230,"_visuallyAccessible":false,"_disabledAccessible":false,"geojson_lng":5.662081610090652,"geojson_lat":50.86681459502207},"geometry":{"type":"Point","coordinates":[5.662081610090652,50.86681459502207]}},{"type":"Feature","properties":{"highway":"bus_stop","public_transport":"platform","name":"Pergamijndonk","ref:IFOPT":"NL:Q:66580760","_quaycode":"NL:Q:66580760","_town":"Maastricht","_status":"available","_mode":"bus","_direction":288,"_visuallyAccessible":true,"_disabledAccessible":true,"geojson_lng":5.66652919834605,"geojson_lat":50.86472751561238},"geometry":{"type":"Point","coordinates":[5.66652919834605,50.86472751561238]}}]}