{"type":"FeatureCollection","features":[{"type":"Feature","properties":{"SeqNo":"133525","Type":"S","DHID":"de:09184:2348","Parent":"de:09184:2348","Name":"Peiß, Gh. zur Post","MunicipalityCode":"09184137","Municipality":"Aying","DistrictCode":"","District":"","Description":"","Authority":"BEG","DelfiName":"-","THID":"D923E000092C","LastOperationDate":"2025-06-14T00:00:00","SEV":"nein","longitude":"11,777695","latitude":"47,961433","geojson_lng":11.777695,"geojson_lat":47.961433},"geometry":{"type":"Point","coordinates":[11.777695,47.961433]}},{"type":"Feature","properties":{"SeqNo":"133526","Type":"A","DHID":"de:09184:2348:1","Parent":"de:09184:2348","Name":"Bus/SEV Ri Aying","MunicipalityCode":"00000000","Municipality":"-","DistrictCode":"-","District":"-","Description":"","Authority":"BEG","DelfiName":"-","THID":"-","LastOperationDate":"","SEV":"nein","longitude":"11,777722","latitude":"47,961463","geojson_lng":11.777722,"geojson_lat":47.961463},"geometry":{"type":"Point","coordinates":[11.777722,47.961463]}},{"type":"Feature","properties":{"SeqNo":"133527","Type":"A","DHID":"de:09184:2348:2","Parent":"de:09184:2348","Name":"Bus/SEV Ri Großhe","MunicipalityCode":"00000000","Municipality":"-","DistrictCode":"-","District":"-","Description":"","Authority":"BEG","DelfiName":"-","THID":"-","LastOperationDate":"","SEV":"nein","longitude":"11,777668","latitude":"47,961397","geojson_lng":11.777668,"geojson_lat":47.961397},"geometry":{"type":"Point","coordinates":[11.777668,47.961397]}},{"type":"Feature","properties":{"SeqNo":"133528","Type":"Q","DHID":"de:09184:2348:1:1","Parent":"de:09184:2348:1","Name":"Ri. Nord / Aying / SEV Ri München","MunicipalityCode":"00000000","Municipality":"-","DistrictCode":"-","District":"-","Description":"","Authority":"BEG","DelfiName":"-","THID":"-","LastOperationDate":"","SEV":"nein","longitude":"11,777722","latitude":"47,961463","geojson_lng":11.777722,"geojson_lat":47.961463},"geometry":{"type":"Point","coordinates":[11.777722,47.961463]}},{"type":"Feature","properties":{"SeqNo":"133529","Type":"Q","DHID":"de:09184:2348:2:2","Parent":"de:09184:2348:2","Name":"Ri. Süd /Großhelfendorf /SEV Ri.Kreuzstr","MunicipalityCode":"00000000","Municipality":"-","DistrictCode":"-","District":"-","Description":"","Authority":"BEG","DelfiName":"-","THID":"-","LastOperationDate":"","SEV":"nein","longitude":"11,777668","latitude":"47,961397","geojson_lng":11.777668,"geojson_lat":47.961397},"geometry":{"type":"Point","coordinates":[11.777668,47.961397]}},{"type":"Feature","properties":{"SeqNo":"134776","Type":"S","DHID":"de:09184:3087","Parent":"de:09184:3087","Name":"Peiß, Graßer Weg","MunicipalityCode":"09184137","Municipality":"Aying","DistrictCode":"","District":"","Description":"","Authority":"BEG","DelfiName":"-","THID":"D923E0000C0F","LastOperationDate":"1999-12-31T00:00:00","SEV":"nein","longitude":"11,780596","latitude":"47,96124","geojson_lng":11.780596,"geojson_lat":47.96124},"geometry":{"type":"Point","coordinates":[11.780596,47.96124]}},{"type":"Feature","properties":{"SeqNo":"134777","Type":"Q","DHID":"de:09184:3087:0:1","Parent":"de:09184:3087","Name":"Ri. Westen","MunicipalityCode":"00000000","Municipality":"-","DistrictCode":"-","District":"-","Description":"","Authority":"BEG","DelfiName":"-","THID":"-","LastOperationDate":"","SEV":"nein","longitude":"11,780632","latitude":"47,961288","geojson_lng":11.780632,"geojson_lat":47.961288},"geometry":{"type":"Point","coordinates":[11.780632,47.961288]}},{"type":"Feature","properties":{"SeqNo":"134778","Type":"Q","DHID":"de:09184:3087:0:2","Parent":"de:09184:3087","Name":"Ri. Osten","MunicipalityCode":"00000000","Municipality":"-","DistrictCode":"-","District":"-","Description":"","Authority":"BEG","DelfiName":"-","THID":"-","LastOperationDate":"","SEV":"nein","longitude":"11,780534","latitude":"47,961186","geojson_lng":11.780534,"geojson_lat":47.961186},"geometry":{"type":"Point","coordinates":[11.780534,47.961186]}}]}