{"type":"FeatureCollection","features":[{"type":"Feature","properties":{"SeqNo":"43930","Type":"S","DHID":"de:08215:37222","Parent":"de:08215:37222","Name":"Menzingen Rathaus","MunicipalityCode":"08215097","Municipality":"Kraichtal","DistrictCode":"","District":"","Description":"","Authority":"NVBW","DelfiName":"-","THID":"D92017009166","LastOperationDate":"2025-06-14T00:00:00","SEV":"nein","longitude":"8,772327","latitude":"49,138901","geojson_lng":8.772327,"geojson_lat":49.138901},"geometry":{"type":"Point","coordinates":[8.772327,49.138901]}},{"type":"Feature","properties":{"SeqNo":"43931","Type":"Q","DHID":"de:08215:37222:0:1","Parent":"de:08215:37222","Name":"Ri Landshausen","MunicipalityCode":"00000000","Municipality":"-","DistrictCode":"-","District":"-","Description":"","Authority":"NVBW","DelfiName":"-","THID":"-","LastOperationDate":"","SEV":"nein","longitude":"8,772237","latitude":"49,139054","geojson_lng":8.772237,"geojson_lat":49.139054},"geometry":{"type":"Point","coordinates":[8.772237,49.139054]}},{"type":"Feature","properties":{"SeqNo":"43932","Type":"Q","DHID":"de:08215:37222:0:2","Parent":"de:08215:37222","Name":"Ri Bahnhof/Bahnbrücken","MunicipalityCode":"00000000","Municipality":"-","DistrictCode":"-","District":"-","Description":"","Authority":"NVBW","DelfiName":"-","THID":"-","LastOperationDate":"","SEV":"nein","longitude":"8,772372","latitude":"49,138801","geojson_lng":8.772372,"geojson_lat":49.138801},"geometry":{"type":"Point","coordinates":[8.772372,49.138801]}},{"type":"Feature","properties":{"SeqNo":"43961","Type":"S","DHID":"de:08215:37237","Parent":"de:08215:37237","Name":"Menzingen Schule","MunicipalityCode":"08215097","Municipality":"Kraichtal","DistrictCode":"","District":"","Description":"","Authority":"NVBW","DelfiName":"-","THID":"D92017009175","LastOperationDate":"2025-06-06T00:00:00","SEV":"nein","longitude":"8,772121","latitude":"49,142604","geojson_lng":8.772121,"geojson_lat":49.142604},"geometry":{"type":"Point","coordinates":[8.772121,49.142604]}},{"type":"Feature","properties":{"SeqNo":"43962","Type":"Q","DHID":"de:08215:37237:0:1","Parent":"de:08215:37237","Name":"Bus","MunicipalityCode":"00000000","Municipality":"-","DistrictCode":"-","District":"-","Description":"","Authority":"NVBW","DelfiName":"-","THID":"-","LastOperationDate":"","SEV":"nein","longitude":"8,772183","latitude":"49,14261","geojson_lng":8.772183,"geojson_lat":49.14261},"geometry":{"type":"Point","coordinates":[8.772183,49.14261]}},{"type":"Feature","properties":{"SeqNo":"43971","Type":"S","DHID":"de:08215:37241","Parent":"de:08215:37241","Name":"Menzingen Heilbronner Str.","MunicipalityCode":"08215097","Municipality":"Kraichtal","DistrictCode":"","District":"","Description":"","Authority":"NVBW","DelfiName":"-","THID":"D92017009179","LastOperationDate":"2025-06-14T00:00:00","SEV":"nein","longitude":"8,771016","latitude":"49,139442","geojson_lng":8.771016,"geojson_lat":49.139442},"geometry":{"type":"Point","coordinates":[8.771016,49.139442]}},{"type":"Feature","properties":{"SeqNo":"43972","Type":"Q","DHID":"de:08215:37241:0:1","Parent":"de:08215:37241","Name":"Ri Landshausen","MunicipalityCode":"00000000","Municipality":"-","DistrictCode":"-","District":"-","Description":"","Authority":"NVBW","DelfiName":"-","THID":"-","LastOperationDate":"","SEV":"nein","longitude":"8,770926","latitude":"49,139377","geojson_lng":8.770926,"geojson_lat":49.139377},"geometry":{"type":"Point","coordinates":[8.770926,49.139377]}},{"type":"Feature","properties":{"SeqNo":"43973","Type":"Q","DHID":"de:08215:37241:0:2","Parent":"de:08215:37241","Name":"Ri Bahnbrücken","MunicipalityCode":"00000000","Municipality":"-","DistrictCode":"-","District":"-","Description":"","Authority":"NVBW","DelfiName":"-","THID":"-","LastOperationDate":"","SEV":"nein","longitude":"8,771052","latitude":"49,139536","geojson_lng":8.771052,"geojson_lat":49.139536},"geometry":{"type":"Point","coordinates":[8.771052,49.139536]}}]}