{"type":"FeatureCollection","features":[{"type":"Feature","properties":{"SeqNo":"68063","Type":"S","DHID":"de:08327:2017","Parent":"de:08327:2017","Name":"Wurmlingen Nord","MunicipalityCode":"08327054","Municipality":"Wurmlingen","DistrictCode":"","District":"","Description":"","Authority":"NVBW","DelfiName":"-","THID":"D920870007E1","LastOperationDate":"2025-06-14T00:00:00","SEV":"nein","longitude":"8,775202","latitude":"48,008788","geojson_lng":8.775202,"geojson_lat":48.008788},"geometry":{"type":"Point","coordinates":[8.775202,48.008788]}},{"type":"Feature","properties":{"SeqNo":"68064","Type":"A","DHID":"de:08327:2017:1","Parent":"de:08327:2017","Name":"Gleis 1","MunicipalityCode":"00000000","Municipality":"-","DistrictCode":"-","District":"-","Description":"","Authority":"NVBW","DelfiName":"-","THID":"-","LastOperationDate":"","SEV":"nein","longitude":"8,775202","latitude":"48,008788","geojson_lng":8.775202,"geojson_lat":48.008788},"geometry":{"type":"Point","coordinates":[8.775202,48.008788]}},{"type":"Feature","properties":{"SeqNo":"68065","Type":"A","DHID":"de:08327:2017:90","Parent":"de:08327:2017","Name":"Zugang Ost","MunicipalityCode":"00000000","Municipality":"-","DistrictCode":"-","District":"-","Description":"","Authority":"NVBW","DelfiName":"-","THID":"-","LastOperationDate":"","SEV":"nein","longitude":"8,775867","latitude":"48,008704","geojson_lng":8.775867,"geojson_lat":48.008704},"geometry":{"type":"Point","coordinates":[8.775867,48.008704]}},{"type":"Feature","properties":{"SeqNo":"68066","Type":"A","DHID":"de:08327:2017:91","Parent":"de:08327:2017","Name":"Zugang West","MunicipalityCode":"00000000","Municipality":"-","DistrictCode":"-","District":"-","Description":"","Authority":"NVBW","DelfiName":"-","THID":"-","LastOperationDate":"","SEV":"nein","longitude":"8,774968","latitude":"48,008764","geojson_lng":8.774968,"geojson_lat":48.008764},"geometry":{"type":"Point","coordinates":[8.774968,48.008764]}},{"type":"Feature","properties":{"SeqNo":"68067","Type":"Q","DHID":"de:08327:2017:1:1","Parent":"de:08327:2017:1","Name":"Gleis 1","MunicipalityCode":"00000000","Municipality":"-","DistrictCode":"-","District":"-","Description":"","Authority":"NVBW","DelfiName":"-","THID":"-","LastOperationDate":"","SEV":"nein","longitude":"8,773621","latitude":"48,008686","geojson_lng":8.773621,"geojson_lat":48.008686},"geometry":{"type":"Point","coordinates":[8.773621,48.008686]}},{"type":"Feature","properties":{"SeqNo":"68068","Type":"S","DHID":"de:08327:2019","Parent":"de:08327:2019","Name":"Wurmlingen Goethestraße","MunicipalityCode":"08327054","Municipality":"Wurmlingen","DistrictCode":"","District":"","Description":"","Authority":"NVBW","DelfiName":"-","THID":"D920870007E3","LastOperationDate":"2025-02-28T00:00:00","SEV":"nein","longitude":"8,773648","latitude":"48,0052","geojson_lng":8.773648,"geojson_lat":48.0052},"geometry":{"type":"Point","coordinates":[8.773648,48.0052]}},{"type":"Feature","properties":{"SeqNo":"68069","Type":"Q","DHID":"de:08327:2019:0:1","Parent":"de:08327:2019","Name":"1 Bus","MunicipalityCode":"00000000","Municipality":"-","DistrictCode":"-","District":"-","Description":"","Authority":"NVBW","DelfiName":"-","THID":"-","LastOperationDate":"","SEV":"nein","longitude":"8,773648","latitude":"48,0052","geojson_lng":8.773648,"geojson_lat":48.0052},"geometry":{"type":"Point","coordinates":[8.773648,48.0052]}},{"type":"Feature","properties":{"SeqNo":"68134","Type":"S","DHID":"de:08327:2165","Parent":"de:08327:2165","Name":"Wurmlingen Seitinger Straße","MunicipalityCode":"08327054","Municipality":"Wurmlingen","DistrictCode":"","District":"","Description":"","Authority":"NVBW","DelfiName":"-","THID":"D92087000875","LastOperationDate":"2025-02-28T00:00:00","SEV":"nein","longitude":"8,775938","latitude":"48,005573","geojson_lng":8.775938,"geojson_lat":48.005573},"geometry":{"type":"Point","coordinates":[8.775938,48.005573]}},{"type":"Feature","properties":{"SeqNo":"68135","Type":"Q","DHID":"de:08327:2165:0:1","Parent":"de:08327:2165","Name":"1 Bus","MunicipalityCode":"00000000","Municipality":"-","DistrictCode":"-","District":"-","Description":"","Authority":"NVBW","DelfiName":"-","THID":"-","LastOperationDate":"","SEV":"nein","longitude":"8,775938","latitude":"48,005573","geojson_lng":8.775938,"geojson_lat":48.005573},"geometry":{"type":"Point","coordinates":[8.775938,48.005573]}},{"type":"Feature","properties":{"SeqNo":"68421","Type":"S","DHID":"de:08327:856","Parent":"de:08327:856","Name":"Wurmlingen Alter Bahnhof","MunicipalityCode":"08327054","Municipality":"Wurmlingen","DistrictCode":"","District":"","Description":"","Authority":"NVBW","DelfiName":"-","THID":"D92087000358","LastOperationDate":"2025-02-28T00:00:00","SEV":"nein","longitude":"8,775013","latitude":"48,011751","geojson_lng":8.775013,"geojson_lat":48.011751},"geometry":{"type":"Point","coordinates":[8.775013,48.011751]}},{"type":"Feature","properties":{"SeqNo":"68422","Type":"Q","DHID":"de:08327:856:0:1","Parent":"de:08327:856","Name":"1 Ri. Nord","MunicipalityCode":"00000000","Municipality":"-","DistrictCode":"-","District":"-","Description":"","Authority":"NVBW","DelfiName":"-","THID":"-","LastOperationDate":"","SEV":"nein","longitude":"8,775013","latitude":"48,011751","geojson_lng":8.775013,"geojson_lat":48.011751},"geometry":{"type":"Point","coordinates":[8.775013,48.011751]}},{"type":"Feature","properties":{"SeqNo":"68423","Type":"Q","DHID":"de:08327:856:0:2","Parent":"de:08327:856","Name":"2 Ri. Süd (Wurmlingen)","MunicipalityCode":"00000000","Municipality":"-","DistrictCode":"-","District":"-","Description":"","Authority":"NVBW","DelfiName":"-","THID":"-","LastOperationDate":"","SEV":"nein","longitude":"8,774959","latitude":"48,011721","geojson_lng":8.774959,"geojson_lat":48.011721},"geometry":{"type":"Point","coordinates":[8.774959,48.011721]}}]}