{"type":"FeatureCollection","features":[{"type":"Feature","properties":{"highway":"bus_stop","public_transport":"platform","name":"Beneluxlaan","ref:IFOPT":"NL:Q:73005880","_quaycode":"NL:Q:73005880","_town":"Tilburg","_status":"available","_mode":"bus","_direction":191,"_visuallyAccessible":true,"_disabledAccessible":true,"geojson_lng":5.051020859651465,"geojson_lat":51.5763195944657},"geometry":{"type":"Point","coordinates":[5.051020859651465,51.5763195944657]}},{"type":"Feature","properties":{"highway":"bus_stop","public_transport":"platform","name":"Paletplein","ref:IFOPT":"NL:Q:73000260","_quaycode":"NL:Q:73000260","_town":"Tilburg","_status":"available","_mode":"bus","_direction":106,"_visuallyAccessible":true,"_disabledAccessible":true,"geojson_lng":5.036749064944243,"geojson_lat":51.57503726626537},"geometry":{"type":"Point","coordinates":[5.036749064944243,51.57503726626537]}},{"type":"Feature","properties":{"highway":"bus_stop","public_transport":"platform","name":"Beneluxlaan","ref:IFOPT":"NL:Q:73005870","_quaycode":"NL:Q:73005870","_town":"Tilburg","_status":"available","_mode":"bus","_direction":11,"_visuallyAccessible":true,"_disabledAccessible":true,"geojson_lng":5.051078163000685,"geojson_lat":51.57637369107802},"geometry":{"type":"Point","coordinates":[5.051078163000685,51.57637369107802]}},{"type":"Feature","properties":{"highway":"bus_stop","public_transport":"platform","name":"Indigolaan","ref:IFOPT":"NL:Q:73000200","_quaycode":"NL:Q:73000200","_town":"Tilburg","_status":"available","_mode":"bus","_direction":120,"_visuallyAccessible":true,"_disabledAccessible":true,"geojson_lng":5.043474823120566,"geojson_lat":51.572675232147155},"geometry":{"type":"Point","coordinates":[5.043474823120566,51.572675232147155]}},{"type":"Feature","properties":{"highway":"bus_stop","public_transport":"platform","name":"Indigolaan","ref:IFOPT":"NL:Q:73000190","_quaycode":"NL:Q:73000190","_town":"Tilburg","_status":"available","_mode":"bus","_direction":301,"_visuallyAccessible":true,"_disabledAccessible":true,"geojson_lng":5.043459582209574,"geojson_lat":51.57278305125454},"geometry":{"type":"Point","coordinates":[5.043459582209574,51.57278305125454]}},{"type":"Feature","properties":{"highway":"bus_stop","public_transport":"platform","name":"Station Universiteit","ref:IFOPT":"NL:Q:73005330","_quaycode":"NL:Q:73005330","_town":"Tilburg","_status":"available","_mode":"bus","_direction":7,"_visuallyAccessible":false,"_disabledAccessible":true,"geojson_lng":5.051307988160985,"geojson_lat":51.56480594980113},"geometry":{"type":"Point","coordinates":[5.051307988160985,51.56480594980113]}},{"type":"Feature","properties":{"highway":"bus_stop","public_transport":"platform","name":"Kruidenlaan","ref:IFOPT":"NL:Q:73005790","_quaycode":"NL:Q:73005790","_town":"Tilburg","_status":"available","_mode":"bus","_direction":105,"_visuallyAccessible":true,"_disabledAccessible":true,"geojson_lng":5.0418899827715515,"geojson_lat":51.576221083329074},"geometry":{"type":"Point","coordinates":[5.0418899827715515,51.576221083329074]}},{"type":"Feature","properties":{"highway":"bus_stop","public_transport":"platform","name":"Westermarkt","ref:IFOPT":"NL:Q:73005320","_quaycode":"NL:Q:73005320","_town":"Tilburg","_status":"available","_mode":"bus","_direction":192,"_visuallyAccessible":true,"_disabledAccessible":true,"geojson_lng":5.0520994715349135,"geojson_lat":51.5689519925586},"geometry":{"type":"Point","coordinates":[5.0520994715349135,51.5689519925586]}},{"type":"Feature","properties":{"highway":"bus_stop","public_transport":"platform","name":"Westerpark","ref:IFOPT":"NL:Q:73000350","_quaycode":"NL:Q:73000350","_town":"Tilburg","_status":"available","_mode":"bus","_direction":290,"_visuallyAccessible":false,"_disabledAccessible":false,"geojson_lng":5.047360859235405,"geojson_lat":51.5719045756571},"geometry":{"type":"Point","coordinates":[5.047360859235405,51.5719045756571]}},{"type":"Feature","properties":{"highway":"bus_stop","public_transport":"platform","name":"Kruidenlaan","ref:IFOPT":"NL:Q:73005800","_quaycode":"NL:Q:73005800","_town":"Tilburg","_status":"available","_mode":"bus","_direction":285,"_visuallyAccessible":true,"_disabledAccessible":true,"geojson_lng":5.04141270600014,"geojson_lat":51.57638146903633},"geometry":{"type":"Point","coordinates":[5.04141270600014,51.57638146903633]}},{"type":"Feature","properties":{"highway":"bus_stop","public_transport":"platform","name":"Europalaan","ref:IFOPT":"NL:Q:73005840","_quaycode":"NL:Q:73005840","_town":"Tilburg","_status":"available","_mode":"bus","_direction":289,"_visuallyAccessible":true,"_disabledAccessible":true,"geojson_lng":5.047667550031974,"geojson_lat":51.575258235219216},"geometry":{"type":"Point","coordinates":[5.047667550031974,51.575258235219216]}},{"type":"Feature","properties":{"highway":"bus_stop","public_transport":"platform","name":"Westerpark","ref:IFOPT":"NL:Q:73000340","_quaycode":"NL:Q:73000340","_town":"Tilburg","_status":"available","_mode":"bus","_direction":110,"_visuallyAccessible":false,"_disabledAccessible":false,"geojson_lng":5.0466966706511585,"geojson_lat":51.571992530316464},"geometry":{"type":"Point","coordinates":[5.0466966706511585,51.571992530316464]}},{"type":"Feature","properties":{"highway":"bus_stop","public_transport":"platform","name":"Rueckertbaan-West","ref:IFOPT":"NL:Q:73001880","_quaycode":"NL:Q:73001880","_town":"Tilburg","_status":"available","_mode":"bus","_direction":280,"_visuallyAccessible":true,"_disabledAccessible":true,"geojson_lng":5.052272509189799,"geojson_lat":51.57678160669766},"geometry":{"type":"Point","coordinates":[5.052272509189799,51.57678160669766]}},{"type":"Feature","properties":{"highway":"bus_stop","public_transport":"platform","name":"Rueckertbaan-West","ref:IFOPT":"NL:Q:73001330","_quaycode":"NL:Q:73001330","_town":"Tilburg","_status":"available","_mode":"bus","_direction":99,"_visuallyAccessible":true,"_disabledAccessible":true,"geojson_lng":5.051768735412976,"geojson_lat":51.57662735590856},"geometry":{"type":"Point","coordinates":[5.051768735412976,51.57662735590856]}},{"type":"Feature","properties":{"highway":"bus_stop","public_transport":"platform","name":"Westermarkt","ref:IFOPT":"NL:Q:73005310","_quaycode":"NL:Q:73005310","_town":"Tilburg","_status":"available","_mode":"bus","_direction":12,"_visuallyAccessible":true,"_disabledAccessible":true,"geojson_lng":5.0524279610079725,"geojson_lat":51.56939337758601},"geometry":{"type":"Point","coordinates":[5.0524279610079725,51.56939337758601]}},{"type":"Feature","properties":{"highway":"bus_stop","public_transport":"platform","name":"Europalaan","ref:IFOPT":"NL:Q:73005830","_quaycode":"NL:Q:73005830","_town":"Tilburg","_status":"available","_mode":"bus","_direction":109,"_visuallyAccessible":true,"_disabledAccessible":false,"geojson_lng":5.0479714213748075,"geojson_lat":51.575133275817514},"geometry":{"type":"Point","coordinates":[5.0479714213748075,51.575133275817514]}},{"type":"Feature","properties":{"highway":"bus_stop","public_transport":"platform","name":"Station Universiteit","ref:IFOPT":"NL:Q:73005340","_quaycode":"NL:Q:73005340","_town":"Tilburg","_status":"available","_mode":"bus","_direction":187,"_visuallyAccessible":false,"_disabledAccessible":true,"geojson_lng":5.051231357436202,"geojson_lat":51.565416958613085},"geometry":{"type":"Point","coordinates":[5.051231357436202,51.565416958613085]}},{"type":"Feature","properties":{"highway":"bus_stop","public_transport":"platform","name":"Paletplein","ref:IFOPT":"NL:Q:73000470","_quaycode":"NL:Q:73000470","_town":"Tilburg","_status":"available","_mode":"bus","_direction":285,"_visuallyAccessible":false,"_disabledAccessible":true,"geojson_lng":5.036791300161926,"geojson_lat":51.57517222270713},"geometry":{"type":"Point","coordinates":[5.036791300161926,51.57517222270713]}}]}