{"type":"FeatureCollection","features":[{"type":"Feature","properties":{"SeqNo":"719024","Type":"S","DHID":"de:03241:1041","Parent":"de:03241:1041","Name":"Hannover Marienstraße","MunicipalityCode":"03241001","Municipality":"Hannover","DistrictCode":"","District":"","Description":"","Authority":"HannIT","DelfiName":"-","THID":"D90CA9000411","LastOperationDate":"2025-06-14T00:00:00","SEV":"nein","longitude":"9,753162","latitude":"52,369947","geojson_lng":9.753162,"geojson_lat":52.369947},"geometry":{"type":"Point","coordinates":[9.753162,52.369947]}},{"type":"Feature","properties":{"SeqNo":"719025","Type":"A","DHID":"de:03241:1041:1","Parent":"de:03241:1041","Name":"Stadtbahn","MunicipalityCode":"00000000","Municipality":"-","DistrictCode":"-","District":"-","Description":"","Authority":"HannIT","DelfiName":"-","THID":"-","LastOperationDate":"","SEV":"nein","longitude":"9,75309","latitude":"52,369876","geojson_lng":9.75309,"geojson_lat":52.369876},"geometry":{"type":"Point","coordinates":[9.75309,52.369876]}},{"type":"Feature","properties":{"SeqNo":"719026","Type":"A","DHID":"de:03241:1041:10","Parent":"de:03241:1041","Name":"Zug. Kokenstr.Nord","MunicipalityCode":"00000000","Municipality":"-","DistrictCode":"-","District":"-","Description":"","Authority":"HannIT","DelfiName":"-","THID":"-","LastOperationDate":"","SEV":"nein","longitude":"9,75327","latitude":"52,370309","geojson_lng":9.75327,"geojson_lat":52.370309},"geometry":{"type":"Point","coordinates":[9.75327,52.370309]}},{"type":"Feature","properties":{"SeqNo":"719027","Type":"A","DHID":"de:03241:1041:11","Parent":"de:03241:1041","Name":"Zug. Kokenstr.Sued","MunicipalityCode":"00000000","Municipality":"-","DistrictCode":"-","District":"-","Description":"","Authority":"HannIT","DelfiName":"-","THID":"-","LastOperationDate":"","SEV":"nein","longitude":"9,753288","latitude":"52,370199","geojson_lng":9.753288,"geojson_lat":52.370199},"geometry":{"type":"Point","coordinates":[9.753288,52.370199]}},{"type":"Feature","properties":{"SeqNo":"719028","Type":"A","DHID":"de:03241:1041:12","Parent":"de:03241:1041","Name":"Zug. Berl.AlleeNord","MunicipalityCode":"00000000","Municipality":"-","DistrictCode":"-","District":"-","Description":"","Authority":"HannIT","DelfiName":"-","THID":"-","LastOperationDate":"","SEV":"nein","longitude":"9,752596","latitude":"52,3701","geojson_lng":9.752596,"geojson_lat":52.3701},"geometry":{"type":"Point","coordinates":[9.752596,52.3701]}},{"type":"Feature","properties":{"SeqNo":"719029","Type":"A","DHID":"de:03241:1041:13","Parent":"de:03241:1041","Name":"Zug. Berl.AlleeSued","MunicipalityCode":"00000000","Municipality":"-","DistrictCode":"-","District":"-","Description":"","Authority":"HannIT","DelfiName":"-","THID":"-","LastOperationDate":"","SEV":"nein","longitude":"9,75265","latitude":"52,370007","geojson_lng":9.75265,"geojson_lat":52.370007},"geometry":{"type":"Point","coordinates":[9.75265,52.370007]}},{"type":"Feature","properties":{"SeqNo":"719030","Type":"A","DHID":"de:03241:1041:14","Parent":"de:03241:1041","Name":"Zugang Sallstr.Nord","MunicipalityCode":"00000000","Municipality":"-","DistrictCode":"-","District":"-","Description":"","Authority":"HannIT","DelfiName":"-","THID":"-","LastOperationDate":"","SEV":"nein","longitude":"9,75353","latitude":"52,369903","geojson_lng":9.75353,"geojson_lat":52.369903},"geometry":{"type":"Point","coordinates":[9.75353,52.369903]}},{"type":"Feature","properties":{"SeqNo":"719031","Type":"A","DHID":"de:03241:1041:15","Parent":"de:03241:1041","Name":"Zugang Sallstr.Sued","MunicipalityCode":"00000000","Municipality":"-","DistrictCode":"-","District":"-","Description":"","Authority":"HannIT","DelfiName":"-","THID":"-","LastOperationDate":"","SEV":"nein","longitude":"9,75353","latitude":"52,369804","geojson_lng":9.75353,"geojson_lat":52.369804},"geometry":{"type":"Point","coordinates":[9.75353,52.369804]}},{"type":"Feature","properties":{"SeqNo":"719032","Type":"A","DHID":"de:03241:1041:16","Parent":"de:03241:1041","Name":"Zugang Marienstr.","MunicipalityCode":"00000000","Municipality":"-","DistrictCode":"-","District":"-","Description":"","Authority":"HannIT","DelfiName":"-","THID":"-","LastOperationDate":"","SEV":"nein","longitude":"9,75282","latitude":"52,369788","geojson_lng":9.75282,"geojson_lat":52.369788},"geometry":{"type":"Point","coordinates":[9.75282,52.369788]}},{"type":"Feature","properties":{"SeqNo":"719033","Type":"A","DHID":"de:03241:1041:2","Parent":"de:03241:1041","Name":"Bus Sallstraße","MunicipalityCode":"00000000","Municipality":"-","DistrictCode":"-","District":"-","Description":"","Authority":"HannIT","DelfiName":"-","THID":"-","LastOperationDate":"","SEV":"nein","longitude":"9,753395","latitude":"52,369777","geojson_lng":9.753395,"geojson_lat":52.369777},"geometry":{"type":"Point","coordinates":[9.753395,52.369777]}},{"type":"Feature","properties":{"SeqNo":"719034","Type":"A","DHID":"de:03241:1041:3","Parent":"de:03241:1041","Name":"Bus Berliner All.","MunicipalityCode":"00000000","Municipality":"-","DistrictCode":"-","District":"-","Description":"","Authority":"HannIT","DelfiName":"-","THID":"-","LastOperationDate":"","SEV":"nein","longitude":"9,752641","latitude":"52,370166","geojson_lng":9.752641,"geojson_lat":52.370166},"geometry":{"type":"Point","coordinates":[9.752641,52.370166]}},{"type":"Feature","properties":{"SeqNo":"719035","Type":"A","DHID":"de:03241:1041:30","Parent":"de:03241:1041","Name":"Zwischengeschoss","MunicipalityCode":"00000000","Municipality":"-","DistrictCode":"-","District":"-","Description":"","Authority":"HannIT","DelfiName":"-","THID":"-","LastOperationDate":"","SEV":"nein","longitude":"9,752991","latitude":"52,370007","geojson_lng":9.752991,"geojson_lat":52.370007},"geometry":{"type":"Point","coordinates":[9.752991,52.370007]}},{"type":"Feature","properties":{"SeqNo":"719036","Type":"A","DHID":"de:03241:1041:40","Parent":"de:03241:1041","Name":"Lift Marienstr.","MunicipalityCode":"00000000","Municipality":"-","DistrictCode":"-","District":"-","Description":"","Authority":"HannIT","DelfiName":"-","THID":"-","LastOperationDate":"","SEV":"nein","longitude":"9,753045","latitude":"52,369832","geojson_lng":9.753045,"geojson_lat":52.369832},"geometry":{"type":"Point","coordinates":[9.753045,52.369832]}},{"type":"Feature","properties":{"SeqNo":"719037","Type":"A","DHID":"de:03241:1041:41","Parent":"de:03241:1041","Name":"Lift Kokenstr.","MunicipalityCode":"00000000","Municipality":"-","DistrictCode":"-","District":"-","Description":"","Authority":"HannIT","DelfiName":"-","THID":"-","LastOperationDate":"","SEV":"nein","longitude":"9,753323","latitude":"52,370199","geojson_lng":9.753323,"geojson_lat":52.370199},"geometry":{"type":"Point","coordinates":[9.753323,52.370199]}},{"type":"Feature","properties":{"SeqNo":"719038","Type":"A","DHID":"de:03241:1041:8","Parent":"de:03241:1041","Name":"Stadtbahn 2","MunicipalityCode":"00000000","Municipality":"-","DistrictCode":"-","District":"-","Description":"","Authority":"HannIT","DelfiName":"-","THID":"-","LastOperationDate":"","SEV":"nein","longitude":"9,753036","latitude":"52,369963","geojson_lng":9.753036,"geojson_lat":52.369963},"geometry":{"type":"Point","coordinates":[9.753036,52.369963]}},{"type":"Feature","properties":{"SeqNo":"719039","Type":"Q","DHID":"de:03241:1041:1:1051","Parent":"de:03241:1041:1","Name":"Braunschweiger Platz","MunicipalityCode":"00000000","Municipality":"-","DistrictCode":"-","District":"-","Description":"","Authority":"HannIT","DelfiName":"-","THID":"-","LastOperationDate":"","SEV":"nein","longitude":"9,75318","latitude":"52,369919","geojson_lng":9.75318,"geojson_lat":52.369919},"geometry":{"type":"Point","coordinates":[9.75318,52.369919]}},{"type":"Feature","properties":{"SeqNo":"719040","Type":"Q","DHID":"de:03241:1041:2:1041","Parent":"de:03241:1041:2","Name":"Thielenplatz/Schauspielhaus","MunicipalityCode":"00000000","Municipality":"-","DistrictCode":"-","District":"-","Description":"","Authority":"HannIT","DelfiName":"-","THID":"-","LastOperationDate":"","SEV":"nein","longitude":"9,753395","latitude":"52,36976","geojson_lng":9.753395,"geojson_lat":52.36976},"geometry":{"type":"Point","coordinates":[9.753395,52.36976]}},{"type":"Feature","properties":{"SeqNo":"719041","Type":"Q","DHID":"de:03241:1041:3:1042","Parent":"de:03241:1041:3","Name":"Bf Bismarckstraße","MunicipalityCode":"00000000","Municipality":"-","DistrictCode":"-","District":"-","Description":"","Authority":"HannIT","DelfiName":"-","THID":"-","LastOperationDate":"","SEV":"nein","longitude":"9,752623","latitude":"52,370183","geojson_lng":9.752623,"geojson_lat":52.370183},"geometry":{"type":"Point","coordinates":[9.752623,52.370183]}},{"type":"Feature","properties":{"SeqNo":"719042","Type":"Q","DHID":"de:03241:1041:8:1050","Parent":"de:03241:1041:8","Name":"Steintor","MunicipalityCode":"00000000","Municipality":"-","DistrictCode":"-","District":"-","Description":"","Authority":"HannIT","DelfiName":"-","THID":"-","LastOperationDate":"","SEV":"nein","longitude":"9,752973","latitude":"52,36993","geojson_lng":9.752973,"geojson_lat":52.36993},"geometry":{"type":"Point","coordinates":[9.752973,52.36993]}},{"type":"Feature","properties":{"SeqNo":"724022","Type":"A","DHID":"de:03241:51:1","Parent":"de:03241:51","Name":"Bus 121","MunicipalityCode":"00000000","Municipality":"-","DistrictCode":"-","District":"-","Description":"","Authority":"HannIT","DelfiName":"-","THID":"-","LastOperationDate":"","SEV":"nein","longitude":"9,744915","latitude":"52,374318","geojson_lng":9.744915,"geojson_lat":52.374318},"geometry":{"type":"Point","coordinates":[9.744915,52.374318]}},{"type":"Feature","properties":{"SeqNo":"724023","Type":"A","DHID":"de:03241:51:2","Parent":"de:03241:51","Name":"Bus 100,128,134,200","MunicipalityCode":"00000000","Municipality":"-","DistrictCode":"-","District":"-","Description":"","Authority":"HannIT","DelfiName":"-","THID":"-","LastOperationDate":"","SEV":"nein","longitude":"9,744825","latitude":"52,374658","geojson_lng":9.744825,"geojson_lat":52.374658},"geometry":{"type":"Point","coordinates":[9.744825,52.374658]}},{"type":"Feature","properties":{"SeqNo":"724025","Type":"Q","DHID":"de:03241:51:1:51","Parent":"de:03241:51:1","Name":"Hauptbahnhof","MunicipalityCode":"00000000","Municipality":"-","DistrictCode":"-","District":"-","Description":"","Authority":"HannIT","DelfiName":"-","THID":"-","LastOperationDate":"","SEV":"nein","longitude":"9,744924","latitude":"52,374351","geojson_lng":9.744924,"geojson_lat":52.374351},"geometry":{"type":"Point","coordinates":[9.744924,52.374351]}},{"type":"Feature","properties":{"SeqNo":"724026","Type":"Q","DHID":"de:03241:51:1:53","Parent":"de:03241:51:1","Name":"Bf Bismarckstraße","MunicipalityCode":"00000000","Municipality":"-","DistrictCode":"-","District":"-","Description":"","Authority":"HannIT","DelfiName":"-","THID":"-","LastOperationDate":"","SEV":"nein","longitude":"9,74487","latitude":"52,374302","geojson_lng":9.74487,"geojson_lat":52.374302},"geometry":{"type":"Point","coordinates":[9.74487,52.374302]}},{"type":"Feature","properties":{"SeqNo":"724030","Type":"Q","DHID":"de:03241:51:2:55","Parent":"de:03241:51:2","Name":"Neues Haus","MunicipalityCode":"00000000","Municipality":"-","DistrictCode":"-","District":"-","Description":"","Authority":"HannIT","DelfiName":"-","THID":"-","LastOperationDate":"","SEV":"nein","longitude":"9,74505","latitude":"52,374713","geojson_lng":9.74505,"geojson_lat":52.374713},"geometry":{"type":"Point","coordinates":[9.74505,52.374713]}},{"type":"Feature","properties":{"SeqNo":"726905","Type":"S","DHID":"de:03241:73","Parent":"de:03241:73","Name":"Hannover Königstraße","MunicipalityCode":"03241001","Municipality":"Hannover","DistrictCode":"","District":"","Description":"","Authority":"HannIT","DelfiName":"-","THID":"D90CA9000049","LastOperationDate":"2025-06-14T00:00:00","SEV":"nein","longitude":"9,74717","latitude":"52,375481","geojson_lng":9.74717,"geojson_lat":52.375481},"geometry":{"type":"Point","coordinates":[9.74717,52.375481]}},{"type":"Feature","properties":{"SeqNo":"726906","Type":"Q","DHID":"de:03241:73:0:73","Parent":"de:03241:73","Name":"Emmichplatz/Musikhochschule","MunicipalityCode":"00000000","Municipality":"-","DistrictCode":"-","District":"-","Description":"","Authority":"HannIT","DelfiName":"-","THID":"-","LastOperationDate":"","SEV":"nein","longitude":"9,7469","latitude":"52,375365","geojson_lng":9.7469,"geojson_lat":52.375365},"geometry":{"type":"Point","coordinates":[9.7469,52.375365]}},{"type":"Feature","properties":{"SeqNo":"726907","Type":"Q","DHID":"de:03241:73:0:74","Parent":"de:03241:73","Name":"Thielenplatz/Schauspielhaus","MunicipalityCode":"00000000","Municipality":"-","DistrictCode":"-","District":"-","Description":"","Authority":"HannIT","DelfiName":"-","THID":"-","LastOperationDate":"","SEV":"nein","longitude":"9,747538","latitude":"52,375629","geojson_lng":9.747538,"geojson_lat":52.375629},"geometry":{"type":"Point","coordinates":[9.747538,52.375629]}},{"type":"Feature","properties":{"SeqNo":"727520","Type":"S","DHID":"de:03241:81","Parent":"de:03241:81","Name":"Hannover Lavesstraße","MunicipalityCode":"03241001","Municipality":"Hannover","DistrictCode":"","District":"","Description":"","Authority":"HannIT","DelfiName":"-","THID":"D90CA9000051","LastOperationDate":"2025-06-14T00:00:00","SEV":"nein","longitude":"9,749667","latitude":"52,3731","geojson_lng":9.749667,"geojson_lat":52.3731},"geometry":{"type":"Point","coordinates":[9.749667,52.3731]}},{"type":"Feature","properties":{"SeqNo":"727521","Type":"Q","DHID":"de:03241:81:0:81","Parent":"de:03241:81","Name":"Thielenplatz/Schauspielhaus","MunicipalityCode":"00000000","Municipality":"-","DistrictCode":"-","District":"-","Description":"","Authority":"HannIT","DelfiName":"-","THID":"-","LastOperationDate":"","SEV":"nein","longitude":"9,749694","latitude":"52,373133","geojson_lng":9.749694,"geojson_lat":52.373133},"geometry":{"type":"Point","coordinates":[9.749694,52.373133]}},{"type":"Feature","properties":{"SeqNo":"727522","Type":"Q","DHID":"de:03241:81:0:82","Parent":"de:03241:81","Name":"Bf Bismarckstraße","MunicipalityCode":"00000000","Municipality":"-","DistrictCode":"-","District":"-","Description":"","Authority":"HannIT","DelfiName":"-","THID":"-","LastOperationDate":"","SEV":"nein","longitude":"9,749613","latitude":"52,37309","geojson_lng":9.749613,"geojson_lat":52.37309},"geometry":{"type":"Point","coordinates":[9.749613,52.37309]}},{"type":"Feature","properties":{"SeqNo":"727523","Type":"Q","DHID":"de:03241:81:0:8906","Parent":"de:03241:81","Name":"Ersatzhaltestelle","MunicipalityCode":"00000000","Municipality":"-","DistrictCode":"-","District":"-","Description":"","Authority":"HannIT","DelfiName":"-","THID":"-","LastOperationDate":"","SEV":"nein","longitude":"9,750467","latitude":"52,375607","geojson_lng":9.750467,"geojson_lat":52.375607},"geometry":{"type":"Point","coordinates":[9.750467,52.375607]}}]}