{"type":"FeatureCollection","features":[{"type":"Feature","properties":{"SeqNo":"91838","Type":"S","DHID":"de:08436:48184","Parent":"de:08436:48184","Name":"Bergatreute Waldseer Straße","MunicipalityCode":"08436014","Municipality":"Bergatreute","DistrictCode":"","District":"","Description":"","Authority":"NVBW","DelfiName":"-","THID":"D920F400BC38","LastOperationDate":"2025-06-14T00:00:00","SEV":"nein","longitude":"9,750727","latitude":"47,854121","geojson_lng":9.750727,"geojson_lat":47.854121},"geometry":{"type":"Point","coordinates":[9.750727,47.854121]}},{"type":"Feature","properties":{"SeqNo":"91839","Type":"Q","DHID":"de:08436:48184:0:1","Parent":"de:08436:48184","Name":"Steig 1","MunicipalityCode":"00000000","Municipality":"-","DistrictCode":"-","District":"-","Description":"","Authority":"NVBW","DelfiName":"-","THID":"-","LastOperationDate":"","SEV":"nein","longitude":"9,750862","latitude":"47,854145","geojson_lng":9.750862,"geojson_lat":47.854145},"geometry":{"type":"Point","coordinates":[9.750862,47.854145]}},{"type":"Feature","properties":{"SeqNo":"91840","Type":"Q","DHID":"de:08436:48184:0:2","Parent":"de:08436:48184","Name":"Steig 2","MunicipalityCode":"00000000","Municipality":"-","DistrictCode":"-","District":"-","Description":"","Authority":"NVBW","DelfiName":"-","THID":"-","LastOperationDate":"","SEV":"nein","longitude":"9,750727","latitude":"47,85429","geojson_lng":9.750727,"geojson_lat":47.85429},"geometry":{"type":"Point","coordinates":[9.750727,47.85429]}},{"type":"Feature","properties":{"SeqNo":"91876","Type":"S","DHID":"de:08436:48196","Parent":"de:08436:48196","Name":"Bergatreute Bergatreute Feuerwehrhaus","MunicipalityCode":"08436014","Municipality":"Bergatreute","DistrictCode":"","District":"","Description":"","Authority":"NVBW","DelfiName":"-","THID":"D920F400BC44","LastOperationDate":"2025-06-14T00:00:00","SEV":"nein","longitude":"9,752901","latitude":"47,849932","geojson_lng":9.752901,"geojson_lat":47.849932},"geometry":{"type":"Point","coordinates":[9.752901,47.849932]}},{"type":"Feature","properties":{"SeqNo":"91879","Type":"S","DHID":"de:08436:48197","Parent":"de:08436:48197","Name":"Bergatreute Friedhofstraße","MunicipalityCode":"08436014","Municipality":"Bergatreute","DistrictCode":"","District":"","Description":"","Authority":"NVBW","DelfiName":"-","THID":"D920F400BC45","LastOperationDate":"2025-06-06T00:00:00","SEV":"nein","longitude":"9,746613","latitude":"47,852313","geojson_lng":9.746613,"geojson_lat":47.852313},"geometry":{"type":"Point","coordinates":[9.746613,47.852313]}},{"type":"Feature","properties":{"SeqNo":"91880","Type":"Q","DHID":"de:08436:48197:0:1","Parent":"de:08436:48197","Name":"Steig 1","MunicipalityCode":"00000000","Municipality":"-","DistrictCode":"-","District":"-","Description":"","Authority":"NVBW","DelfiName":"-","THID":"-","LastOperationDate":"","SEV":"nein","longitude":"9,746469","latitude":"47,852319","geojson_lng":9.746469,"geojson_lat":47.852319},"geometry":{"type":"Point","coordinates":[9.746469,47.852319]}},{"type":"Feature","properties":{"SeqNo":"91881","Type":"Q","DHID":"de:08436:48197:0:2","Parent":"de:08436:48197","Name":"Steig 2","MunicipalityCode":"00000000","Municipality":"-","DistrictCode":"-","District":"-","Description":"","Authority":"NVBW","DelfiName":"-","THID":"-","LastOperationDate":"","SEV":"nein","longitude":"9,746703","latitude":"47,852246","geojson_lng":9.746703,"geojson_lat":47.852246},"geometry":{"type":"Point","coordinates":[9.746703,47.852246]}}]}