{"type":"FeatureCollection","features":[{"type":"Feature","properties":{"SeqNo":"596041","Type":"S","DHID":"de:05382:57351","Parent":"de:05382:57351","Name":"Hennef Niederscheid","MunicipalityCode":"05382020","Municipality":"Hennef (Sieg)","DistrictCode":"","District":"","Description":"","Authority":"VRR","DelfiName":"-","THID":"D9150600E007","LastOperationDate":"2025-01-06T00:00:00","SEV":"nein","longitude":"7,406933","latitude":"50,758848","geojson_lng":7.406933,"geojson_lat":50.758848},"geometry":{"type":"Point","coordinates":[7.406933,50.758848]}},{"type":"Feature","properties":{"SeqNo":"596042","Type":"A","DHID":"de:05382:57351:2","Parent":"de:05382:57351","Name":"Niederscheid","MunicipalityCode":"00000000","Municipality":"-","DistrictCode":"-","District":"-","Description":"","Authority":"VRR","DelfiName":"-","THID":"-","LastOperationDate":"","SEV":"nein","longitude":"7,406933","latitude":"50,758848","geojson_lng":7.406933,"geojson_lat":50.758848},"geometry":{"type":"Point","coordinates":[7.406933,50.758848]}},{"type":"Feature","properties":{"SeqNo":"596043","Type":"Q","DHID":"de:05382:57351:2:21","Parent":"de:05382:57351:2","Name":"","MunicipalityCode":"00000000","Municipality":"-","DistrictCode":"-","District":"-","Description":"","Authority":"VRR","DelfiName":"-","THID":"-","LastOperationDate":"","SEV":"nein","longitude":"7,40687","latitude":"50,758887","geojson_lng":7.40687,"geojson_lat":50.758887},"geometry":{"type":"Point","coordinates":[7.40687,50.758887]}},{"type":"Feature","properties":{"SeqNo":"596044","Type":"Q","DHID":"de:05382:57351:2:22","Parent":"de:05382:57351:2","Name":"","MunicipalityCode":"00000000","Municipality":"-","DistrictCode":"-","District":"-","Description":"","Authority":"VRR","DelfiName":"-","THID":"-","LastOperationDate":"","SEV":"nein","longitude":"7,406933","latitude":"50,758876","geojson_lng":7.406933,"geojson_lat":50.758876},"geometry":{"type":"Point","coordinates":[7.406933,50.758876]}},{"type":"Feature","properties":{"SeqNo":"597301","Type":"S","DHID":"de:05382:59184","Parent":"de:05382:59184","Name":"Eitorf Schützenau","MunicipalityCode":"05382016","Municipality":"Eitorf","DistrictCode":"","District":"","Description":"","Authority":"VRR","DelfiName":"-","THID":"D9150600E730","LastOperationDate":"2025-01-06T00:00:00","SEV":"nein","longitude":"7,407157","latitude":"50,762865","geojson_lng":7.407157,"geojson_lat":50.762865},"geometry":{"type":"Point","coordinates":[7.407157,50.762865]}},{"type":"Feature","properties":{"SeqNo":"597302","Type":"A","DHID":"de:05382:59184:2","Parent":"de:05382:59184","Name":"Schützenau","MunicipalityCode":"00000000","Municipality":"-","DistrictCode":"-","District":"-","Description":"","Authority":"VRR","DelfiName":"-","THID":"-","LastOperationDate":"","SEV":"nein","longitude":"7,407157","latitude":"50,762865","geojson_lng":7.407157,"geojson_lat":50.762865},"geometry":{"type":"Point","coordinates":[7.407157,50.762865]}},{"type":"Feature","properties":{"SeqNo":"597303","Type":"Q","DHID":"de:05382:59184:2:21","Parent":"de:05382:59184:2","Name":"","MunicipalityCode":"00000000","Municipality":"-","DistrictCode":"-","District":"-","Description":"","Authority":"VRR","DelfiName":"-","THID":"-","LastOperationDate":"","SEV":"nein","longitude":"7,407032","latitude":"50,762882","geojson_lng":7.407032,"geojson_lat":50.762882},"geometry":{"type":"Point","coordinates":[7.407032,50.762882]}},{"type":"Feature","properties":{"SeqNo":"597304","Type":"Q","DHID":"de:05382:59184:2:22","Parent":"de:05382:59184:2","Name":"","MunicipalityCode":"00000000","Municipality":"-","DistrictCode":"-","District":"-","Description":"","Authority":"VRR","DelfiName":"-","THID":"-","LastOperationDate":"","SEV":"nein","longitude":"7,407283","latitude":"50,762871","geojson_lng":7.407283,"geojson_lat":50.762871},"geometry":{"type":"Point","coordinates":[7.407283,50.762871]}}]}