{"type":"FeatureCollection","features":[{"type":"Feature","properties":{"SeqNo":"560871","Type":"S","DHID":"de:05316:21135","Parent":"de:05316:21135","Name":"Leverkusen Wiesdorf Albert-Einstein-Str.","MunicipalityCode":"05316000","Municipality":"Leverkusen","DistrictCode":"","District":"","Description":"","Authority":"VRR","DelfiName":"-","THID":"D914C400528F","LastOperationDate":"2025-01-06T00:00:00","SEV":"nein","longitude":"6,97911","latitude":"51,036214","geojson_lng":6.97911,"geojson_lat":51.036214},"geometry":{"type":"Point","coordinates":[6.97911,51.036214]}},{"type":"Feature","properties":{"SeqNo":"560872","Type":"A","DHID":"de:05316:21135:2","Parent":"de:05316:21135","Name":"Albert-Einstein-S","MunicipalityCode":"00000000","Municipality":"-","DistrictCode":"-","District":"-","Description":"","Authority":"VRR","DelfiName":"-","THID":"-","LastOperationDate":"","SEV":"nein","longitude":"6,97911","latitude":"51,036214","geojson_lng":6.97911,"geojson_lat":51.036214},"geometry":{"type":"Point","coordinates":[6.97911,51.036214]}},{"type":"Feature","properties":{"SeqNo":"560873","Type":"Q","DHID":"de:05316:21135:2:21","Parent":"de:05316:21135:2","Name":"","MunicipalityCode":"00000000","Municipality":"-","DistrictCode":"-","District":"-","Description":"","Authority":"VRR","DelfiName":"-","THID":"-","LastOperationDate":"","SEV":"nein","longitude":"6,979353","latitude":"51,036225","geojson_lng":6.979353,"geojson_lat":51.036225},"geometry":{"type":"Point","coordinates":[6.979353,51.036225]}},{"type":"Feature","properties":{"SeqNo":"560874","Type":"Q","DHID":"de:05316:21135:2:22","Parent":"de:05316:21135:2","Name":"","MunicipalityCode":"00000000","Municipality":"-","DistrictCode":"-","District":"-","Description":"","Authority":"VRR","DelfiName":"-","THID":"-","LastOperationDate":"","SEV":"nein","longitude":"6,97902","latitude":"51,03618","geojson_lng":6.97902,"geojson_lat":51.03618},"geometry":{"type":"Point","coordinates":[6.97902,51.03618]}},{"type":"Feature","properties":{"SeqNo":"560875","Type":"Q","DHID":"de:05316:21135:2:23","Parent":"de:05316:21135:2","Name":"","MunicipalityCode":"00000000","Municipality":"-","DistrictCode":"-","District":"-","Description":"","Authority":"VRR","DelfiName":"-","THID":"-","LastOperationDate":"","SEV":"nein","longitude":"6,979191","latitude":"51,03618","geojson_lng":6.979191,"geojson_lat":51.03618},"geometry":{"type":"Point","coordinates":[6.979191,51.03618]}},{"type":"Feature","properties":{"SeqNo":"560891","Type":"Q","DHID":"de:05316:21141:2:21","Parent":"de:05316:21141:2","Name":"","MunicipalityCode":"00000000","Municipality":"-","DistrictCode":"-","District":"-","Description":"","Authority":"VRR","DelfiName":"-","THID":"-","LastOperationDate":"","SEV":"nein","longitude":"6,981383","latitude":"51,034417","geojson_lng":6.981383,"geojson_lat":51.034417},"geometry":{"type":"Point","coordinates":[6.981383,51.034417]}},{"type":"Feature","properties":{"SeqNo":"560900","Type":"S","DHID":"de:05316:21144","Parent":"de:05316:21144","Name":"Leverkusen Wiesdorf Westring","MunicipalityCode":"05316000","Municipality":"Leverkusen","DistrictCode":"","District":"","Description":"","Authority":"VRR","DelfiName":"-","THID":"D914C4005298","LastOperationDate":"2025-01-06T00:00:00","SEV":"nein","longitude":"6,976227","latitude":"51,040185","geojson_lng":6.976227,"geojson_lat":51.040185},"geometry":{"type":"Point","coordinates":[6.976227,51.040185]}},{"type":"Feature","properties":{"SeqNo":"560901","Type":"A","DHID":"de:05316:21144:2","Parent":"de:05316:21144","Name":"Westring","MunicipalityCode":"00000000","Municipality":"-","DistrictCode":"-","District":"-","Description":"","Authority":"VRR","DelfiName":"-","THID":"-","LastOperationDate":"","SEV":"nein","longitude":"6,976227","latitude":"51,040185","geojson_lng":6.976227,"geojson_lat":51.040185},"geometry":{"type":"Point","coordinates":[6.976227,51.040185]}},{"type":"Feature","properties":{"SeqNo":"560902","Type":"Q","DHID":"de:05316:21144:2:21","Parent":"de:05316:21144:2","Name":"","MunicipalityCode":"00000000","Municipality":"-","DistrictCode":"-","District":"-","Description":"","Authority":"VRR","DelfiName":"-","THID":"-","LastOperationDate":"","SEV":"nein","longitude":"6,976352","latitude":"51,040043","geojson_lng":6.976352,"geojson_lat":51.040043},"geometry":{"type":"Point","coordinates":[6.976352,51.040043]}},{"type":"Feature","properties":{"SeqNo":"560904","Type":"Q","DHID":"de:05316:21144:2:23","Parent":"de:05316:21144:2","Name":"","MunicipalityCode":"00000000","Municipality":"-","DistrictCode":"-","District":"-","Description":"","Authority":"VRR","DelfiName":"-","THID":"-","LastOperationDate":"","SEV":"nein","longitude":"6,976155","latitude":"51,04032","geojson_lng":6.976155,"geojson_lat":51.04032},"geometry":{"type":"Point","coordinates":[6.976155,51.04032]}},{"type":"Feature","properties":{"SeqNo":"561461","Type":"S","DHID":"de:05316:22256","Parent":"de:05316:22256","Name":"Leverkusen Bürrig Olof-Palme-Str.","MunicipalityCode":"05316000","Municipality":"Leverkusen","DistrictCode":"","District":"","Description":"","Authority":"VRR","DelfiName":"-","THID":"D914C40056F0","LastOperationDate":"2025-01-06T00:00:00","SEV":"nein","longitude":"6,986728","latitude":"51,04045","geojson_lng":6.986728,"geojson_lat":51.04045},"geometry":{"type":"Point","coordinates":[6.986728,51.04045]}},{"type":"Feature","properties":{"SeqNo":"561462","Type":"A","DHID":"de:05316:22256:2","Parent":"de:05316:22256","Name":"Olof-Palme-Str.","MunicipalityCode":"00000000","Municipality":"-","DistrictCode":"-","District":"-","Description":"","Authority":"VRR","DelfiName":"-","THID":"-","LastOperationDate":"","SEV":"nein","longitude":"6,986728","latitude":"51,04045","geojson_lng":6.986728,"geojson_lat":51.04045},"geometry":{"type":"Point","coordinates":[6.986728,51.04045]}},{"type":"Feature","properties":{"SeqNo":"561463","Type":"Q","DHID":"de:05316:22256:2:21","Parent":"de:05316:22256:2","Name":"","MunicipalityCode":"00000000","Municipality":"-","DistrictCode":"-","District":"-","Description":"","Authority":"VRR","DelfiName":"-","THID":"-","LastOperationDate":"","SEV":"nein","longitude":"6,986683","latitude":"51,040241","geojson_lng":6.986683,"geojson_lat":51.040241},"geometry":{"type":"Point","coordinates":[6.986683,51.040241]}},{"type":"Feature","properties":{"SeqNo":"561464","Type":"Q","DHID":"de:05316:22256:2:22","Parent":"de:05316:22256:2","Name":"","MunicipalityCode":"00000000","Municipality":"-","DistrictCode":"-","District":"-","Description":"","Authority":"VRR","DelfiName":"-","THID":"-","LastOperationDate":"","SEV":"nein","longitude":"6,986773","latitude":"51,04071","geojson_lng":6.986773,"geojson_lat":51.04071},"geometry":{"type":"Point","coordinates":[6.986773,51.04071]}},{"type":"Feature","properties":{"SeqNo":"561469","Type":"S","DHID":"de:05316:22260","Parent":"de:05316:22260","Name":"Leverkusen Bürrig Bendenweg","MunicipalityCode":"05316000","Municipality":"Leverkusen","DistrictCode":"","District":"","Description":"","Authority":"VRR","DelfiName":"-","THID":"D914C40056F4","LastOperationDate":"2025-01-06T00:00:00","SEV":"nein","longitude":"6,979973","latitude":"51,040156","geojson_lng":6.979973,"geojson_lat":51.040156},"geometry":{"type":"Point","coordinates":[6.979973,51.040156]}},{"type":"Feature","properties":{"SeqNo":"561470","Type":"A","DHID":"de:05316:22260:2","Parent":"de:05316:22260","Name":"Bendenweg","MunicipalityCode":"00000000","Municipality":"-","DistrictCode":"-","District":"-","Description":"","Authority":"VRR","DelfiName":"-","THID":"-","LastOperationDate":"","SEV":"nein","longitude":"6,979973","latitude":"51,040156","geojson_lng":6.979973,"geojson_lat":51.040156},"geometry":{"type":"Point","coordinates":[6.979973,51.040156]}},{"type":"Feature","properties":{"SeqNo":"561471","Type":"Q","DHID":"de:05316:22260:2:21","Parent":"de:05316:22260:2","Name":"","MunicipalityCode":"00000000","Municipality":"-","DistrictCode":"-","District":"-","Description":"","Authority":"VRR","DelfiName":"-","THID":"-","LastOperationDate":"","SEV":"nein","longitude":"6,980449","latitude":"51,040727","geojson_lng":6.980449,"geojson_lat":51.040727},"geometry":{"type":"Point","coordinates":[6.980449,51.040727]}},{"type":"Feature","properties":{"SeqNo":"561472","Type":"Q","DHID":"de:05316:22260:2:22","Parent":"de:05316:22260:2","Name":"","MunicipalityCode":"00000000","Municipality":"-","DistrictCode":"-","District":"-","Description":"","Authority":"VRR","DelfiName":"-","THID":"-","LastOperationDate":"","SEV":"nein","longitude":"6,9807","latitude":"51,040089","geojson_lng":6.9807,"geojson_lat":51.040089},"geometry":{"type":"Point","coordinates":[6.9807,51.040089]}},{"type":"Feature","properties":{"SeqNo":"561473","Type":"Q","DHID":"de:05316:22260:2:23","Parent":"de:05316:22260:2","Name":"","MunicipalityCode":"00000000","Municipality":"-","DistrictCode":"-","District":"-","Description":"","Authority":"VRR","DelfiName":"-","THID":"-","LastOperationDate":"","SEV":"nein","longitude":"6,980305","latitude":"51,040845","geojson_lng":6.980305,"geojson_lat":51.040845},"geometry":{"type":"Point","coordinates":[6.980305,51.040845]}},{"type":"Feature","properties":{"SeqNo":"561474","Type":"Q","DHID":"de:05316:22260:2:24","Parent":"de:05316:22260:2","Name":"","MunicipalityCode":"00000000","Municipality":"-","DistrictCode":"-","District":"-","Description":"","Authority":"VRR","DelfiName":"-","THID":"-","LastOperationDate":"","SEV":"nein","longitude":"6,980539","latitude":"51,039942","geojson_lng":6.980539,"geojson_lat":51.039942},"geometry":{"type":"Point","coordinates":[6.980539,51.039942]}}]}