{"type":"FeatureCollection","features":[{"type":"Feature","properties":{"SeqNo":"541838","Type":"S","DHID":"de:05158:19593","Parent":"de:05158:19593","Name":"Hilden Schalbruch","MunicipalityCode":"05158016","Municipality":"Hilden","DistrictCode":"","District":"","Description":"","Authority":"VRR","DelfiName":"-","THID":"D91426004C89","LastOperationDate":"2025-06-14T00:00:00","SEV":"nein","longitude":"6,920423","latitude":"51,180976","geojson_lng":6.920423,"geojson_lat":51.180976},"geometry":{"type":"Point","coordinates":[6.920423,51.180976]}},{"type":"Feature","properties":{"SeqNo":"541839","Type":"A","DHID":"de:05158:19593:1","Parent":"de:05158:19593","Name":"für Steig 1","MunicipalityCode":"00000000","Municipality":"-","DistrictCode":"-","District":"-","Description":"","Authority":"VRR","DelfiName":"-","THID":"-","LastOperationDate":"","SEV":"nein","longitude":"6,92036","latitude":"51,180954","geojson_lng":6.92036,"geojson_lat":51.180954},"geometry":{"type":"Point","coordinates":[6.92036,51.180954]}},{"type":"Feature","properties":{"SeqNo":"541840","Type":"A","DHID":"de:05158:19593:2","Parent":"de:05158:19593","Name":"für Steig 2","MunicipalityCode":"00000000","Municipality":"-","DistrictCode":"-","District":"-","Description":"","Authority":"VRR","DelfiName":"-","THID":"-","LastOperationDate":"","SEV":"nein","longitude":"6,92045","latitude":"51,181089","geojson_lng":6.92045,"geojson_lat":51.181089},"geometry":{"type":"Point","coordinates":[6.92045,51.181089]}},{"type":"Feature","properties":{"SeqNo":"541841","Type":"Q","DHID":"de:05158:19593:1:1","Parent":"de:05158:19593:1","Name":"Ri. Nordfriedhof","MunicipalityCode":"00000000","Municipality":"-","DistrictCode":"-","District":"-","Description":"","Authority":"VRR","DelfiName":"-","THID":"-","LastOperationDate":"","SEV":"nein","longitude":"6,920387","latitude":"51,180959","geojson_lng":6.920387,"geojson_lat":51.180959},"geometry":{"type":"Point","coordinates":[6.920387,51.180959]}},{"type":"Feature","properties":{"SeqNo":"541842","Type":"Q","DHID":"de:05158:19593:2:2","Parent":"de:05158:19593:2","Name":"Ri. Rich.-Wagner-Str.","MunicipalityCode":"00000000","Municipality":"-","DistrictCode":"-","District":"-","Description":"","Authority":"VRR","DelfiName":"-","THID":"-","LastOperationDate":"","SEV":"nein","longitude":"6,920423","latitude":"51,181083","geojson_lng":6.920423,"geojson_lat":51.181083},"geometry":{"type":"Point","coordinates":[6.920423,51.181083]}}]}