{"type":"FeatureCollection","features":[{"type":"Feature","properties":{"SeqNo":"541599","Type":"S","DHID":"de:05158:19521","Parent":"de:05158:19521","Name":"L'feld Sportanlage Berghausen","MunicipalityCode":"05158020","Municipality":"Langenfeld (Rhld.)","DistrictCode":"-","District":"-","Description":"","Authority":"VRR","DelfiName":"-","THID":"D91426004C41","LastOperationDate":"2025-02-28T00:00:00","SEV":"nein","longitude":"6,919588","latitude":"51,11307","geojson_lng":6.919588,"geojson_lat":51.11307},"geometry":{"type":"Point","coordinates":[6.919588,51.11307]}},{"type":"Feature","properties":{"SeqNo":"541600","Type":"A","DHID":"de:05158:19521:1","Parent":"de:05158:19521","Name":"f端r Steig 1","MunicipalityCode":"00000000","Municipality":"-","DistrictCode":"-","District":"-","Description":"","Authority":"VRR","DelfiName":"-","THID":"-","LastOperationDate":"","SEV":"nein","longitude":"6,91948","latitude":"51,113087","geojson_lng":6.91948,"geojson_lat":51.113087},"geometry":{"type":"Point","coordinates":[6.91948,51.113087]}},{"type":"Feature","properties":{"SeqNo":"541601","Type":"A","DHID":"de:05158:19521:2","Parent":"de:05158:19521","Name":"f端r Steig 2","MunicipalityCode":"00000000","Municipality":"-","DistrictCode":"-","District":"-","Description":"","Authority":"VRR","DelfiName":"-","THID":"-","LastOperationDate":"","SEV":"nein","longitude":"6,919687","latitude":"51,113059","geojson_lng":6.919687,"geojson_lat":51.113059},"geometry":{"type":"Point","coordinates":[6.919687,51.113059]}},{"type":"Feature","properties":{"SeqNo":"541602","Type":"Q","DHID":"de:05158:19521:1:1","Parent":"de:05158:19521:1","Name":"Ri. Wasserski","MunicipalityCode":"00000000","Municipality":"-","DistrictCode":"-","District":"-","Description":"Ri. Wasserski","Authority":"VRR","DelfiName":"-","THID":"-","LastOperationDate":"","SEV":"nein","longitude":"6,91948","latitude":"51,113076","geojson_lng":6.91948,"geojson_lat":51.113076},"geometry":{"type":"Point","coordinates":[6.91948,51.113076]}},{"type":"Feature","properties":{"SeqNo":"541603","Type":"Q","DHID":"de:05158:19521:2:2","Parent":"de:05158:19521:2","Name":"Ri. Berghausen Mitte","MunicipalityCode":"00000000","Municipality":"-","DistrictCode":"-","District":"-","Description":"Ri. Berghausen Mitte","Authority":"VRR","DelfiName":"-","THID":"-","LastOperationDate":"","SEV":"nein","longitude":"6,919687","latitude":"51,11307","geojson_lng":6.919687,"geojson_lat":51.11307},"geometry":{"type":"Point","coordinates":[6.919687,51.11307]}},{"type":"Feature","properties":{"SeqNo":"542501","Type":"S","DHID":"de:05158:19769","Parent":"de:05158:19769","Name":"Langenfeld Wasserski","MunicipalityCode":"05158020","Municipality":"Langenfeld (Rhld.)","DistrictCode":"-","District":"-","Description":"","Authority":"VRR","DelfiName":"-","THID":"D91426004D39","LastOperationDate":"2025-02-28T00:00:00","SEV":"nein","longitude":"6,913165","latitude":"51,113713","geojson_lng":6.913165,"geojson_lat":51.113713},"geometry":{"type":"Point","coordinates":[6.913165,51.113713]}},{"type":"Feature","properties":{"SeqNo":"542502","Type":"A","DHID":"de:05158:19769:1","Parent":"de:05158:19769","Name":"f端r Steig 1","MunicipalityCode":"00000000","Municipality":"-","DistrictCode":"-","District":"-","Description":"","Authority":"VRR","DelfiName":"-","THID":"-","LastOperationDate":"","SEV":"nein","longitude":"6,913443","latitude":"51,113708","geojson_lng":6.913443,"geojson_lat":51.113708},"geometry":{"type":"Point","coordinates":[6.913443,51.113708]}},{"type":"Feature","properties":{"SeqNo":"542503","Type":"A","DHID":"de:05158:19769:2","Parent":"de:05158:19769","Name":"f端r Steig 2","MunicipalityCode":"00000000","Municipality":"-","DistrictCode":"-","District":"-","Description":"","Authority":"VRR","DelfiName":"-","THID":"-","LastOperationDate":"","SEV":"nein","longitude":"6,912842","latitude":"51,113736","geojson_lng":6.912842,"geojson_lat":51.113736},"geometry":{"type":"Point","coordinates":[6.912842,51.113736]}},{"type":"Feature","properties":{"SeqNo":"542504","Type":"Q","DHID":"de:05158:19769:1:1","Parent":"de:05158:19769:1","Name":"Ri. Siedlerstr.","MunicipalityCode":"00000000","Municipality":"-","DistrictCode":"-","District":"-","Description":"Ri. Siedlerstr.","Authority":"VRR","DelfiName":"-","THID":"-","LastOperationDate":"","SEV":"nein","longitude":"6,913425","latitude":"51,11368","geojson_lng":6.913425,"geojson_lat":51.11368},"geometry":{"type":"Point","coordinates":[6.913425,51.11368]}},{"type":"Feature","properties":{"SeqNo":"542505","Type":"Q","DHID":"de:05158:19769:2:2","Parent":"de:05158:19769:2","Name":"Ri. Sportanlage","MunicipalityCode":"00000000","Municipality":"-","DistrictCode":"-","District":"-","Description":"Ri. Sportanlage","Authority":"VRR","DelfiName":"-","THID":"-","LastOperationDate":"","SEV":"nein","longitude":"6,91286","latitude":"51,113764","geojson_lng":6.91286,"geojson_lat":51.113764},"geometry":{"type":"Point","coordinates":[6.91286,51.113764]}}]}