{"type":"FeatureCollection","features":[{"type":"Feature","properties":{"SeqNo":"510181","Type":"S","DHID":"de:05111:18095","Parent":"de:05111:18095","Name":"D-St.-Martinus-Krankenhaus","MunicipalityCode":"05111000","Municipality":"Düsseldorf","DistrictCode":"","District":"","Description":"","Authority":"VRR","DelfiName":"-","THID":"D913F70046AF","LastOperationDate":"2025-06-14T00:00:00","SEV":"nein","longitude":"6,760191","latitude":"51,211966","geojson_lng":6.760191,"geojson_lat":51.211966},"geometry":{"type":"Point","coordinates":[6.760191,51.211966]}},{"type":"Feature","properties":{"SeqNo":"510182","Type":"A","DHID":"de:05111:18095:1","Parent":"de:05111:18095","Name":"für Steig 1","MunicipalityCode":"00000000","Municipality":"-","DistrictCode":"-","District":"-","Description":"","Authority":"VRR","DelfiName":"-","THID":"-","LastOperationDate":"","SEV":"nein","longitude":"6,759778","latitude":"51,21209","geojson_lng":6.759778,"geojson_lat":51.21209},"geometry":{"type":"Point","coordinates":[6.759778,51.21209]}},{"type":"Feature","properties":{"SeqNo":"510183","Type":"A","DHID":"de:05111:18095:2","Parent":"de:05111:18095","Name":"für Steig 2","MunicipalityCode":"00000000","Municipality":"-","DistrictCode":"-","District":"-","Description":"","Authority":"VRR","DelfiName":"-","THID":"-","LastOperationDate":"","SEV":"nein","longitude":"6,76055","latitude":"51,211853","geojson_lng":6.76055,"geojson_lat":51.211853},"geometry":{"type":"Point","coordinates":[6.76055,51.211853]}},{"type":"Feature","properties":{"SeqNo":"510184","Type":"Q","DHID":"de:05111:18095:0:1","Parent":"de:05111:18095:1","Name":"723 Ri. Plange Mühle","MunicipalityCode":"00000000","Municipality":"-","DistrictCode":"-","District":"-","Description":"","Authority":"VRR","DelfiName":"-","THID":"-","LastOperationDate":"","SEV":"nein","longitude":"6,75976","latitude":"51,212039","geojson_lng":6.75976,"geojson_lat":51.212039},"geometry":{"type":"Point","coordinates":[6.75976,51.212039]}},{"type":"Feature","properties":{"SeqNo":"510185","Type":"Q","DHID":"de:05111:18095:0:2","Parent":"de:05111:18095:2","Name":"723 Ri. Eller","MunicipalityCode":"00000000","Municipality":"-","DistrictCode":"-","District":"-","Description":"","Authority":"VRR","DelfiName":"-","THID":"-","LastOperationDate":"","SEV":"nein","longitude":"6,760559","latitude":"51,211887","geojson_lng":6.760559,"geojson_lat":51.211887},"geometry":{"type":"Point","coordinates":[6.760559,51.211887]}},{"type":"Feature","properties":{"SeqNo":"510278","Type":"S","DHID":"de:05111:18108","Parent":"de:05111:18108","Name":"D-Bilker Kirche","MunicipalityCode":"05111000","Municipality":"Düsseldorf","DistrictCode":"","District":"","Description":"","Authority":"VRR","DelfiName":"-","THID":"D913F70046BC","LastOperationDate":"2025-06-14T00:00:00","SEV":"nein","longitude":"6,76311","latitude":"51,211499","geojson_lng":6.76311,"geojson_lat":51.211499},"geometry":{"type":"Point","coordinates":[6.76311,51.211499]}},{"type":"Feature","properties":{"SeqNo":"510279","Type":"A","DHID":"de:05111:18108:1","Parent":"de:05111:18108","Name":"für Steig 1","MunicipalityCode":"00000000","Municipality":"-","DistrictCode":"-","District":"-","Description":"","Authority":"VRR","DelfiName":"-","THID":"-","LastOperationDate":"","SEV":"nein","longitude":"6,76364","latitude":"51,211409","geojson_lng":6.76364,"geojson_lat":51.211409},"geometry":{"type":"Point","coordinates":[6.76364,51.211409]}},{"type":"Feature","properties":{"SeqNo":"510280","Type":"A","DHID":"de:05111:18108:2","Parent":"de:05111:18108","Name":"für Steig 2","MunicipalityCode":"00000000","Municipality":"-","DistrictCode":"-","District":"-","Description":"","Authority":"VRR","DelfiName":"-","THID":"-","LastOperationDate":"","SEV":"nein","longitude":"6,762796","latitude":"51,211577","geojson_lng":6.762796,"geojson_lat":51.211577},"geometry":{"type":"Point","coordinates":[6.762796,51.211577]}},{"type":"Feature","properties":{"SeqNo":"510281","Type":"A","DHID":"de:05111:18108:3","Parent":"de:05111:18108","Name":"für Steig 3","MunicipalityCode":"00000000","Municipality":"-","DistrictCode":"-","District":"-","Description":"","Authority":"VRR","DelfiName":"-","THID":"-","LastOperationDate":"","SEV":"nein","longitude":"6,763362","latitude":"51,211836","geojson_lng":6.763362,"geojson_lat":51.211836},"geometry":{"type":"Point","coordinates":[6.763362,51.211836]}},{"type":"Feature","properties":{"SeqNo":"510282","Type":"A","DHID":"de:05111:18108:4","Parent":"de:05111:18108","Name":"für Steig 4","MunicipalityCode":"00000000","Municipality":"-","DistrictCode":"-","District":"-","Description":"","Authority":"VRR","DelfiName":"-","THID":"-","LastOperationDate":"","SEV":"nein","longitude":"6,763425","latitude":"51,211831","geojson_lng":6.763425,"geojson_lat":51.211831},"geometry":{"type":"Point","coordinates":[6.763425,51.211831]}},{"type":"Feature","properties":{"SeqNo":"510283","Type":"A","DHID":"de:05111:18108:5","Parent":"de:05111:18108","Name":"für Steig 5","MunicipalityCode":"00000000","Municipality":"-","DistrictCode":"-","District":"-","Description":"","Authority":"VRR","DelfiName":"-","THID":"-","LastOperationDate":"","SEV":"nein","longitude":"6,76382","latitude":"51,212061","geojson_lng":6.76382,"geojson_lat":51.212061},"geometry":{"type":"Point","coordinates":[6.76382,51.212061]}},{"type":"Feature","properties":{"SeqNo":"510284","Type":"A","DHID":"de:05111:18108:6","Parent":"de:05111:18108","Name":"für Steig 6","MunicipalityCode":"00000000","Municipality":"-","DistrictCode":"-","District":"-","Description":"","Authority":"VRR","DelfiName":"-","THID":"-","LastOperationDate":"","SEV":"nein","longitude":"6,763065","latitude":"51,21106","geojson_lng":6.763065,"geojson_lat":51.21106},"geometry":{"type":"Point","coordinates":[6.763065,51.21106]}},{"type":"Feature","properties":{"SeqNo":"510285","Type":"Q","DHID":"de:05111:18108:1:1","Parent":"de:05111:18108:1","Name":"707 Ri. KES","MunicipalityCode":"00000000","Municipality":"-","DistrictCode":"-","District":"-","Description":"","Authority":"VRR","DelfiName":"-","THID":"-","LastOperationDate":"","SEV":"nein","longitude":"6,763622","latitude":"51,21142","geojson_lng":6.763622,"geojson_lat":51.21142},"geometry":{"type":"Point","coordinates":[6.763622,51.21142]}},{"type":"Feature","properties":{"SeqNo":"510286","Type":"Q","DHID":"de:05111:18108:2:2","Parent":"de:05111:18108:2","Name":"707 Ri. UTR","MunicipalityCode":"00000000","Municipality":"-","DistrictCode":"-","District":"-","Description":"","Authority":"VRR","DelfiName":"-","THID":"-","LastOperationDate":"","SEV":"nein","longitude":"6,762778","latitude":"51,211589","geojson_lng":6.762778,"geojson_lat":51.211589},"geometry":{"type":"Point","coordinates":[6.762778,51.211589]}},{"type":"Feature","properties":{"SeqNo":"510287","Type":"Q","DHID":"de:05111:18108:3:3","Parent":"de:05111:18108:3","Name":"709 Ri. NSH","MunicipalityCode":"00000000","Municipality":"-","DistrictCode":"-","District":"-","Description":"","Authority":"VRR","DelfiName":"-","THID":"-","LastOperationDate":"","SEV":"nein","longitude":"6,763344","latitude":"51,211848","geojson_lng":6.763344,"geojson_lat":51.211848},"geometry":{"type":"Point","coordinates":[6.763344,51.211848]}},{"type":"Feature","properties":{"SeqNo":"510288","Type":"Q","DHID":"de:05111:18108:4:4","Parent":"de:05111:18108:4","Name":"709 Ri. GKH","MunicipalityCode":"00000000","Municipality":"-","DistrictCode":"-","District":"-","Description":"","Authority":"VRR","DelfiName":"-","THID":"-","LastOperationDate":"","SEV":"nein","longitude":"6,763407","latitude":"51,211842","geojson_lng":6.763407,"geojson_lat":51.211842},"geometry":{"type":"Point","coordinates":[6.763407,51.211842]}},{"type":"Feature","properties":{"SeqNo":"510289","Type":"Q","DHID":"de:05111:18108:5:5","Parent":"de:05111:18108:5","Name":"Steig 5","MunicipalityCode":"00000000","Municipality":"-","DistrictCode":"-","District":"-","Description":"","Authority":"VRR","DelfiName":"-","THID":"-","LastOperationDate":"","SEV":"nein","longitude":"6,763802","latitude":"51,212073","geojson_lng":6.763802,"geojson_lat":51.212073},"geometry":{"type":"Point","coordinates":[6.763802,51.212073]}},{"type":"Feature","properties":{"SeqNo":"510290","Type":"Q","DHID":"de:05111:18108:6:6","Parent":"de:05111:18108:6","Name":"723 Ri. PLM","MunicipalityCode":"00000000","Municipality":"-","DistrictCode":"-","District":"-","Description":"","Authority":"VRR","DelfiName":"-","THID":"-","LastOperationDate":"","SEV":"nein","longitude":"6,763047","latitude":"51,211071","geojson_lng":6.763047,"geojson_lat":51.211071},"geometry":{"type":"Point","coordinates":[6.763047,51.211071]}},{"type":"Feature","properties":{"SeqNo":"510291","Type":"S","DHID":"de:05111:18109","Parent":"de:05111:18109","Name":"D-Wupperstraße","MunicipalityCode":"05111000","Municipality":"Düsseldorf","DistrictCode":"","District":"","Description":"","Authority":"VRR","DelfiName":"-","THID":"D913F70046BD","LastOperationDate":"2025-06-14T00:00:00","SEV":"nein","longitude":"6,758241","latitude":"51,212168","geojson_lng":6.758241,"geojson_lat":51.212168},"geometry":{"type":"Point","coordinates":[6.758241,51.212168]}},{"type":"Feature","properties":{"SeqNo":"510292","Type":"A","DHID":"de:05111:18109:1","Parent":"de:05111:18109","Name":"für Steig 1","MunicipalityCode":"00000000","Municipality":"-","DistrictCode":"-","District":"-","Description":"","Authority":"VRR","DelfiName":"-","THID":"-","LastOperationDate":"","SEV":"nein","longitude":"6,758188","latitude":"51,21218","geojson_lng":6.758188,"geojson_lat":51.21218},"geometry":{"type":"Point","coordinates":[6.758188,51.21218]}},{"type":"Feature","properties":{"SeqNo":"510293","Type":"A","DHID":"de:05111:18109:2","Parent":"de:05111:18109","Name":"für Steig 2","MunicipalityCode":"00000000","Municipality":"-","DistrictCode":"-","District":"-","Description":"","Authority":"VRR","DelfiName":"-","THID":"-","LastOperationDate":"","SEV":"nein","longitude":"6,758322","latitude":"51,212135","geojson_lng":6.758322,"geojson_lat":51.212135},"geometry":{"type":"Point","coordinates":[6.758322,51.212135]}},{"type":"Feature","properties":{"SeqNo":"510294","Type":"Q","DHID":"de:05111:18109:0:1","Parent":"de:05111:18109:1","Name":"706 Ri. HAM","MunicipalityCode":"00000000","Municipality":"-","DistrictCode":"-","District":"-","Description":"","Authority":"VRR","DelfiName":"-","THID":"-","LastOperationDate":"","SEV":"nein","longitude":"6,75817","latitude":"51,212191","geojson_lng":6.75817,"geojson_lat":51.212191},"geometry":{"type":"Point","coordinates":[6.75817,51.212191]}},{"type":"Feature","properties":{"SeqNo":"510295","Type":"Q","DHID":"de:05111:18109:0:2","Parent":"de:05111:18109:2","Name":"706 Ri. GAP-ASB","MunicipalityCode":"00000000","Municipality":"-","DistrictCode":"-","District":"-","Description":"","Authority":"VRR","DelfiName":"-","THID":"-","LastOperationDate":"","SEV":"nein","longitude":"6,758304","latitude":"51,212146","geojson_lng":6.758304,"geojson_lat":51.212146},"geometry":{"type":"Point","coordinates":[6.758304,51.212146]}},{"type":"Feature","properties":{"SeqNo":"510317","Type":"S","DHID":"de:05111:18113","Parent":"de:05111:18113","Name":"D-Georg-Schulhoff-Platz","MunicipalityCode":"05111000","Municipality":"Düsseldorf","DistrictCode":"","District":"","Description":"","Authority":"VRR","DelfiName":"-","THID":"D913F70046C1","LastOperationDate":"2025-06-14T00:00:00","SEV":"nein","longitude":"6,760362","latitude":"51,207593","geojson_lng":6.760362,"geojson_lat":51.207593},"geometry":{"type":"Point","coordinates":[6.760362,51.207593]}},{"type":"Feature","properties":{"SeqNo":"510318","Type":"A","DHID":"de:05111:18113:1","Parent":"de:05111:18113","Name":"Strab Ri. NSH","MunicipalityCode":"00000000","Municipality":"-","DistrictCode":"-","District":"-","Description":"","Authority":"VRR","DelfiName":"-","THID":"-","LastOperationDate":"","SEV":"nein","longitude":"6,759418","latitude":"51,207441","geojson_lng":6.759418,"geojson_lat":51.207441},"geometry":{"type":"Point","coordinates":[6.759418,51.207441]}},{"type":"Feature","properties":{"SeqNo":"510319","Type":"A","DHID":"de:05111:18113:11","Parent":"de:05111:18113","Name":"für Steig 11","MunicipalityCode":"00000000","Municipality":"-","DistrictCode":"-","District":"-","Description":"","Authority":"VRR","DelfiName":"-","THID":"-","LastOperationDate":"","SEV":"nein","longitude":"6,756957","latitude":"51,207306","geojson_lng":6.756957,"geojson_lat":51.207306},"geometry":{"type":"Point","coordinates":[6.756957,51.207306]}},{"type":"Feature","properties":{"SeqNo":"510320","Type":"A","DHID":"de:05111:18113:12","Parent":"de:05111:18113","Name":"für Steig 12","MunicipalityCode":"00000000","Municipality":"-","DistrictCode":"-","District":"-","Description":"","Authority":"VRR","DelfiName":"-","THID":"-","LastOperationDate":"","SEV":"nein","longitude":"6,757523","latitude":"51,207683","geojson_lng":6.757523,"geojson_lat":51.207683},"geometry":{"type":"Point","coordinates":[6.757523,51.207683]}},{"type":"Feature","properties":{"SeqNo":"510321","Type":"A","DHID":"de:05111:18113:2","Parent":"de:05111:18113","Name":"Strab Ri. GKH","MunicipalityCode":"00000000","Municipality":"-","DistrictCode":"-","District":"-","Description":"","Authority":"VRR","DelfiName":"-","THID":"-","LastOperationDate":"","SEV":"nein","longitude":"6,759966","latitude":"51,207452","geojson_lng":6.759966,"geojson_lat":51.207452},"geometry":{"type":"Point","coordinates":[6.759966,51.207452]}},{"type":"Feature","properties":{"SeqNo":"510322","Type":"A","DHID":"de:05111:18113:3","Parent":"de:05111:18113","Name":"Bus Ri. VOL+HRG","MunicipalityCode":"00000000","Municipality":"-","DistrictCode":"-","District":"-","Description":"","Authority":"VRR","DelfiName":"-","THID":"-","LastOperationDate":"","SEV":"nein","longitude":"6,760802","latitude":"51,207469","geojson_lng":6.760802,"geojson_lat":51.207469},"geometry":{"type":"Point","coordinates":[6.760802,51.207469]}},{"type":"Feature","properties":{"SeqNo":"510323","Type":"A","DHID":"de:05111:18113:4","Parent":"de:05111:18113","Name":"Bus Ri. Maxplatz","MunicipalityCode":"00000000","Municipality":"-","DistrictCode":"-","District":"-","Description":"","Authority":"VRR","DelfiName":"-","THID":"-","LastOperationDate":"","SEV":"nein","longitude":"6,760658","latitude":"51,207689","geojson_lng":6.760658,"geojson_lat":51.207689},"geometry":{"type":"Point","coordinates":[6.760658,51.207689]}},{"type":"Feature","properties":{"SeqNo":"510324","Type":"A","DHID":"de:05111:18113:5","Parent":"de:05111:18113","Name":"Bus Ri. Eller","MunicipalityCode":"00000000","Municipality":"-","DistrictCode":"-","District":"-","Description":"","Authority":"VRR","DelfiName":"-","THID":"-","LastOperationDate":"","SEV":"nein","longitude":"6,759463","latitude":"51,207537","geojson_lng":6.759463,"geojson_lat":51.207537},"geometry":{"type":"Point","coordinates":[6.759463,51.207537]}},{"type":"Feature","properties":{"SeqNo":"510325","Type":"A","DHID":"de:05111:18113:6","Parent":"de:05111:18113","Name":"Ri. Benrath","MunicipalityCode":"00000000","Municipality":"-","DistrictCode":"-","District":"-","Description":"","Authority":"VRR","DelfiName":"-","THID":"-","LastOperationDate":"","SEV":"nein","longitude":"6,759391","latitude":"51,207272","geojson_lng":6.759391,"geojson_lat":51.207272},"geometry":{"type":"Point","coordinates":[6.759391,51.207272]}},{"type":"Feature","properties":{"SeqNo":"510326","Type":"Q","DHID":"de:05111:18113:0:1","Parent":"de:05111:18113:1","Name":"Ri. NSH","MunicipalityCode":"00000000","Municipality":"-","DistrictCode":"-","District":"-","Description":"","Authority":"VRR","DelfiName":"-","THID":"-","LastOperationDate":"","SEV":"nein","longitude":"6,759427","latitude":"51,207424","geojson_lng":6.759427,"geojson_lat":51.207424},"geometry":{"type":"Point","coordinates":[6.759427,51.207424]}},{"type":"Feature","properties":{"SeqNo":"510327","Type":"Q","DHID":"de:05111:18113:11:11","Parent":"de:05111:18113:1","Name":"SEV Ri. NSH Strab","MunicipalityCode":"00000000","Municipality":"-","DistrictCode":"-","District":"-","Description":"","Authority":"VRR","DelfiName":"-","THID":"-","LastOperationDate":"","SEV":"nein","longitude":"6,756993","latitude":"51,207306","geojson_lng":6.756993,"geojson_lat":51.207306},"geometry":{"type":"Point","coordinates":[6.756993,51.207306]}},{"type":"Feature","properties":{"SeqNo":"510328","Type":"Q","DHID":"de:05111:18113:12:12","Parent":"de:05111:18113:1","Name":"SEV Ri. DHB Strab","MunicipalityCode":"00000000","Municipality":"-","DistrictCode":"-","District":"-","Description":"","Authority":"VRR","DelfiName":"-","THID":"-","LastOperationDate":"","SEV":"nein","longitude":"6,757469","latitude":"51,207694","geojson_lng":6.757469,"geojson_lat":51.207694},"geometry":{"type":"Point","coordinates":[6.757469,51.207694]}},{"type":"Feature","properties":{"SeqNo":"510329","Type":"Q","DHID":"de:05111:18113:0:2","Parent":"de:05111:18113:2","Name":"Ri. DHB","MunicipalityCode":"00000000","Municipality":"-","DistrictCode":"-","District":"-","Description":"","Authority":"VRR","DelfiName":"-","THID":"-","LastOperationDate":"","SEV":"nein","longitude":"6,759966","latitude":"51,207464","geojson_lng":6.759966,"geojson_lat":51.207464},"geometry":{"type":"Point","coordinates":[6.759966,51.207464]}},{"type":"Feature","properties":{"SeqNo":"510330","Type":"Q","DHID":"de:05111:18113:0:3","Parent":"de:05111:18113:3","Name":"726 Ri. VOL","MunicipalityCode":"00000000","Municipality":"-","DistrictCode":"-","District":"-","Description":"","Authority":"VRR","DelfiName":"-","THID":"-","LastOperationDate":"","SEV":"nein","longitude":"6,760811","latitude":"51,207503","geojson_lng":6.760811,"geojson_lat":51.207503},"geometry":{"type":"Point","coordinates":[6.760811,51.207503]}},{"type":"Feature","properties":{"SeqNo":"510331","Type":"Q","DHID":"de:05111:18113:0:4","Parent":"de:05111:18113:4","Name":"726 Ri. MAX","MunicipalityCode":"00000000","Municipality":"-","DistrictCode":"-","District":"-","Description":"","Authority":"VRR","DelfiName":"-","THID":"-","LastOperationDate":"","SEV":"nein","longitude":"6,760631","latitude":"51,207683","geojson_lng":6.760631,"geojson_lat":51.207683},"geometry":{"type":"Point","coordinates":[6.760631,51.207683]}},{"type":"Feature","properties":{"SeqNo":"510332","Type":"Q","DHID":"de:05111:18113:0:5","Parent":"de:05111:18113:5","Name":"723 Ri. Eller/SEV","MunicipalityCode":"00000000","Municipality":"-","DistrictCode":"-","District":"-","Description":"","Authority":"VRR","DelfiName":"-","THID":"-","LastOperationDate":"","SEV":"nein","longitude":"6,759463","latitude":"51,207503","geojson_lng":6.759463,"geojson_lat":51.207503},"geometry":{"type":"Point","coordinates":[6.759463,51.207503]}},{"type":"Feature","properties":{"SeqNo":"510333","Type":"Q","DHID":"de:05111:18113:0:6","Parent":"de:05111:18113:6","Name":"723 Ri. Benrath/SEV","MunicipalityCode":"00000000","Municipality":"-","DistrictCode":"-","District":"-","Description":"","Authority":"VRR","DelfiName":"-","THID":"-","LastOperationDate":"","SEV":"nein","longitude":"6,759382","latitude":"51,207295","geojson_lng":6.759382,"geojson_lat":51.207295},"geometry":{"type":"Point","coordinates":[6.759382,51.207295]}},{"type":"Feature","properties":{"SeqNo":"510349","Type":"S","DHID":"de:05111:18115","Parent":"de:05111:18115","Name":"D-Völklinger Straße S","MunicipalityCode":"05111000","Municipality":"Düsseldorf","DistrictCode":"","District":"","Description":"","Authority":"VRR","DelfiName":"-","THID":"D913F70046C3","LastOperationDate":"2025-02-28T00:00:00","SEV":"nein","longitude":"6,762221","latitude":"51,209867","geojson_lng":6.762221,"geojson_lat":51.209867},"geometry":{"type":"Point","coordinates":[6.762221,51.209867]}},{"type":"Feature","properties":{"SeqNo":"510350","Type":"A","DHID":"de:05111:18115:1","Parent":"de:05111:18115","Name":"Zugang","MunicipalityCode":"00000000","Municipality":"-","DistrictCode":"-","District":"-","Description":"","Authority":"VRR","DelfiName":"-","THID":"-","LastOperationDate":"","SEV":"nein","longitude":"6,762032","latitude":"51,209844","geojson_lng":6.762032,"geojson_lat":51.209844},"geometry":{"type":"Point","coordinates":[6.762032,51.209844]}},{"type":"Feature","properties":{"SeqNo":"510351","Type":"A","DHID":"de:05111:18115:2","Parent":"de:05111:18115","Name":"für Steig 2","MunicipalityCode":"00000000","Municipality":"-","DistrictCode":"-","District":"-","Description":"","Authority":"VRR","DelfiName":"-","THID":"-","LastOperationDate":"","SEV":"nein","longitude":"6,762041","latitude":"51,209585","geojson_lng":6.762041,"geojson_lat":51.209585},"geometry":{"type":"Point","coordinates":[6.762041,51.209585]}},{"type":"Feature","properties":{"SeqNo":"510352","Type":"A","DHID":"de:05111:18115:3","Parent":"de:05111:18115","Name":"für Steig 1","MunicipalityCode":"00000000","Municipality":"-","DistrictCode":"-","District":"-","Description":"","Authority":"VRR","DelfiName":"-","THID":"-","LastOperationDate":"","SEV":"nein","longitude":"6,76214","latitude":"51,209855","geojson_lng":6.76214,"geojson_lat":51.209855},"geometry":{"type":"Point","coordinates":[6.76214,51.209855]}},{"type":"Feature","properties":{"SeqNo":"510353","Type":"A","DHID":"de:05111:18115:89","Parent":"de:05111:18115","Name":"Schienenersatzv.","MunicipalityCode":"00000000","Municipality":"-","DistrictCode":"-","District":"-","Description":"","Authority":"VRR","DelfiName":"-","THID":"-","LastOperationDate":"","SEV":"nein","longitude":"6,762212","latitude":"51,20994","geojson_lng":6.762212,"geojson_lat":51.20994},"geometry":{"type":"Point","coordinates":[6.762212,51.20994]}},{"type":"Feature","properties":{"SeqNo":"510354","Type":"A","DHID":"de:05111:18115:90","Parent":"de:05111:18115","Name":"DB","MunicipalityCode":"00000000","Municipality":"-","DistrictCode":"-","District":"-","Description":"","Authority":"VRR","DelfiName":"-","THID":"-","LastOperationDate":"","SEV":"nein","longitude":"6,761646","latitude":"51,209906","geojson_lng":6.761646,"geojson_lat":51.209906},"geometry":{"type":"Point","coordinates":[6.761646,51.209906]}},{"type":"Feature","properties":{"SeqNo":"510355","Type":"A","DHID":"de:05111:18115:98","Parent":"de:05111:18115","Name":"S-Bahn","MunicipalityCode":"00000000","Municipality":"-","DistrictCode":"-","District":"-","Description":"","Authority":"VRR","DelfiName":"-","THID":"-","LastOperationDate":"","SEV":"nein","longitude":"6,760865","latitude":"51,210052","geojson_lng":6.760865,"geojson_lat":51.210052},"geometry":{"type":"Point","coordinates":[6.760865,51.210052]}},{"type":"Feature","properties":{"SeqNo":"510356","Type":"Q","DHID":"de:05111:18115:2:2","Parent":"de:05111:18115:2","Name":"Ri. BMS","MunicipalityCode":"00000000","Municipality":"-","DistrictCode":"-","District":"-","Description":"","Authority":"VRR","DelfiName":"-","THID":"-","LastOperationDate":"","SEV":"nein","longitude":"6,762032","latitude":"51,209591","geojson_lng":6.762032,"geojson_lat":51.209591},"geometry":{"type":"Point","coordinates":[6.762032,51.209591]}},{"type":"Feature","properties":{"SeqNo":"510357","Type":"Q","DHID":"de:05111:18115:2:1","Parent":"de:05111:18115:3","Name":"709 Ri. NSH","MunicipalityCode":"00000000","Municipality":"-","DistrictCode":"-","District":"-","Description":"","Authority":"VRR","DelfiName":"-","THID":"-","LastOperationDate":"","SEV":"nein","longitude":"6,762176","latitude":"51,209844","geojson_lng":6.762176,"geojson_lat":51.209844},"geometry":{"type":"Point","coordinates":[6.762176,51.209844]}},{"type":"Feature","properties":{"SeqNo":"510358","Type":"Q","DHID":"de:05111:18115:89:SEV","Parent":"de:05111:18115:89","Name":"SEV","MunicipalityCode":"00000000","Municipality":"-","DistrictCode":"-","District":"-","Description":"","Authority":"VRR","DelfiName":"-","THID":"-","LastOperationDate":"","SEV":"nein","longitude":"6,762248","latitude":"51,209934","geojson_lng":6.762248,"geojson_lat":51.209934},"geometry":{"type":"Point","coordinates":[6.762248,51.209934]}},{"type":"Feature","properties":{"SeqNo":"510359","Type":"Q","DHID":"de:05111:18115:98:1","Parent":"de:05111:18115:98","Name":"Ri. ME","MunicipalityCode":"00000000","Municipality":"-","DistrictCode":"-","District":"-","Description":"","Authority":"VRR","DelfiName":"-","THID":"-","LastOperationDate":"","SEV":"nein","longitude":"6,761071","latitude":"51,209974","geojson_lng":6.761071,"geojson_lat":51.209974},"geometry":{"type":"Point","coordinates":[6.761071,51.209974]}},{"type":"Feature","properties":{"SeqNo":"510360","Type":"Q","DHID":"de:05111:18115:98:2","Parent":"de:05111:18115:98","Name":"Ri. Kaarst","MunicipalityCode":"00000000","Municipality":"-","DistrictCode":"-","District":"-","Description":"","Authority":"VRR","DelfiName":"-","THID":"-","LastOperationDate":"","SEV":"nein","longitude":"6,760658","latitude":"51,210131","geojson_lng":6.760658,"geojson_lat":51.210131},"geometry":{"type":"Point","coordinates":[6.760658,51.210131]}}]}