{"type":"FeatureCollection","features":[{"type":"Feature","properties":{"SeqNo":"519273","Type":"S","DHID":"de:05111:18095","Parent":"de:05111:18095","Name":"D-St.-Martinus-Krankenhaus","Latitude":"51,211966","Longitude":"6,760191","MunicipalityCode":"05111000","Municipality":"Düsseldorf","DistrictCode":"","District":"","Description":"","Authority":"VRR","DelfiName":"-","THID":"D913F70046AF","TariffProvider":"-","LastOperationDate":"2025-12-13T00:00:00","SEV":"nein","geojson_lng":6.760191,"geojson_lat":51.211966},"geometry":{"type":"Point","coordinates":[6.760191,51.211966]}},{"type":"Feature","properties":{"SeqNo":"519274","Type":"A","DHID":"de:05111:18095:1","Parent":"de:05111:18095","Name":"für Steig 1","Latitude":"51,212078","Longitude":"6,759778","MunicipalityCode":"00000000","Municipality":"-","DistrictCode":"-","District":"-","Description":"","Authority":"VRR","DelfiName":"-","THID":"-","TariffProvider":"-","LastOperationDate":"","SEV":"nein","geojson_lng":6.759778,"geojson_lat":51.212078},"geometry":{"type":"Point","coordinates":[6.759778,51.212078]}},{"type":"Feature","properties":{"SeqNo":"519275","Type":"A","DHID":"de:05111:18095:2","Parent":"de:05111:18095","Name":"für Steig 2","Latitude":"51,211853","Longitude":"6,76055","MunicipalityCode":"00000000","Municipality":"-","DistrictCode":"-","District":"-","Description":"","Authority":"VRR","DelfiName":"-","THID":"-","TariffProvider":"-","LastOperationDate":"","SEV":"nein","geojson_lng":6.76055,"geojson_lat":51.211853},"geometry":{"type":"Point","coordinates":[6.76055,51.211853]}},{"type":"Feature","properties":{"SeqNo":"519276","Type":"Q","DHID":"de:05111:18095:0:1","Parent":"de:05111:18095:1","Name":"723 Ri. Plange Mühle","Latitude":"51,212045","Longitude":"6,759769","MunicipalityCode":"00000000","Municipality":"-","DistrictCode":"-","District":"-","Description":"","Authority":"VRR","DelfiName":"-","THID":"-","TariffProvider":"-","LastOperationDate":"","SEV":"nein","geojson_lng":6.759769,"geojson_lat":51.212045},"geometry":{"type":"Point","coordinates":[6.759769,51.212045]}},{"type":"Feature","properties":{"SeqNo":"519277","Type":"Q","DHID":"de:05111:18095:0:2","Parent":"de:05111:18095:2","Name":"723 Ri. Eller","Latitude":"51,211887","Longitude":"6,760559","MunicipalityCode":"00000000","Municipality":"-","DistrictCode":"-","District":"-","Description":"","Authority":"VRR","DelfiName":"-","THID":"-","TariffProvider":"-","LastOperationDate":"","SEV":"nein","geojson_lng":6.760559,"geojson_lat":51.211887},"geometry":{"type":"Point","coordinates":[6.760559,51.211887]}},{"type":"Feature","properties":{"SeqNo":"519370","Type":"S","DHID":"de:05111:18108","Parent":"de:05111:18108","Name":"D-Bilker Kirche","Latitude":"51,211499","Longitude":"6,76311","MunicipalityCode":"05111000","Municipality":"Düsseldorf","DistrictCode":"","District":"","Description":"","Authority":"VRR","DelfiName":"-","THID":"D913F70046BC","TariffProvider":"-","LastOperationDate":"2025-12-13T00:00:00","SEV":"nein","geojson_lng":6.76311,"geojson_lat":51.211499},"geometry":{"type":"Point","coordinates":[6.76311,51.211499]}},{"type":"Feature","properties":{"SeqNo":"519371","Type":"A","DHID":"de:05111:18108:1","Parent":"de:05111:18108","Name":"für Steig 1","Latitude":"51,211409","Longitude":"6,76364","MunicipalityCode":"00000000","Municipality":"-","DistrictCode":"-","District":"-","Description":"","Authority":"VRR","DelfiName":"-","THID":"-","TariffProvider":"-","LastOperationDate":"","SEV":"nein","geojson_lng":6.76364,"geojson_lat":51.211409},"geometry":{"type":"Point","coordinates":[6.76364,51.211409]}},{"type":"Feature","properties":{"SeqNo":"519372","Type":"A","DHID":"de:05111:18108:2","Parent":"de:05111:18108","Name":"für Steig 2","Latitude":"51,211577","Longitude":"6,762796","MunicipalityCode":"00000000","Municipality":"-","DistrictCode":"-","District":"-","Description":"","Authority":"VRR","DelfiName":"-","THID":"-","TariffProvider":"-","LastOperationDate":"","SEV":"nein","geojson_lng":6.762796,"geojson_lat":51.211577},"geometry":{"type":"Point","coordinates":[6.762796,51.211577]}},{"type":"Feature","properties":{"SeqNo":"519373","Type":"A","DHID":"de:05111:18108:3","Parent":"de:05111:18108","Name":"für Steig 3","Latitude":"51,211836","Longitude":"6,763362","MunicipalityCode":"00000000","Municipality":"-","DistrictCode":"-","District":"-","Description":"","Authority":"VRR","DelfiName":"-","THID":"-","TariffProvider":"-","LastOperationDate":"","SEV":"nein","geojson_lng":6.763362,"geojson_lat":51.211836},"geometry":{"type":"Point","coordinates":[6.763362,51.211836]}},{"type":"Feature","properties":{"SeqNo":"519374","Type":"A","DHID":"de:05111:18108:4","Parent":"de:05111:18108","Name":"für Steig 4","Latitude":"51,211831","Longitude":"6,763425","MunicipalityCode":"00000000","Municipality":"-","DistrictCode":"-","District":"-","Description":"","Authority":"VRR","DelfiName":"-","THID":"-","TariffProvider":"-","LastOperationDate":"","SEV":"nein","geojson_lng":6.763425,"geojson_lat":51.211831},"geometry":{"type":"Point","coordinates":[6.763425,51.211831]}},{"type":"Feature","properties":{"SeqNo":"519375","Type":"A","DHID":"de:05111:18108:5","Parent":"de:05111:18108","Name":"für Steig 5","Latitude":"51,212061","Longitude":"6,76382","MunicipalityCode":"00000000","Municipality":"-","DistrictCode":"-","District":"-","Description":"","Authority":"VRR","DelfiName":"-","THID":"-","TariffProvider":"-","LastOperationDate":"","SEV":"nein","geojson_lng":6.76382,"geojson_lat":51.212061},"geometry":{"type":"Point","coordinates":[6.76382,51.212061]}},{"type":"Feature","properties":{"SeqNo":"519376","Type":"A","DHID":"de:05111:18108:6","Parent":"de:05111:18108","Name":"für Steig 6","Latitude":"51,21106","Longitude":"6,763065","MunicipalityCode":"00000000","Municipality":"-","DistrictCode":"-","District":"-","Description":"","Authority":"VRR","DelfiName":"-","THID":"-","TariffProvider":"-","LastOperationDate":"","SEV":"nein","geojson_lng":6.763065,"geojson_lat":51.21106},"geometry":{"type":"Point","coordinates":[6.763065,51.21106]}},{"type":"Feature","properties":{"SeqNo":"519377","Type":"Q","DHID":"de:05111:18108:1:1","Parent":"de:05111:18108:1","Name":"707 Ri. KES","Latitude":"51,21142","Longitude":"6,763622","MunicipalityCode":"00000000","Municipality":"-","DistrictCode":"-","District":"-","Description":"","Authority":"VRR","DelfiName":"-","THID":"-","TariffProvider":"-","LastOperationDate":"","SEV":"nein","geojson_lng":6.763622,"geojson_lat":51.21142},"geometry":{"type":"Point","coordinates":[6.763622,51.21142]}},{"type":"Feature","properties":{"SeqNo":"519378","Type":"Q","DHID":"de:05111:18108:2:2","Parent":"de:05111:18108:2","Name":"707 Ri. UTR","Latitude":"51,211589","Longitude":"6,762778","MunicipalityCode":"00000000","Municipality":"-","DistrictCode":"-","District":"-","Description":"","Authority":"VRR","DelfiName":"-","THID":"-","TariffProvider":"-","LastOperationDate":"","SEV":"nein","geojson_lng":6.762778,"geojson_lat":51.211589},"geometry":{"type":"Point","coordinates":[6.762778,51.211589]}},{"type":"Feature","properties":{"SeqNo":"519379","Type":"Q","DHID":"de:05111:18108:3:3","Parent":"de:05111:18108:3","Name":"709 Ri. NSH","Latitude":"51,211848","Longitude":"6,763344","MunicipalityCode":"00000000","Municipality":"-","DistrictCode":"-","District":"-","Description":"","Authority":"VRR","DelfiName":"-","THID":"-","TariffProvider":"-","LastOperationDate":"","SEV":"nein","geojson_lng":6.763344,"geojson_lat":51.211848},"geometry":{"type":"Point","coordinates":[6.763344,51.211848]}},{"type":"Feature","properties":{"SeqNo":"519380","Type":"Q","DHID":"de:05111:18108:4:4","Parent":"de:05111:18108:4","Name":"709 Ri. GKH","Latitude":"51,211842","Longitude":"6,763407","MunicipalityCode":"00000000","Municipality":"-","DistrictCode":"-","District":"-","Description":"","Authority":"VRR","DelfiName":"-","THID":"-","TariffProvider":"-","LastOperationDate":"","SEV":"nein","geojson_lng":6.763407,"geojson_lat":51.211842},"geometry":{"type":"Point","coordinates":[6.763407,51.211842]}},{"type":"Feature","properties":{"SeqNo":"519381","Type":"Q","DHID":"de:05111:18108:5:5","Parent":"de:05111:18108:5","Name":"Steig 5","Latitude":"51,212073","Longitude":"6,763802","MunicipalityCode":"00000000","Municipality":"-","DistrictCode":"-","District":"-","Description":"","Authority":"VRR","DelfiName":"-","THID":"-","TariffProvider":"-","LastOperationDate":"","SEV":"nein","geojson_lng":6.763802,"geojson_lat":51.212073},"geometry":{"type":"Point","coordinates":[6.763802,51.212073]}},{"type":"Feature","properties":{"SeqNo":"519382","Type":"Q","DHID":"de:05111:18108:6:6","Parent":"de:05111:18108:6","Name":"723 Ri. PLM","Latitude":"51,211071","Longitude":"6,763047","MunicipalityCode":"00000000","Municipality":"-","DistrictCode":"-","District":"-","Description":"","Authority":"VRR","DelfiName":"-","THID":"-","TariffProvider":"-","LastOperationDate":"","SEV":"nein","geojson_lng":6.763047,"geojson_lat":51.211071},"geometry":{"type":"Point","coordinates":[6.763047,51.211071]}},{"type":"Feature","properties":{"SeqNo":"519383","Type":"S","DHID":"de:05111:18109","Parent":"de:05111:18109","Name":"D-Wupperstraße","Latitude":"51,212168","Longitude":"6,758241","MunicipalityCode":"05111000","Municipality":"Düsseldorf","DistrictCode":"","District":"","Description":"","Authority":"VRR","DelfiName":"-","THID":"D913F70046BD","TariffProvider":"-","LastOperationDate":"2025-12-13T00:00:00","SEV":"nein","geojson_lng":6.758241,"geojson_lat":51.212168},"geometry":{"type":"Point","coordinates":[6.758241,51.212168]}},{"type":"Feature","properties":{"SeqNo":"519384","Type":"A","DHID":"de:05111:18109:1","Parent":"de:05111:18109","Name":"für Steig 1","Latitude":"51,21218","Longitude":"6,758188","MunicipalityCode":"00000000","Municipality":"-","DistrictCode":"-","District":"-","Description":"","Authority":"VRR","DelfiName":"-","THID":"-","TariffProvider":"-","LastOperationDate":"","SEV":"nein","geojson_lng":6.758188,"geojson_lat":51.21218},"geometry":{"type":"Point","coordinates":[6.758188,51.21218]}},{"type":"Feature","properties":{"SeqNo":"519385","Type":"A","DHID":"de:05111:18109:2","Parent":"de:05111:18109","Name":"für Steig 2","Latitude":"51,212135","Longitude":"6,758322","MunicipalityCode":"00000000","Municipality":"-","DistrictCode":"-","District":"-","Description":"","Authority":"VRR","DelfiName":"-","THID":"-","TariffProvider":"-","LastOperationDate":"","SEV":"nein","geojson_lng":6.758322,"geojson_lat":51.212135},"geometry":{"type":"Point","coordinates":[6.758322,51.212135]}},{"type":"Feature","properties":{"SeqNo":"519386","Type":"Q","DHID":"de:05111:18109:0:1","Parent":"de:05111:18109:1","Name":"706 Ri. HAM","Latitude":"51,212191","Longitude":"6,75817","MunicipalityCode":"00000000","Municipality":"-","DistrictCode":"-","District":"-","Description":"","Authority":"VRR","DelfiName":"-","THID":"-","TariffProvider":"-","LastOperationDate":"","SEV":"nein","geojson_lng":6.75817,"geojson_lat":51.212191},"geometry":{"type":"Point","coordinates":[6.75817,51.212191]}},{"type":"Feature","properties":{"SeqNo":"519387","Type":"Q","DHID":"de:05111:18109:0:2","Parent":"de:05111:18109:2","Name":"706 Ri. GAP-ASB","Latitude":"51,212146","Longitude":"6,758304","MunicipalityCode":"00000000","Municipality":"-","DistrictCode":"-","District":"-","Description":"","Authority":"VRR","DelfiName":"-","THID":"-","TariffProvider":"-","LastOperationDate":"","SEV":"nein","geojson_lng":6.758304,"geojson_lat":51.212146},"geometry":{"type":"Point","coordinates":[6.758304,51.212146]}},{"type":"Feature","properties":{"SeqNo":"519409","Type":"S","DHID":"de:05111:18113","Parent":"de:05111:18113","Name":"D-Georg-Schulhoff-Platz","Latitude":"51,207593","Longitude":"6,760362","MunicipalityCode":"05111000","Municipality":"Düsseldorf","DistrictCode":"","District":"","Description":"","Authority":"VRR","DelfiName":"-","THID":"D913F70046C1","TariffProvider":"-","LastOperationDate":"2025-12-13T00:00:00","SEV":"nein","geojson_lng":6.760362,"geojson_lat":51.207593},"geometry":{"type":"Point","coordinates":[6.760362,51.207593]}},{"type":"Feature","properties":{"SeqNo":"519410","Type":"A","DHID":"de:05111:18113:1","Parent":"de:05111:18113","Name":"Strab Ri. NSH","Latitude":"51,207441","Longitude":"6,759418","MunicipalityCode":"00000000","Municipality":"-","DistrictCode":"-","District":"-","Description":"","Authority":"VRR","DelfiName":"-","THID":"-","TariffProvider":"-","LastOperationDate":"","SEV":"nein","geojson_lng":6.759418,"geojson_lat":51.207441},"geometry":{"type":"Point","coordinates":[6.759418,51.207441]}},{"type":"Feature","properties":{"SeqNo":"519411","Type":"A","DHID":"de:05111:18113:11","Parent":"de:05111:18113","Name":"für Steig 11","Latitude":"51,207306","Longitude":"6,756957","MunicipalityCode":"00000000","Municipality":"-","DistrictCode":"-","District":"-","Description":"","Authority":"VRR","DelfiName":"-","THID":"-","TariffProvider":"-","LastOperationDate":"","SEV":"nein","geojson_lng":6.756957,"geojson_lat":51.207306},"geometry":{"type":"Point","coordinates":[6.756957,51.207306]}},{"type":"Feature","properties":{"SeqNo":"519412","Type":"A","DHID":"de:05111:18113:12","Parent":"de:05111:18113","Name":"für Steig 12","Latitude":"51,207683","Longitude":"6,757523","MunicipalityCode":"00000000","Municipality":"-","DistrictCode":"-","District":"-","Description":"","Authority":"VRR","DelfiName":"-","THID":"-","TariffProvider":"-","LastOperationDate":"","SEV":"nein","geojson_lng":6.757523,"geojson_lat":51.207683},"geometry":{"type":"Point","coordinates":[6.757523,51.207683]}},{"type":"Feature","properties":{"SeqNo":"519413","Type":"A","DHID":"de:05111:18113:2","Parent":"de:05111:18113","Name":"Strab Ri. GKH","Latitude":"51,207452","Longitude":"6,759966","MunicipalityCode":"00000000","Municipality":"-","DistrictCode":"-","District":"-","Description":"","Authority":"VRR","DelfiName":"-","THID":"-","TariffProvider":"-","LastOperationDate":"","SEV":"nein","geojson_lng":6.759966,"geojson_lat":51.207452},"geometry":{"type":"Point","coordinates":[6.759966,51.207452]}},{"type":"Feature","properties":{"SeqNo":"519414","Type":"A","DHID":"de:05111:18113:3","Parent":"de:05111:18113","Name":"Bus Ri. VOL+HRG","Latitude":"51,207469","Longitude":"6,760802","MunicipalityCode":"00000000","Municipality":"-","DistrictCode":"-","District":"-","Description":"","Authority":"VRR","DelfiName":"-","THID":"-","TariffProvider":"-","LastOperationDate":"","SEV":"nein","geojson_lng":6.760802,"geojson_lat":51.207469},"geometry":{"type":"Point","coordinates":[6.760802,51.207469]}},{"type":"Feature","properties":{"SeqNo":"519415","Type":"A","DHID":"de:05111:18113:4","Parent":"de:05111:18113","Name":"Bus Ri. Maxplatz","Latitude":"51,207689","Longitude":"6,760658","MunicipalityCode":"00000000","Municipality":"-","DistrictCode":"-","District":"-","Description":"","Authority":"VRR","DelfiName":"-","THID":"-","TariffProvider":"-","LastOperationDate":"","SEV":"nein","geojson_lng":6.760658,"geojson_lat":51.207689},"geometry":{"type":"Point","coordinates":[6.760658,51.207689]}},{"type":"Feature","properties":{"SeqNo":"519416","Type":"A","DHID":"de:05111:18113:5","Parent":"de:05111:18113","Name":"Bus Ri. Eller","Latitude":"51,207537","Longitude":"6,759463","MunicipalityCode":"00000000","Municipality":"-","DistrictCode":"-","District":"-","Description":"","Authority":"VRR","DelfiName":"-","THID":"-","TariffProvider":"-","LastOperationDate":"","SEV":"nein","geojson_lng":6.759463,"geojson_lat":51.207537},"geometry":{"type":"Point","coordinates":[6.759463,51.207537]}},{"type":"Feature","properties":{"SeqNo":"519417","Type":"A","DHID":"de:05111:18113:6","Parent":"de:05111:18113","Name":"Ri. Benrath","Latitude":"51,207272","Longitude":"6,759391","MunicipalityCode":"00000000","Municipality":"-","DistrictCode":"-","District":"-","Description":"","Authority":"VRR","DelfiName":"-","THID":"-","TariffProvider":"-","LastOperationDate":"","SEV":"nein","geojson_lng":6.759391,"geojson_lat":51.207272},"geometry":{"type":"Point","coordinates":[6.759391,51.207272]}},{"type":"Feature","properties":{"SeqNo":"519418","Type":"Q","DHID":"de:05111:18113:0:1","Parent":"de:05111:18113:1","Name":"Ri. NSH","Latitude":"51,207424","Longitude":"6,759427","MunicipalityCode":"00000000","Municipality":"-","DistrictCode":"-","District":"-","Description":"","Authority":"VRR","DelfiName":"-","THID":"-","TariffProvider":"-","LastOperationDate":"","SEV":"nein","geojson_lng":6.759427,"geojson_lat":51.207424},"geometry":{"type":"Point","coordinates":[6.759427,51.207424]}},{"type":"Feature","properties":{"SeqNo":"519419","Type":"Q","DHID":"de:05111:18113:11:11","Parent":"de:05111:18113:1","Name":"SEV Ri. NSH Strab","Latitude":"51,207306","Longitude":"6,756993","MunicipalityCode":"00000000","Municipality":"-","DistrictCode":"-","District":"-","Description":"","Authority":"VRR","DelfiName":"-","THID":"-","TariffProvider":"-","LastOperationDate":"","SEV":"nein","geojson_lng":6.756993,"geojson_lat":51.207306},"geometry":{"type":"Point","coordinates":[6.756993,51.207306]}},{"type":"Feature","properties":{"SeqNo":"519420","Type":"Q","DHID":"de:05111:18113:12:12","Parent":"de:05111:18113:1","Name":"SEV Ri. DHB Strab","Latitude":"51,207694","Longitude":"6,757469","MunicipalityCode":"00000000","Municipality":"-","DistrictCode":"-","District":"-","Description":"","Authority":"VRR","DelfiName":"-","THID":"-","TariffProvider":"-","LastOperationDate":"","SEV":"nein","geojson_lng":6.757469,"geojson_lat":51.207694},"geometry":{"type":"Point","coordinates":[6.757469,51.207694]}},{"type":"Feature","properties":{"SeqNo":"519421","Type":"Q","DHID":"de:05111:18113:0:2","Parent":"de:05111:18113:2","Name":"Ri. DHB","Latitude":"51,207464","Longitude":"6,759966","MunicipalityCode":"00000000","Municipality":"-","DistrictCode":"-","District":"-","Description":"","Authority":"VRR","DelfiName":"-","THID":"-","TariffProvider":"-","LastOperationDate":"","SEV":"nein","geojson_lng":6.759966,"geojson_lat":51.207464},"geometry":{"type":"Point","coordinates":[6.759966,51.207464]}},{"type":"Feature","properties":{"SeqNo":"519422","Type":"Q","DHID":"de:05111:18113:0:3","Parent":"de:05111:18113:3","Name":"726 Ri. VOL","Latitude":"51,207503","Longitude":"6,760811","MunicipalityCode":"00000000","Municipality":"-","DistrictCode":"-","District":"-","Description":"","Authority":"VRR","DelfiName":"-","THID":"-","TariffProvider":"-","LastOperationDate":"","SEV":"nein","geojson_lng":6.760811,"geojson_lat":51.207503},"geometry":{"type":"Point","coordinates":[6.760811,51.207503]}},{"type":"Feature","properties":{"SeqNo":"519423","Type":"Q","DHID":"de:05111:18113:0:4","Parent":"de:05111:18113:4","Name":"726 Ri. MAX","Latitude":"51,207683","Longitude":"6,760631","MunicipalityCode":"00000000","Municipality":"-","DistrictCode":"-","District":"-","Description":"","Authority":"VRR","DelfiName":"-","THID":"-","TariffProvider":"-","LastOperationDate":"","SEV":"nein","geojson_lng":6.760631,"geojson_lat":51.207683},"geometry":{"type":"Point","coordinates":[6.760631,51.207683]}},{"type":"Feature","properties":{"SeqNo":"519424","Type":"Q","DHID":"de:05111:18113:0:5","Parent":"de:05111:18113:5","Name":"723 Ri. Eller/SEV","Latitude":"51,207503","Longitude":"6,759463","MunicipalityCode":"00000000","Municipality":"-","DistrictCode":"-","District":"-","Description":"","Authority":"VRR","DelfiName":"-","THID":"-","TariffProvider":"-","LastOperationDate":"","SEV":"nein","geojson_lng":6.759463,"geojson_lat":51.207503},"geometry":{"type":"Point","coordinates":[6.759463,51.207503]}},{"type":"Feature","properties":{"SeqNo":"519425","Type":"Q","DHID":"de:05111:18113:0:6","Parent":"de:05111:18113:6","Name":"723 Ri. Benrath/SEV","Latitude":"51,207295","Longitude":"6,759382","MunicipalityCode":"00000000","Municipality":"-","DistrictCode":"-","District":"-","Description":"","Authority":"VRR","DelfiName":"-","THID":"-","TariffProvider":"-","LastOperationDate":"","SEV":"nein","geojson_lng":6.759382,"geojson_lat":51.207295},"geometry":{"type":"Point","coordinates":[6.759382,51.207295]}},{"type":"Feature","properties":{"SeqNo":"519443","Type":"S","DHID":"de:05111:18115","Parent":"de:05111:18115","Name":"D-Völklinger Straße S","Latitude":"51,209867","Longitude":"6,762221","MunicipalityCode":"05111000","Municipality":"Düsseldorf","DistrictCode":"","District":"","Description":"","Authority":"VRR","DelfiName":"-","THID":"D913F70046C3","TariffProvider":"-","LastOperationDate":"2025-12-13T00:00:00","SEV":"nein","geojson_lng":6.762221,"geojson_lat":51.209867},"geometry":{"type":"Point","coordinates":[6.762221,51.209867]}},{"type":"Feature","properties":{"SeqNo":"519444","Type":"A","DHID":"de:05111:18115:1","Parent":"de:05111:18115","Name":"Zugang","Latitude":"51,209844","Longitude":"6,762032","MunicipalityCode":"00000000","Municipality":"-","DistrictCode":"-","District":"-","Description":"","Authority":"VRR","DelfiName":"-","THID":"-","TariffProvider":"-","LastOperationDate":"","SEV":"nein","geojson_lng":6.762032,"geojson_lat":51.209844},"geometry":{"type":"Point","coordinates":[6.762032,51.209844]}},{"type":"Feature","properties":{"SeqNo":"519445","Type":"A","DHID":"de:05111:18115:2","Parent":"de:05111:18115","Name":"für Steig 2","Latitude":"51,209585","Longitude":"6,762041","MunicipalityCode":"00000000","Municipality":"-","DistrictCode":"-","District":"-","Description":"","Authority":"VRR","DelfiName":"-","THID":"-","TariffProvider":"-","LastOperationDate":"","SEV":"nein","geojson_lng":6.762041,"geojson_lat":51.209585},"geometry":{"type":"Point","coordinates":[6.762041,51.209585]}},{"type":"Feature","properties":{"SeqNo":"519446","Type":"A","DHID":"de:05111:18115:3","Parent":"de:05111:18115","Name":"für Steig 1","Latitude":"51,209855","Longitude":"6,76214","MunicipalityCode":"00000000","Municipality":"-","DistrictCode":"-","District":"-","Description":"","Authority":"VRR","DelfiName":"-","THID":"-","TariffProvider":"-","LastOperationDate":"","SEV":"nein","geojson_lng":6.76214,"geojson_lat":51.209855},"geometry":{"type":"Point","coordinates":[6.76214,51.209855]}},{"type":"Feature","properties":{"SeqNo":"519447","Type":"A","DHID":"de:05111:18115:89","Parent":"de:05111:18115","Name":"Schienenersatzv.","Latitude":"51,20994","Longitude":"6,762212","MunicipalityCode":"00000000","Municipality":"-","DistrictCode":"-","District":"-","Description":"","Authority":"VRR","DelfiName":"-","THID":"-","TariffProvider":"-","LastOperationDate":"","SEV":"nein","geojson_lng":6.762212,"geojson_lat":51.20994},"geometry":{"type":"Point","coordinates":[6.762212,51.20994]}},{"type":"Feature","properties":{"SeqNo":"519448","Type":"A","DHID":"de:05111:18115:90","Parent":"de:05111:18115","Name":"DB","Latitude":"51,209906","Longitude":"6,761646","MunicipalityCode":"00000000","Municipality":"-","DistrictCode":"-","District":"-","Description":"","Authority":"VRR","DelfiName":"-","THID":"-","TariffProvider":"-","LastOperationDate":"","SEV":"nein","geojson_lng":6.761646,"geojson_lat":51.209906},"geometry":{"type":"Point","coordinates":[6.761646,51.209906]}},{"type":"Feature","properties":{"SeqNo":"519449","Type":"A","DHID":"de:05111:18115:98","Parent":"de:05111:18115","Name":"S-Bahn","Latitude":"51,210052","Longitude":"6,760865","MunicipalityCode":"00000000","Municipality":"-","DistrictCode":"-","District":"-","Description":"","Authority":"VRR","DelfiName":"-","THID":"-","TariffProvider":"-","LastOperationDate":"","SEV":"nein","geojson_lng":6.760865,"geojson_lat":51.210052},"geometry":{"type":"Point","coordinates":[6.760865,51.210052]}},{"type":"Feature","properties":{"SeqNo":"519450","Type":"Q","DHID":"de:05111:18115:2:2","Parent":"de:05111:18115:2","Name":"Ri. BMS","Latitude":"51,209591","Longitude":"6,762032","MunicipalityCode":"00000000","Municipality":"-","DistrictCode":"-","District":"-","Description":"","Authority":"VRR","DelfiName":"-","THID":"-","TariffProvider":"-","LastOperationDate":"","SEV":"nein","geojson_lng":6.762032,"geojson_lat":51.209591},"geometry":{"type":"Point","coordinates":[6.762032,51.209591]}},{"type":"Feature","properties":{"SeqNo":"519451","Type":"Q","DHID":"de:05111:18115:2:1","Parent":"de:05111:18115:3","Name":"709 Ri. NSH","Latitude":"51,209844","Longitude":"6,762176","MunicipalityCode":"00000000","Municipality":"-","DistrictCode":"-","District":"-","Description":"","Authority":"VRR","DelfiName":"-","THID":"-","TariffProvider":"-","LastOperationDate":"","SEV":"nein","geojson_lng":6.762176,"geojson_lat":51.209844},"geometry":{"type":"Point","coordinates":[6.762176,51.209844]}},{"type":"Feature","properties":{"SeqNo":"519452","Type":"Q","DHID":"de:05111:18115:89:SEV","Parent":"de:05111:18115:89","Name":"SEV","Latitude":"51,209934","Longitude":"6,762248","MunicipalityCode":"00000000","Municipality":"-","DistrictCode":"-","District":"-","Description":"","Authority":"VRR","DelfiName":"-","THID":"-","TariffProvider":"-","LastOperationDate":"","SEV":"nein","geojson_lng":6.762248,"geojson_lat":51.209934},"geometry":{"type":"Point","coordinates":[6.762248,51.209934]}},{"type":"Feature","properties":{"SeqNo":"519453","Type":"Q","DHID":"de:05111:18115:98:1","Parent":"de:05111:18115:98","Name":"Ri. ME","Latitude":"51,209974","Longitude":"6,761071","MunicipalityCode":"00000000","Municipality":"-","DistrictCode":"-","District":"-","Description":"","Authority":"VRR","DelfiName":"-","THID":"-","TariffProvider":"-","LastOperationDate":"","SEV":"nein","geojson_lng":6.761071,"geojson_lat":51.209974},"geometry":{"type":"Point","coordinates":[6.761071,51.209974]}},{"type":"Feature","properties":{"SeqNo":"519454","Type":"Q","DHID":"de:05111:18115:98:2","Parent":"de:05111:18115:98","Name":"Ri. Kaarst","Latitude":"51,210131","Longitude":"6,760658","MunicipalityCode":"00000000","Municipality":"-","DistrictCode":"-","District":"-","Description":"","Authority":"VRR","DelfiName":"-","THID":"-","TariffProvider":"-","LastOperationDate":"","SEV":"nein","geojson_lng":6.760658,"geojson_lat":51.210131},"geometry":{"type":"Point","coordinates":[6.760658,51.210131]}}]}