{"type":"FeatureCollection","features":[{"type":"Feature","properties":{"SeqNo":"5088","Type":"S","DHID":"de:08115:3194","Parent":"de:08115:3194","Name":"Renningen Keltenstraße","MunicipalityCode":"08115041","Municipality":"Renningen","DistrictCode":"","District":"","Description":"","Authority":"NVBW","DelfiName":"-","THID":"D91FB3000C7A","LastOperationDate":"2025-02-28T00:00:00","SEV":"nein","longitude":"8,937761","latitude":"48,775483","geojson_lng":8.937761,"geojson_lat":48.775483},"geometry":{"type":"Point","coordinates":[8.937761,48.775483]}},{"type":"Feature","properties":{"SeqNo":"5089","Type":"Q","DHID":"de:08115:3194:0:3","Parent":"de:08115:3194","Name":"eRtg Renningen","MunicipalityCode":"00000000","Municipality":"-","DistrictCode":"-","District":"-","Description":"","Authority":"NVBW","DelfiName":"-","THID":"-","LastOperationDate":"","SEV":"nein","longitude":"8,942917","latitude":"48,775637","geojson_lng":8.942917,"geojson_lat":48.775637},"geometry":{"type":"Point","coordinates":[8.942917,48.775637]}},{"type":"Feature","properties":{"SeqNo":"5090","Type":"Q","DHID":"de:08115:3194:0:4","Parent":"de:08115:3194","Name":"eRtg Alemannenstraße","MunicipalityCode":"00000000","Municipality":"-","DistrictCode":"-","District":"-","Description":"","Authority":"NVBW","DelfiName":"-","THID":"-","LastOperationDate":"","SEV":"nein","longitude":"8,942917","latitude":"48,775637","geojson_lng":8.942917,"geojson_lat":48.775637},"geometry":{"type":"Point","coordinates":[8.942917,48.775637]}},{"type":"Feature","properties":{"SeqNo":"5091","Type":"Q","DHID":"de:08115:3194:0:5","Parent":"de:08115:3194","Name":"Rtg Industriestr.","MunicipalityCode":"00000000","Municipality":"-","DistrictCode":"-","District":"-","Description":"","Authority":"NVBW","DelfiName":"-","THID":"-","LastOperationDate":"","SEV":"nein","longitude":"8,937797","latitude":"48,775506","geojson_lng":8.937797,"geojson_lat":48.775506},"geometry":{"type":"Point","coordinates":[8.937797,48.775506]}},{"type":"Feature","properties":{"SeqNo":"5092","Type":"Q","DHID":"de:08115:3194:0:6","Parent":"de:08115:3194","Name":"Rtg Hummelbaum","MunicipalityCode":"00000000","Municipality":"-","DistrictCode":"-","District":"-","Description":"","Authority":"NVBW","DelfiName":"-","THID":"-","LastOperationDate":"","SEV":"nein","longitude":"8,937734","latitude":"48,7755","geojson_lng":8.937734,"geojson_lat":48.7755},"geometry":{"type":"Point","coordinates":[8.937734,48.7755]}},{"type":"Feature","properties":{"SeqNo":"5385","Type":"S","DHID":"de:08115:3320","Parent":"de:08115:3320","Name":"Renningen Hummelbaum","MunicipalityCode":"08115041","Municipality":"Renningen","DistrictCode":"","District":"","Description":"","Authority":"NVBW","DelfiName":"-","THID":"D91FB3000CF8","LastOperationDate":"2025-02-28T00:00:00","SEV":"nein","longitude":"8,939064","latitude":"48,771469","geojson_lng":8.939064,"geojson_lat":48.771469},"geometry":{"type":"Point","coordinates":[8.939064,48.771469]}},{"type":"Feature","properties":{"SeqNo":"5386","Type":"Q","DHID":"de:08115:3320:0:3","Parent":"de:08115:3320","Name":"eRtg Keltenstraße","MunicipalityCode":"00000000","Municipality":"-","DistrictCode":"-","District":"-","Description":"eRtg Keltenstraße","Authority":"NVBW","DelfiName":"-","THID":"-","LastOperationDate":"","SEV":"nein","longitude":"8,940941","latitude":"48,771149","geojson_lng":8.940941,"geojson_lat":48.771149},"geometry":{"type":"Point","coordinates":[8.940941,48.771149]}},{"type":"Feature","properties":{"SeqNo":"5387","Type":"Q","DHID":"de:08115:3320:0:4","Parent":"de:08115:3320","Name":"eRtg Renningen","MunicipalityCode":"00000000","Municipality":"-","DistrictCode":"-","District":"-","Description":"eRtg Renningen","Authority":"NVBW","DelfiName":"-","THID":"-","LastOperationDate":"","SEV":"nein","longitude":"8,940941","latitude":"48,771149","geojson_lng":8.940941,"geojson_lat":48.771149},"geometry":{"type":"Point","coordinates":[8.940941,48.771149]}},{"type":"Feature","properties":{"SeqNo":"5388","Type":"Q","DHID":"de:08115:3320:0:5","Parent":"de:08115:3320","Name":"Rtg Keltenstr.","MunicipalityCode":"00000000","Municipality":"-","DistrictCode":"-","District":"-","Description":"","Authority":"NVBW","DelfiName":"-","THID":"-","LastOperationDate":"","SEV":"nein","longitude":"8,939126","latitude":"48,771552","geojson_lng":8.939126,"geojson_lat":48.771552},"geometry":{"type":"Point","coordinates":[8.939126,48.771552]}},{"type":"Feature","properties":{"SeqNo":"5389","Type":"Q","DHID":"de:08115:3320:0:6","Parent":"de:08115:3320","Name":"Rtg E.-Bauer-Platz","MunicipalityCode":"00000000","Municipality":"-","DistrictCode":"-","District":"-","Description":"","Authority":"NVBW","DelfiName":"-","THID":"-","LastOperationDate":"","SEV":"nein","longitude":"8,938983","latitude":"48,771451","geojson_lng":8.938983,"geojson_lat":48.771451},"geometry":{"type":"Point","coordinates":[8.938983,48.771451]}},{"type":"Feature","properties":{"SeqNo":"7225","Type":"S","DHID":"de:08115:7302","Parent":"de:08115:7302","Name":"Renningen","MunicipalityCode":"08115041","Municipality":"Renningen","DistrictCode":"","District":"","Description":"","Authority":"NVBW","DelfiName":"-","THID":"D91FB3001C86","LastOperationDate":"2025-02-28T00:00:00","SEV":"nein","longitude":"8,93265","latitude":"48,775157","geojson_lng":8.93265,"geojson_lat":48.775157},"geometry":{"type":"Point","coordinates":[8.93265,48.775157]}},{"type":"Feature","properties":{"SeqNo":"7226","Type":"A","DHID":"de:08115:7302:1","Parent":"de:08115:7302","Name":"Gl. 1 S-B. Rtg Stg","MunicipalityCode":"00000000","Municipality":"-","DistrictCode":"-","District":"-","Description":"","Authority":"NVBW","DelfiName":"-","THID":"-","LastOperationDate":"","SEV":"nein","longitude":"8,932668","latitude":"48,775062","geojson_lng":8.932668,"geojson_lat":48.775062},"geometry":{"type":"Point","coordinates":[8.932668,48.775062]}},{"type":"Feature","properties":{"SeqNo":"7227","Type":"A","DHID":"de:08115:7302:2","Parent":"de:08115:7302","Name":"Gl. 2&3 S-Bahn","MunicipalityCode":"00000000","Municipality":"-","DistrictCode":"-","District":"-","Description":"","Authority":"NVBW","DelfiName":"-","THID":"-","LastOperationDate":"","SEV":"nein","longitude":"8,93265","latitude":"48,775175","geojson_lng":8.93265,"geojson_lat":48.775175},"geometry":{"type":"Point","coordinates":[8.93265,48.775175]}},{"type":"Feature","properties":{"SeqNo":"7228","Type":"A","DHID":"de:08115:7302:3","Parent":"de:08115:7302","Name":"Bus","MunicipalityCode":"00000000","Municipality":"-","DistrictCode":"-","District":"-","Description":"Bus","Authority":"NVBW","DelfiName":"-","THID":"-","LastOperationDate":"","SEV":"nein","longitude":"8,932191","latitude":"48,774725","geojson_lng":8.932191,"geojson_lat":48.774725},"geometry":{"type":"Point","coordinates":[8.932191,48.774725]}},{"type":"Feature","properties":{"SeqNo":"7229","Type":"A","DHID":"de:08115:7302:80","Parent":"de:08115:7302","Name":"Unterführung BfGeb.","MunicipalityCode":"00000000","Municipality":"-","DistrictCode":"-","District":"-","Description":"","Authority":"NVBW","DelfiName":"-","THID":"-","LastOperationDate":"","SEV":"nein","longitude":"8,932668","latitude":"48,77511","geojson_lng":8.932668,"geojson_lat":48.77511},"geometry":{"type":"Point","coordinates":[8.932668,48.77511]}},{"type":"Feature","properties":{"SeqNo":"7233","Type":"A","DHID":"de:08115:7302:92","Parent":"de:08115:7302","Name":"Zug. Unterf.","MunicipalityCode":"00000000","Municipality":"-","DistrictCode":"-","District":"-","Description":"","Authority":"NVBW","DelfiName":"-","THID":"-","LastOperationDate":"","SEV":"nein","longitude":"8,93238","latitude":"48,775477","geojson_lng":8.93238,"geojson_lat":48.775477},"geometry":{"type":"Point","coordinates":[8.93238,48.775477]}},{"type":"Feature","properties":{"SeqNo":"7235","Type":"A","DHID":"de:08115:7302:94","Parent":"de:08115:7302","Name":"Zug. Relaisgeb.","MunicipalityCode":"00000000","Municipality":"-","DistrictCode":"-","District":"-","Description":"","Authority":"NVBW","DelfiName":"-","THID":"-","LastOperationDate":"","SEV":"nein","longitude":"8,931805","latitude":"48,774743","geojson_lng":8.931805,"geojson_lat":48.774743},"geometry":{"type":"Point","coordinates":[8.931805,48.774743]}},{"type":"Feature","properties":{"SeqNo":"7236","Type":"A","DHID":"de:08115:7302:95","Parent":"de:08115:7302","Name":"Zug. Relais./BfGb.","MunicipalityCode":"00000000","Municipality":"-","DistrictCode":"-","District":"-","Description":"","Authority":"NVBW","DelfiName":"-","THID":"-","LastOperationDate":"","SEV":"nein","longitude":"8,932308","latitude":"48,774784","geojson_lng":8.932308,"geojson_lat":48.774784},"geometry":{"type":"Point","coordinates":[8.932308,48.774784]}},{"type":"Feature","properties":{"SeqNo":"7237","Type":"A","DHID":"de:08115:7302:96","Parent":"de:08115:7302","Name":"Zug. Kiosk","MunicipalityCode":"00000000","Municipality":"-","DistrictCode":"-","District":"-","Description":"","Authority":"NVBW","DelfiName":"-","THID":"-","LastOperationDate":"","SEV":"nein","longitude":"8,932748","latitude":"48,774849","geojson_lng":8.932748,"geojson_lat":48.774849},"geometry":{"type":"Point","coordinates":[8.932748,48.774849]}},{"type":"Feature","properties":{"SeqNo":"7238","Type":"Q","DHID":"de:08115:7302:1:1","Parent":"de:08115:7302:1","Name":"Gleis 1","MunicipalityCode":"00000000","Municipality":"-","DistrictCode":"-","District":"-","Description":"","Authority":"NVBW","DelfiName":"-","THID":"-","LastOperationDate":"","SEV":"nein","longitude":"8,932668","latitude":"48,775104","geojson_lng":8.932668,"geojson_lat":48.775104},"geometry":{"type":"Point","coordinates":[8.932668,48.775104]}},{"type":"Feature","properties":{"SeqNo":"7239","Type":"Q","DHID":"de:08115:7302:1:2","Parent":"de:08115:7302:2","Name":"Gleis 2","MunicipalityCode":"00000000","Municipality":"-","DistrictCode":"-","District":"-","Description":"","Authority":"NVBW","DelfiName":"-","THID":"-","LastOperationDate":"","SEV":"nein","longitude":"8,932668","latitude":"48,775139","geojson_lng":8.932668,"geojson_lat":48.775139},"geometry":{"type":"Point","coordinates":[8.932668,48.775139]}},{"type":"Feature","properties":{"SeqNo":"7240","Type":"Q","DHID":"de:08115:7302:1:3","Parent":"de:08115:7302:2","Name":"Gleis 3","MunicipalityCode":"00000000","Municipality":"-","DistrictCode":"-","District":"-","Description":"","Authority":"NVBW","DelfiName":"-","THID":"-","LastOperationDate":"","SEV":"nein","longitude":"8,932641","latitude":"48,775228","geojson_lng":8.932641,"geojson_lat":48.775228},"geometry":{"type":"Point","coordinates":[8.932641,48.775228]}},{"type":"Feature","properties":{"SeqNo":"7241","Type":"Q","DHID":"de:08115:7302:2:3","Parent":"de:08115:7302:3","Name":"Rtg alle Richtungen","MunicipalityCode":"00000000","Municipality":"-","DistrictCode":"-","District":"-","Description":"Rtg alle Richtungen","Authority":"NVBW","DelfiName":"-","THID":"-","LastOperationDate":"","SEV":"nein","longitude":"8,932191","latitude":"48,774725","geojson_lng":8.932191,"geojson_lat":48.774725},"geometry":{"type":"Point","coordinates":[8.932191,48.774725]}},{"type":"Feature","properties":{"SeqNo":"7242","Type":"Q","DHID":"de:08115:7302:2:4","Parent":"de:08115:7302:3","Name":"Ankunft","MunicipalityCode":"00000000","Municipality":"-","DistrictCode":"-","District":"-","Description":"Ankunft","Authority":"NVBW","DelfiName":"-","THID":"-","LastOperationDate":"","SEV":"nein","longitude":"8,932191","latitude":"48,774725","geojson_lng":8.932191,"geojson_lat":48.774725},"geometry":{"type":"Point","coordinates":[8.932191,48.774725]}}]}