{"type":"FeatureCollection","features":[{"type":"Feature","properties":{"SeqNo":"851030","Type":"S","DHID":"de:14626:8644","Parent":"de:14626:8644","Name":"Kodersdorf Gasthaus Anders","MunicipalityCode":"14626230","Municipality":"Kodersdorf","DistrictCode":"","District":"","Description":"","Authority":"VVO","DelfiName":"-","THID":"D939220021C4","LastOperationDate":"2025-06-14T00:00:00","SEV":"nein","longitude":"14,888776","latitude":"51,243395","geojson_lng":14.888776,"geojson_lat":51.243395},"geometry":{"type":"Point","coordinates":[14.888776,51.243395]}},{"type":"Feature","properties":{"SeqNo":"851031","Type":"Q","DHID":"de:14626:8644:0:1","Parent":"de:14626:8644","Name":"1 - Ri. Görlitz","MunicipalityCode":"00000000","Municipality":"-","DistrictCode":"-","District":"-","Description":"","Authority":"VVO","DelfiName":"-","THID":"-","LastOperationDate":"","SEV":"nein","longitude":"14,888731","latitude":"51,243429","geojson_lng":14.888731,"geojson_lat":51.243429},"geometry":{"type":"Point","coordinates":[14.888731,51.243429]}},{"type":"Feature","properties":{"SeqNo":"851032","Type":"Q","DHID":"de:14626:8644:0:2","Parent":"de:14626:8644","Name":"2 - Ri. Niesky","MunicipalityCode":"00000000","Municipality":"-","DistrictCode":"-","District":"-","Description":"","Authority":"VVO","DelfiName":"-","THID":"-","LastOperationDate":"","SEV":"nein","longitude":"14,88883","latitude":"51,243362","geojson_lng":14.88883,"geojson_lat":51.243362},"geometry":{"type":"Point","coordinates":[14.88883,51.243362]}},{"type":"Feature","properties":{"SeqNo":"851042","Type":"S","DHID":"de:14626:8646","Parent":"de:14626:8646","Name":"Kodersdorf Wendeschleife","MunicipalityCode":"14626230","Municipality":"Kodersdorf","DistrictCode":"","District":"","Description":"","Authority":"VVO","DelfiName":"-","THID":"D939220021C6","LastOperationDate":"2025-06-13T00:00:00","SEV":"nein","longitude":"14,8891","latitude":"51,243963","geojson_lng":14.8891,"geojson_lat":51.243963},"geometry":{"type":"Point","coordinates":[14.8891,51.243963]}},{"type":"Feature","properties":{"SeqNo":"851043","Type":"Q","DHID":"de:14626:8646:0:1","Parent":"de:14626:8646","Name":"1 - Ri. Görlitz","MunicipalityCode":"00000000","Municipality":"-","DistrictCode":"-","District":"-","Description":"","Authority":"VVO","DelfiName":"-","THID":"-","LastOperationDate":"","SEV":"nein","longitude":"14,889145","latitude":"51,243997","geojson_lng":14.889145,"geojson_lat":51.243997},"geometry":{"type":"Point","coordinates":[14.889145,51.243997]}},{"type":"Feature","properties":{"SeqNo":"851044","Type":"Q","DHID":"de:14626:8646:0:2","Parent":"de:14626:8646","Name":"2 - Ri. Niesky","MunicipalityCode":"00000000","Municipality":"-","DistrictCode":"-","District":"-","Description":"","Authority":"VVO","DelfiName":"-","THID":"-","LastOperationDate":"","SEV":"nein","longitude":"14,889136","latitude":"51,24393","geojson_lng":14.889136,"geojson_lat":51.24393},"geometry":{"type":"Point","coordinates":[14.889136,51.24393]}}]}