{"type":"FeatureCollection","features":[{"type":"Feature","properties":{"SeqNo":"587586","Type":"S","DHID":"de:05374:48355","Parent":"de:05374:48355","Name":"Gummersbach Hülsenbusch Thaler Weg","MunicipalityCode":"05374012","Municipality":"Gummersbach","DistrictCode":"","District":"","Description":"","Authority":"VRR","DelfiName":"-","THID":"D914FE00BCE3","LastOperationDate":"2025-01-06T00:00:00","SEV":"nein","longitude":"7,459925","latitude":"51,041783","geojson_lng":7.459925,"geojson_lat":51.041783},"geometry":{"type":"Point","coordinates":[7.459925,51.041783]}},{"type":"Feature","properties":{"SeqNo":"587587","Type":"A","DHID":"de:05374:48355:2","Parent":"de:05374:48355","Name":"Thaler Weg","MunicipalityCode":"00000000","Municipality":"-","DistrictCode":"-","District":"-","Description":"","Authority":"VRR","DelfiName":"-","THID":"-","LastOperationDate":"","SEV":"nein","longitude":"7,459987","latitude":"51,041953","geojson_lng":7.459987,"geojson_lat":51.041953},"geometry":{"type":"Point","coordinates":[7.459987,51.041953]}},{"type":"Feature","properties":{"SeqNo":"587588","Type":"Q","DHID":"de:05374:48355:2:21","Parent":"de:05374:48355:2","Name":"","MunicipalityCode":"00000000","Municipality":"-","DistrictCode":"-","District":"-","Description":"","Authority":"VRR","DelfiName":"-","THID":"-","LastOperationDate":"","SEV":"nein","longitude":"7,459996","latitude":"51,042116","geojson_lng":7.459996,"geojson_lat":51.042116},"geometry":{"type":"Point","coordinates":[7.459996,51.042116]}},{"type":"Feature","properties":{"SeqNo":"587589","Type":"Q","DHID":"de:05374:48355:2:22","Parent":"de:05374:48355:2","Name":"","MunicipalityCode":"00000000","Municipality":"-","DistrictCode":"-","District":"-","Description":"","Authority":"VRR","DelfiName":"-","THID":"-","LastOperationDate":"","SEV":"nein","longitude":"7,459987","latitude":"51,041953","geojson_lng":7.459987,"geojson_lat":51.041953},"geometry":{"type":"Point","coordinates":[7.459987,51.041953]}},{"type":"Feature","properties":{"SeqNo":"587590","Type":"S","DHID":"de:05374:48356","Parent":"de:05374:48356","Name":"Gummersbach Hülsenbusch Thalerwesche","MunicipalityCode":"05374012","Municipality":"Gummersbach","DistrictCode":"","District":"","Description":"","Authority":"VRR","DelfiName":"-","THID":"D914FE00BCE4","LastOperationDate":"2025-01-06T00:00:00","SEV":"nein","longitude":"7,464111","latitude":"51,043873","geojson_lng":7.464111,"geojson_lat":51.043873},"geometry":{"type":"Point","coordinates":[7.464111,51.043873]}},{"type":"Feature","properties":{"SeqNo":"587591","Type":"A","DHID":"de:05374:48356:2","Parent":"de:05374:48356","Name":"Thalerwesche","MunicipalityCode":"00000000","Municipality":"-","DistrictCode":"-","District":"-","Description":"","Authority":"VRR","DelfiName":"-","THID":"-","LastOperationDate":"","SEV":"nein","longitude":"7,464227","latitude":"51,043952","geojson_lng":7.464227,"geojson_lat":51.043952},"geometry":{"type":"Point","coordinates":[7.464227,51.043952]}},{"type":"Feature","properties":{"SeqNo":"587592","Type":"Q","DHID":"de:05374:48356:2:21","Parent":"de:05374:48356:2","Name":"","MunicipalityCode":"00000000","Municipality":"-","DistrictCode":"-","District":"-","Description":"","Authority":"VRR","DelfiName":"-","THID":"-","LastOperationDate":"","SEV":"nein","longitude":"7,464174","latitude":"51,04398","geojson_lng":7.464174,"geojson_lat":51.04398},"geometry":{"type":"Point","coordinates":[7.464174,51.04398]}},{"type":"Feature","properties":{"SeqNo":"587593","Type":"Q","DHID":"de:05374:48356:2:22","Parent":"de:05374:48356:2","Name":"","MunicipalityCode":"00000000","Municipality":"-","DistrictCode":"-","District":"-","Description":"","Authority":"VRR","DelfiName":"-","THID":"-","LastOperationDate":"","SEV":"nein","longitude":"7,464227","latitude":"51,043952","geojson_lng":7.464227,"geojson_lat":51.043952},"geometry":{"type":"Point","coordinates":[7.464227,51.043952]}},{"type":"Feature","properties":{"SeqNo":"587594","Type":"S","DHID":"de:05374:48357","Parent":"de:05374:48357","Name":"Gummersbach Hülsenbusch Hohefuhrweg","MunicipalityCode":"05374012","Municipality":"Gummersbach","DistrictCode":"","District":"","Description":"","Authority":"VRR","DelfiName":"-","THID":"D914FE00BCE5","LastOperationDate":"2025-01-06T00:00:00","SEV":"nein","longitude":"7,462206","latitude":"51,044534","geojson_lng":7.462206,"geojson_lat":51.044534},"geometry":{"type":"Point","coordinates":[7.462206,51.044534]}},{"type":"Feature","properties":{"SeqNo":"587595","Type":"A","DHID":"de:05374:48357:2","Parent":"de:05374:48357","Name":"Hohefuhrweg","MunicipalityCode":"00000000","Municipality":"-","DistrictCode":"-","District":"-","Description":"","Authority":"VRR","DelfiName":"-","THID":"-","LastOperationDate":"","SEV":"nein","longitude":"7,462098","latitude":"51,044551","geojson_lng":7.462098,"geojson_lat":51.044551},"geometry":{"type":"Point","coordinates":[7.462098,51.044551]}},{"type":"Feature","properties":{"SeqNo":"587596","Type":"Q","DHID":"de:05374:48357:2:21","Parent":"de:05374:48357:2","Name":"","MunicipalityCode":"00000000","Municipality":"-","DistrictCode":"-","District":"-","Description":"","Authority":"VRR","DelfiName":"-","THID":"-","LastOperationDate":"","SEV":"nein","longitude":"7,462548","latitude":"51,044432","geojson_lng":7.462548,"geojson_lat":51.044432},"geometry":{"type":"Point","coordinates":[7.462548,51.044432]}},{"type":"Feature","properties":{"SeqNo":"587597","Type":"Q","DHID":"de:05374:48357:2:22","Parent":"de:05374:48357:2","Name":"","MunicipalityCode":"00000000","Municipality":"-","DistrictCode":"-","District":"-","Description":"","Authority":"VRR","DelfiName":"-","THID":"-","LastOperationDate":"","SEV":"nein","longitude":"7,462107","latitude":"51,044551","geojson_lng":7.462107,"geojson_lat":51.044551},"geometry":{"type":"Point","coordinates":[7.462107,51.044551]}}]}