{"type":"FeatureCollection","features":[{"type":"Feature","properties":{"highway":"bus_stop","public_transport":"platform","name":"Kathodeweg","ref:IFOPT":"NL:Q:12700210","_quaycode":"NL:Q:12700210","_town":"Stadskanaal","_status":"available","_mode":"bus","_direction":240,"_visuallyAccessible":true,"_disabledAccessible":true,"geojson_lng":6.958508015940331,"geojson_lat":52.97655710912759},"geometry":{"type":"Point","coordinates":[6.958508015940331,52.97655710912759]}},{"type":"Feature","properties":{"highway":"bus_stop","public_transport":"platform","name":"Buinerbrug","ref:IFOPT":"NL:Q:12700300","_quaycode":"NL:Q:12700300","_town":"Stadskanaal","_status":"available","_mode":"bus","_direction":60,"_visuallyAccessible":true,"_disabledAccessible":false,"geojson_lng":6.963638251020301,"geojson_lat":52.97924877479816},"geometry":{"type":"Point","coordinates":[6.963638251020301,52.97924877479816]}},{"type":"Feature","properties":{"highway":"bus_stop","public_transport":"platform","name":"Kathodeweg","ref:IFOPT":"NL:Q:12700220","_quaycode":"NL:Q:12700220","_town":"Stadskanaal","_status":"available","_mode":"bus","_direction":60,"_visuallyAccessible":false,"_disabledAccessible":true,"geojson_lng":6.960233540521788,"geojson_lat":52.977334315453874},"geometry":{"type":"Point","coordinates":[6.960233540521788,52.977334315453874]}},{"type":"Feature","properties":{"highway":"bus_stop","public_transport":"platform","name":"Buinerbrug","ref:IFOPT":"NL:Q:12700290","_quaycode":"NL:Q:12700290","_town":"Stadskanaal","_status":"available","_mode":"bus","_direction":240,"_visuallyAccessible":true,"_disabledAccessible":false,"geojson_lng":6.963251274823185,"geojson_lat":52.97925387883112},"geometry":{"type":"Point","coordinates":[6.963251274823185,52.97925387883112]}},{"type":"Feature","properties":{"highway":"bus_stop","public_transport":"platform","name":"Eikenbos","ref:IFOPT":"NL:Q:12700150","_quaycode":"NL:Q:12700150","_town":"Stadskanaal","_status":"available","_mode":"bus","_direction":131,"_visuallyAccessible":false,"_disabledAccessible":false,"geojson_lng":6.974464540499006,"geojson_lat":52.963745382903575},"geometry":{"type":"Point","coordinates":[6.974464540499006,52.963745382903575]}},{"type":"Feature","properties":{"highway":"bus_stop","public_transport":"platform","name":"Tweede Dwarsdiep","ref:IFOPT":"NL:Q:12261810","_quaycode":"NL:Q:12261810","_town":"Gasselternijveenschemond","_status":"available","_mode":"bus","_direction":255,"_visuallyAccessible":true,"_disabledAccessible":true,"geojson_lng":6.895893397099143,"geojson_lat":52.99709173015552},"geometry":{"type":"Point","coordinates":[6.895893397099143,52.99709173015552]}},{"type":"Feature","properties":{"highway":"bus_stop","public_transport":"platform","name":"Kerklaan","ref:IFOPT":"NL:Q:18724510","_quaycode":"NL:Q:18724510","_town":"Musselkanaal","_status":"available","_mode":"bus","_direction":294,"_visuallyAccessible":false,"_disabledAccessible":false,"geojson_lng":7.026326696508651,"geojson_lat":52.92103548066462},"geometry":{"type":"Point","coordinates":[7.026326696508651,52.92103548066462]}},{"type":"Feature","properties":{"highway":"bus_stop","public_transport":"platform","name":"4e Sluis","ref:IFOPT":"NL:Q:18700010","_quaycode":"NL:Q:18700010","_town":"Musselkanaal","_status":"available","_mode":"bus","_direction":131,"_visuallyAccessible":false,"_disabledAccessible":false,"geojson_lng":6.978622474977259,"geojson_lat":52.96021179410679},"geometry":{"type":"Point","coordinates":[6.978622474977259,52.96021179410679]}},{"type":"Feature","properties":{"highway":"bus_stop","public_transport":"platform","name":"Hollandialaan","ref:IFOPT":"NL:Q:18910030","_quaycode":"NL:Q:18910030","_town":"Nieuw-Buinen","_status":"available","_mode":"bus","_direction":248,"_visuallyAccessible":false,"_disabledAccessible":false,"geojson_lng":6.900302979788445,"geojson_lat":52.94267882099787},"geometry":{"type":"Point","coordinates":[6.900302979788445,52.94267882099787]}},{"type":"Feature","properties":{"highway":"bus_stop","public_transport":"platform","name":"Zuiderdiep 288","ref:IFOPT":"NL:Q:18780020","_quaycode":"NL:Q:18780020","_town":"2e Exloërmond","_status":"available","_mode":"bus","_direction":68,"_visuallyAccessible":false,"_disabledAccessible":false,"geojson_lng":6.967046270443886,"geojson_lat":52.92132230762582},"geometry":{"type":"Point","coordinates":[6.967046270443886,52.92132230762582]}},{"type":"Feature","properties":{"highway":"bus_stop","public_transport":"platform","name":"Belgielaan","ref:IFOPT":"NL:Q:12705210","_quaycode":"NL:Q:12705210","_town":"Stadskanaal","_status":"available","_mode":"bus","_direction":252,"_visuallyAccessible":false,"_disabledAccessible":true,"geojson_lng":6.961837195371049,"geojson_lat":52.991208190837774},"geometry":{"type":"Point","coordinates":[6.961837195371049,52.991208190837774]}},{"type":"Feature","properties":{"highway":"bus_stop","public_transport":"platform","name":"Cypressenhage","ref:IFOPT":"NL:Q:12700070","_quaycode":"NL:Q:12700070","_town":"Stadskanaal","_status":"available","_mode":"bus","_direction":122,"_visuallyAccessible":false,"_disabledAccessible":true,"geojson_lng":6.964464863608827,"geojson_lat":52.981925196769566},"geometry":{"type":"Point","coordinates":[6.964464863608827,52.981925196769566]}},{"type":"Feature","properties":{"highway":"bus_stop","public_transport":"platform","name":"Eikenhage","ref:IFOPT":"NL:Q:12701210","_quaycode":"NL:Q:12701210","_town":"Stadskanaal","_status":"available","_mode":"bus","_direction":252,"_visuallyAccessible":false,"_disabledAccessible":false,"geojson_lng":6.965710275156661,"geojson_lat":52.98711264032863},"geometry":{"type":"Point","coordinates":[6.965710275156661,52.98711264032863]}},{"type":"Feature","properties":{"highway":"bus_stop","public_transport":"platform","name":"Aweg 14","ref:IFOPT":"NL:Q:18713020","_quaycode":"NL:Q:18713020","_town":"Musselkanaal","_status":"available","_mode":"bus","_direction":130,"_visuallyAccessible":false,"_disabledAccessible":false,"geojson_lng":7.018952311185855,"geojson_lat":52.925055253248274},"geometry":{"type":"Point","coordinates":[7.018952311185855,52.925055253248274]}},{"type":"Feature","properties":{"highway":"bus_stop","public_transport":"platform","name":"Eikenlaan","ref:IFOPT":"NL:Q:18910020","_quaycode":"NL:Q:18910020","_town":"Nieuw-Buinen","_status":"available","_mode":"bus","_direction":68,"_visuallyAccessible":false,"_disabledAccessible":false,"geojson_lng":6.90717306547947,"geojson_lat":52.94513510975205},"geometry":{"type":"Point","coordinates":[6.90717306547947,52.94513510975205]}},{"type":"Feature","properties":{"highway":"bus_stop","public_transport":"platform","name":"Kastanjelaan","ref:IFOPT":"NL:Q:18900110","_quaycode":"NL:Q:18900110","_town":"Nieuw-Buinen","_status":"available","_mode":"bus","_direction":249,"_visuallyAccessible":false,"_disabledAccessible":true,"geojson_lng":6.925112710624853,"geojson_lat":52.952598963226585},"geometry":{"type":"Point","coordinates":[6.925112710624853,52.952598963226585]}},{"type":"Feature","properties":{"highway":"bus_stop","public_transport":"platform","name":"2e Sluis","ref:IFOPT":"NL:Q:12705510","_quaycode":"NL:Q:12705510","_town":"Stadskanaal","_status":"available","_mode":"bus","_direction":123,"_visuallyAccessible":false,"_disabledAccessible":false,"geojson_lng":6.919758504350797,"geojson_lat":53.00810352173866},"geometry":{"type":"Point","coordinates":[6.919758504350797,53.00810352173866]}},{"type":"Feature","properties":{"highway":"bus_stop","public_transport":"platform","name":"Tuinstraat","ref:IFOPT":"NL:Q:12251820","_quaycode":"NL:Q:12251820","_town":"Gasselternijveen","_status":"available","_mode":"bus","_direction":73,"_visuallyAccessible":true,"_disabledAccessible":true,"geojson_lng":6.866712244453417,"geojson_lat":52.99187520598682},"geometry":{"type":"Point","coordinates":[6.866712244453417,52.99187520598682]}},{"type":"Feature","properties":{"highway":"bus_stop","public_transport":"platform","name":"Sportlaan","ref:IFOPT":"NL:Q:12700280","_quaycode":"NL:Q:12700280","_town":"Nieuw-Buinen","_status":"available","_mode":"bus","_direction":68,"_visuallyAccessible":false,"_disabledAccessible":true,"geojson_lng":6.9581851894993285,"geojson_lat":52.96760957265968},"geometry":{"type":"Point","coordinates":[6.9581851894993285,52.96760957265968]}},{"type":"Feature","properties":{"highway":"bus_stop","public_transport":"platform","name":"Zuiderdiep 343","ref:IFOPT":"NL:Q:18770080","_quaycode":"NL:Q:18770080","_town":"2e Exloërmond","_status":"available","_mode":"bus","_direction":68,"_visuallyAccessible":false,"_disabledAccessible":false,"geojson_lng":6.975493706880127,"geojson_lat":52.924607652295336},"geometry":{"type":"Point","coordinates":[6.975493706880127,52.924607652295336]}},{"type":"Feature","properties":{"highway":"bus_stop","public_transport":"platform","name":"Waterschapsweg 7","ref:IFOPT":"NL:Q:18703120","_quaycode":"NL:Q:18703120","_town":"Vledderveen","_status":"available","_mode":"bus","_direction":174,"_visuallyAccessible":false,"_disabledAccessible":false,"geojson_lng":7.004470391674457,"geojson_lat":52.984095850640806},"geometry":{"type":"Point","coordinates":[7.004470391674457,52.984095850640806]}},{"type":"Feature","properties":{"highway":"bus_stop","public_transport":"platform","name":"Kavelingen 49","ref:IFOPT":"NL:Q:18720070","_quaycode":"NL:Q:18720070","_town":"Musselkanaal","_status":"available","_mode":"bus","_direction":19,"_visuallyAccessible":false,"_disabledAccessible":false,"geojson_lng":7.013093944588804,"geojson_lat":52.9175133746022},"geometry":{"type":"Point","coordinates":[7.013093944588804,52.9175133746022]}},{"type":"Feature","properties":{"highway":"bus_stop","public_transport":"platform","name":"Maarsveld","ref:IFOPT":"NL:Q:12704520","_quaycode":"NL:Q:12704520","_town":"Stadskanaal","_status":"available","_mode":"bus","_direction":328,"_visuallyAccessible":null,"_disabledAccessible":null,"geojson_lng":6.960346186081919,"geojson_lat":52.994876806866706},"geometry":{"type":"Point","coordinates":[6.960346186081919,52.994876806866706]}},{"type":"Feature","properties":{"highway":"bus_stop","public_transport":"platform","name":"Hoofdkade","ref:IFOPT":"NL:Q:18910100","_quaycode":"NL:Q:18910100","_town":"Buinerveen","_status":"available","_mode":"bus","_direction":68,"_visuallyAccessible":false,"_disabledAccessible":false,"geojson_lng":6.885435769166944,"geojson_lat":52.936502966572526},"geometry":{"type":"Point","coordinates":[6.885435769166944,52.936502966572526]}},{"type":"Feature","properties":{"highway":"bus_stop","public_transport":"platform","name":"Paterslaan","ref:IFOPT":"NL:Q:12701720","_quaycode":"NL:Q:12701720","_town":"Gasselternijveenschemond","_status":"available","_mode":"bus","_direction":81,"_visuallyAccessible":false,"_disabledAccessible":false,"geojson_lng":6.92363586752484,"geojson_lat":52.998913386576845},"geometry":{"type":"Point","coordinates":[6.92363586752484,52.998913386576845]}},{"type":"Feature","properties":{"highway":"bus_stop","public_transport":"platform","name":"Drentse Mondenweg","ref:IFOPT":"NL:Q:18780070","_quaycode":"NL:Q:18780070","_town":"2e Exloërmond","_status":"available","_mode":"bus","_direction":248,"_visuallyAccessible":false,"_disabledAccessible":false,"geojson_lng":6.949641537072386,"geojson_lat":52.91452284153008},"geometry":{"type":"Point","coordinates":[6.949641537072386,52.91452284153008]}},{"type":"Feature","properties":{"highway":"bus_stop","public_transport":"platform","name":"Noorderstraat","ref:IFOPT":"NL:Q:18910110","_quaycode":"NL:Q:18910110","_town":"Buinerveen","_status":"available","_mode":"bus","_direction":248,"_visuallyAccessible":false,"_disabledAccessible":false,"geojson_lng":6.88061379805159,"geojson_lat":52.93470291316278},"geometry":{"type":"Point","coordinates":[6.88061379805159,52.93470291316278]}},{"type":"Feature","properties":{"highway":"bus_stop","public_transport":"platform","name":"IJzeren klap","ref:IFOPT":"NL:Q:18710200","_quaycode":"NL:Q:18710200","_town":"Musselkanaal","_status":"available","_mode":"bus","_direction":311,"_visuallyAccessible":false,"_disabledAccessible":true,"geojson_lng":7.0176836655295585,"geojson_lat":52.92692410518661},"geometry":{"type":"Point","coordinates":[7.0176836655295585,52.92692410518661]}},{"type":"Feature","properties":{"highway":"bus_stop","public_transport":"platform","name":"Poststraat","ref:IFOPT":"NL:Q:18790010","_quaycode":"NL:Q:18790010","_town":"2e Exloërmond","_status":"available","_mode":"bus","_direction":248,"_visuallyAccessible":false,"_disabledAccessible":false,"geojson_lng":6.932583026482785,"geojson_lat":52.907689429922215},"geometry":{"type":"Point","coordinates":[6.932583026482785,52.907689429922215]}},{"type":"Feature","properties":{"highway":"bus_stop","public_transport":"platform","name":"Zuiderdiep 192","ref:IFOPT":"NL:Q:18780090","_quaycode":"NL:Q:18780090","_town":"2e Exloërmond","_status":"available","_mode":"bus","_direction":248,"_visuallyAccessible":false,"_disabledAccessible":false,"geojson_lng":6.945402497090454,"geojson_lat":52.91281662673342},"geometry":{"type":"Point","coordinates":[6.945402497090454,52.91281662673342]}},{"type":"Feature","properties":{"highway":"bus_stop","public_transport":"platform","name":"Europalaan","ref:IFOPT":"NL:Q:12700330","_quaycode":"NL:Q:12700330","_town":"Stadskanaal","_status":"available","_mode":"bus","_direction":152,"_visuallyAccessible":null,"_disabledAccessible":null,"geojson_lng":6.963754389129341,"geojson_lat":52.99109302741965},"geometry":{"type":"Point","coordinates":[6.963754389129341,52.99109302741965]}},{"type":"Feature","properties":{"highway":"bus_stop","public_transport":"platform","name":"Lindenlaan","ref:IFOPT":"NL:Q:18910060","_quaycode":"NL:Q:18910060","_town":"Nieuw-Buinen","_status":"available","_mode":"bus","_direction":68,"_visuallyAccessible":false,"_disabledAccessible":false,"geojson_lng":6.894697059573064,"geojson_lat":52.94018821699685},"geometry":{"type":"Point","coordinates":[6.894697059573064,52.94018821699685]}},{"type":"Feature","properties":{"highway":"bus_stop","public_transport":"platform","name":"Kavelingen 52a","ref:IFOPT":"NL:Q:18720090","_quaycode":"NL:Q:18720090","_town":"Musselkanaal","_status":"available","_mode":"bus","_direction":19,"_visuallyAccessible":false,"_disabledAccessible":false,"geojson_lng":7.01490603654285,"geojson_lat":52.922638791849},"geometry":{"type":"Point","coordinates":[7.01490603654285,52.922638791849]}},{"type":"Feature","properties":{"highway":"bus_stop","public_transport":"platform","name":"Kerkstraat","ref:IFOPT":"NL:Q:18710100","_quaycode":"NL:Q:18710100","_town":"Musselkanaal","_status":"available","_mode":"bus","_direction":131,"_visuallyAccessible":false,"_disabledAccessible":true,"geojson_lng":7.0119946790585725,"geojson_lat":52.931513603323154},"geometry":{"type":"Point","coordinates":[7.0119946790585725,52.931513603323154]}},{"type":"Feature","properties":{"highway":"bus_stop","public_transport":"platform","name":"Sportlaan","ref:IFOPT":"NL:Q:12700270","_quaycode":"NL:Q:12700270","_town":"Nieuw-Buinen","_status":"available","_mode":"bus","_direction":249,"_visuallyAccessible":false,"_disabledAccessible":false,"geojson_lng":6.957907657993095,"geojson_lat":52.96775702521169},"geometry":{"type":"Point","coordinates":[6.957907657993095,52.96775702521169]}},{"type":"Feature","properties":{"highway":"bus_stop","public_transport":"platform","name":"Boerveenschemond","ref:IFOPT":"NL:Q:12784620","_quaycode":"NL:Q:12784620","_town":"Stadskanaal","_status":"available","_mode":"bus","_direction":303,"_visuallyAccessible":false,"_disabledAccessible":false,"geojson_lng":6.910816315438986,"geojson_lat":53.01400578189536},"geometry":{"type":"Point","coordinates":[6.910816315438986,53.01400578189536]}},{"type":"Feature","properties":{"highway":"bus_stop","public_transport":"platform","name":"Waterland","ref:IFOPT":"NL:Q:12700370","_quaycode":"NL:Q:12700370","_town":"Stadskanaal","_status":"available","_mode":"bus","_direction":154,"_visuallyAccessible":null,"_disabledAccessible":null,"geojson_lng":6.956195152199334,"geojson_lat":52.999146577026615},"geometry":{"type":"Point","coordinates":[6.956195152199334,52.999146577026615]}},{"type":"Feature","properties":{"highway":"bus_stop","public_transport":"platform","name":"Gasselterbrug","ref:IFOPT":"NL:Q:12705710","_quaycode":"NL:Q:12705710","_town":"Stadskanaal","_status":"available","_mode":"bus","_direction":123,"_visuallyAccessible":false,"_disabledAccessible":true,"geojson_lng":6.932202738747571,"geojson_lat":53.00019605632193},"geometry":{"type":"Point","coordinates":[6.932202738747571,53.00019605632193]}},{"type":"Feature","properties":{"highway":"bus_stop","public_transport":"platform","name":"Aweg 14","ref:IFOPT":"NL:Q:18713010","_quaycode":"NL:Q:18713010","_town":"Musselkanaal","_status":"available","_mode":"bus","_direction":310,"_visuallyAccessible":false,"_disabledAccessible":false,"geojson_lng":7.019366510243014,"geojson_lat":52.92499566411664},"geometry":{"type":"Point","coordinates":[7.019366510243014,52.92499566411664]}},{"type":"Feature","properties":{"highway":"bus_stop","public_transport":"platform","name":"Lindenlaan","ref:IFOPT":"NL:Q:18910050","_quaycode":"NL:Q:18910050","_town":"Nieuw-Buinen","_status":"available","_mode":"bus","_direction":248,"_visuallyAccessible":false,"_disabledAccessible":false,"geojson_lng":6.893966839600876,"geojson_lat":52.94015249332329},"geometry":{"type":"Point","coordinates":[6.893966839600876,52.94015249332329]}},{"type":"Feature","properties":{"highway":"bus_stop","public_transport":"platform","name":"Zuiderdiep 362","ref:IFOPT":"NL:Q:18770060","_quaycode":"NL:Q:18770060","_town":"2e Exloërmond","_status":"available","_mode":"bus","_direction":68,"_visuallyAccessible":false,"_disabledAccessible":false,"geojson_lng":6.978693274723583,"geojson_lat":52.925886267612555},"geometry":{"type":"Point","coordinates":[6.978693274723583,52.925886267612555]}},{"type":"Feature","properties":{"highway":"bus_stop","public_transport":"platform","name":"Molenstraat","ref:IFOPT":"NL:Q:12705620","_quaycode":"NL:Q:12705620","_town":"Stadskanaal","_status":"available","_mode":"bus","_direction":302,"_visuallyAccessible":false,"_disabledAccessible":false,"geojson_lng":6.927576787846813,"geojson_lat":53.00334748357187},"geometry":{"type":"Point","coordinates":[6.927576787846813,53.00334748357187]}},{"type":"Feature","properties":{"highway":"bus_stop","public_transport":"platform","name":"Zuiderdiep 385","ref:IFOPT":"NL:Q:18770030","_quaycode":"NL:Q:18770030","_town":"2e Exloërmond","_status":"available","_mode":"bus","_direction":248,"_visuallyAccessible":false,"_disabledAccessible":false,"geojson_lng":6.986914491499418,"geojson_lat":52.92944346845987},"geometry":{"type":"Point","coordinates":[6.986914491499418,52.92944346845987]}},{"type":"Feature","properties":{"highway":"bus_stop","public_transport":"platform","name":"Zuiderdiep 288","ref:IFOPT":"NL:Q:18780010","_quaycode":"NL:Q:18780010","_town":"2e Exloërmond","_status":"available","_mode":"bus","_direction":248,"_visuallyAccessible":false,"_disabledAccessible":false,"geojson_lng":6.966566721239405,"geojson_lat":52.92122079766986},"geometry":{"type":"Point","coordinates":[6.966566721239405,52.92122079766986]}},{"type":"Feature","properties":{"highway":"bus_stop","public_transport":"platform","name":"Wilgenlaan","ref:IFOPT":"NL:Q:18900080","_quaycode":"NL:Q:18900080","_town":"Nieuw-Buinen","_status":"available","_mode":"bus","_direction":68,"_visuallyAccessible":false,"_disabledAccessible":true,"geojson_lng":6.936769118583371,"geojson_lat":52.95899139521608},"geometry":{"type":"Point","coordinates":[6.936769118583371,52.95899139521608]}},{"type":"Feature","properties":{"highway":"bus_stop","public_transport":"platform","name":"Zuiderdiep 143","ref:IFOPT":"NL:Q:18791110","_quaycode":"NL:Q:18791110","_town":"2e Exloërmond","_status":"available","_mode":"bus","_direction":248,"_visuallyAccessible":false,"_disabledAccessible":false,"geojson_lng":6.939234146016901,"geojson_lat":52.910362407876114},"geometry":{"type":"Point","coordinates":[6.939234146016901,52.910362407876114]}},{"type":"Feature","properties":{"highway":"bus_stop","public_transport":"platform","name":"Zuiderdiep 234","ref:IFOPT":"NL:Q:18780060","_quaycode":"NL:Q:18780060","_town":"2e Exloërmond","_status":"available","_mode":"bus","_direction":68,"_visuallyAccessible":false,"_disabledAccessible":false,"geojson_lng":6.954428874320996,"geojson_lat":52.916167784238176},"geometry":{"type":"Point","coordinates":[6.954428874320996,52.916167784238176]}},{"type":"Feature","properties":{"highway":"bus_stop","public_transport":"platform","name":"Stationsbrug","ref:IFOPT":"NL:Q:12705820","_quaycode":"NL:Q:12705820","_town":"Stadskanaal","_status":"available","_mode":"bus","_direction":303,"_visuallyAccessible":false,"_disabledAccessible":true,"geojson_lng":6.936531644445163,"geojson_lat":52.99750666013475},"geometry":{"type":"Point","coordinates":[6.936531644445163,52.99750666013475]}},{"type":"Feature","properties":{"highway":"bus_stop","public_transport":"platform","name":"Stadswijk","ref:IFOPT":"NL:Q:18710080","_quaycode":"NL:Q:18710080","_town":"Musselkanaal","_status":"available","_mode":"bus","_direction":65,"_visuallyAccessible":false,"_disabledAccessible":false,"geojson_lng":7.004450238951982,"geojson_lat":52.93624479755352},"geometry":{"type":"Point","coordinates":[7.004450238951982,52.93624479755352]}},{"type":"Feature","properties":{"highway":"bus_stop","public_transport":"platform","name":"Onstwedderweg","ref:IFOPT":"NL:Q:12705910","_quaycode":"NL:Q:12705910","_town":"Stadskanaal","_status":"available","_mode":"bus","_direction":123,"_visuallyAccessible":false,"_disabledAccessible":true,"geojson_lng":6.943023897039868,"geojson_lat":52.99326106348069},"geometry":{"type":"Point","coordinates":[6.943023897039868,52.99326106348069]}},{"type":"Feature","properties":{"highway":"bus_stop","public_transport":"platform","name":"Busstation","ref:IFOPT":"NL:Q:12700020","_quaycode":"NL:Q:12700020","_town":"Stadskanaal","_status":"available","_mode":"bus","_direction":315,"_visuallyAccessible":false,"_disabledAccessible":true,"geojson_lng":6.9563496193951275,"geojson_lat":52.98690335312214},"geometry":{"type":"Point","coordinates":[6.9563496193951275,52.98690335312214]}},{"type":"Feature","properties":{"highway":"bus_stop","public_transport":"platform","name":"Wilgenlaan","ref:IFOPT":"NL:Q:18900070","_quaycode":"NL:Q:18900070","_town":"Nieuw-Buinen","_status":"available","_mode":"bus","_direction":248,"_visuallyAccessible":false,"_disabledAccessible":false,"geojson_lng":6.936493805133098,"geojson_lat":52.959201683529514},"geometry":{"type":"Point","coordinates":[6.936493805133098,52.959201683529514]}},{"type":"Feature","properties":{"highway":"bus_stop","public_transport":"platform","name":"Iepenlaan","ref:IFOPT":"NL:Q:18900150","_quaycode":"NL:Q:18900150","_town":"Nieuw-Buinen","_status":"available","_mode":"bus","_direction":249,"_visuallyAccessible":false,"_disabledAccessible":true,"geojson_lng":6.913672324933068,"geojson_lat":52.94802715830257},"geometry":{"type":"Point","coordinates":[6.913672324933068,52.94802715830257]}},{"type":"Feature","properties":{"highway":"bus_stop","public_transport":"platform","name":"Sluisstraat 28","ref:IFOPT":"NL:Q:18700240","_quaycode":"NL:Q:18700240","_town":"Musselkanaal","_status":"available","_mode":"bus","_direction":131,"_visuallyAccessible":false,"_disabledAccessible":false,"geojson_lng":6.992628755521566,"geojson_lat":52.94809752821823},"geometry":{"type":"Point","coordinates":[6.992628755521566,52.94809752821823]}},{"type":"Feature","properties":{"highway":"bus_stop","public_transport":"platform","name":"Zuiderdiep 192","ref:IFOPT":"NL:Q:18780100","_quaycode":"NL:Q:18780100","_town":"2e Exloërmond","_status":"available","_mode":"bus","_direction":68,"_visuallyAccessible":false,"_disabledAccessible":false,"geojson_lng":6.945638349697899,"geojson_lat":52.91275962080829},"geometry":{"type":"Point","coordinates":[6.945638349697899,52.91275962080829]}},{"type":"Feature","properties":{"highway":"bus_stop","public_transport":"platform","name":"Zuiderdiep 143","ref:IFOPT":"NL:Q:18791120","_quaycode":"NL:Q:18791120","_town":"2e Exloërmond","_status":"available","_mode":"bus","_direction":68,"_visuallyAccessible":false,"_disabledAccessible":false,"geojson_lng":6.939782699670074,"geojson_lat":52.91031932309965},"geometry":{"type":"Point","coordinates":[6.939782699670074,52.91031932309965]}},{"type":"Feature","properties":{"highway":"bus_stop","public_transport":"platform","name":"Oosterstraat 38","ref:IFOPT":"NL:Q:12701280","_quaycode":"NL:Q:12701280","_town":"Stadskanaal","_status":"available","_mode":"bus","_direction":123,"_visuallyAccessible":false,"_disabledAccessible":false,"geojson_lng":6.9690198091811135,"geojson_lat":52.97654425751644},"geometry":{"type":"Point","coordinates":[6.9690198091811135,52.97654425751644]}},{"type":"Feature","properties":{"highway":"bus_stop","public_transport":"platform","name":"Kerklaan","ref:IFOPT":"NL:Q:18900100","_quaycode":"NL:Q:18900100","_town":"Nieuw-Buinen","_status":"available","_mode":"bus","_direction":68,"_visuallyAccessible":false,"_disabledAccessible":false,"geojson_lng":6.9309744397629665,"geojson_lat":52.954653444815165},"geometry":{"type":"Point","coordinates":[6.9309744397629665,52.954653444815165]}},{"type":"Feature","properties":{"highway":"bus_stop","public_transport":"platform","name":"Delflandlaan","ref:IFOPT":"NL:Q:12700360","_quaycode":"NL:Q:12700360","_town":"Stadskanaal","_status":"available","_mode":"bus","_direction":237,"_visuallyAccessible":null,"_disabledAccessible":null,"geojson_lng":6.955505931129625,"geojson_lat":52.99407759139314},"geometry":{"type":"Point","coordinates":[6.955505931129625,52.99407759139314]}},{"type":"Feature","properties":{"highway":"bus_stop","public_transport":"platform","name":"Delflandlaan","ref:IFOPT":"NL:Q:12700350","_quaycode":"NL:Q:12700350","_town":"Stadskanaal","_status":"available","_mode":"bus","_direction":57,"_visuallyAccessible":null,"_disabledAccessible":null,"geojson_lng":6.956408977794424,"geojson_lat":52.9943353702442},"geometry":{"type":"Point","coordinates":[6.956408977794424,52.9943353702442]}},{"type":"Feature","properties":{"highway":"bus_stop","public_transport":"platform","name":"Schoolstraat 122","ref:IFOPT":"NL:Q:18700030","_quaycode":"NL:Q:18700030","_town":"Musselkanaal","_status":"available","_mode":"bus","_direction":131,"_visuallyAccessible":false,"_disabledAccessible":false,"geojson_lng":6.985448722461055,"geojson_lat":52.95437744952598},"geometry":{"type":"Point","coordinates":[6.985448722461055,52.95437744952598]}},{"type":"Feature","properties":{"highway":"bus_stop","public_transport":"platform","name":"Pagedal","ref:IFOPT":"NL:Q:12705600","_quaycode":"NL:Q:12705600","_town":"Stadskanaal","_status":"available","_mode":"bus","_direction":295,"_visuallyAccessible":false,"_disabledAccessible":false,"geojson_lng":6.9797407541169045,"geojson_lat":52.9940537852244},"geometry":{"type":"Point","coordinates":[6.9797407541169045,52.9940537852244]}},{"type":"Feature","properties":{"highway":"bus_stop","public_transport":"platform","name":"Busstation","ref:IFOPT":"NL:Q:12700022","_quaycode":"NL:Q:12700022","_town":"Stadskanaal","_status":"available","_mode":"bus","_direction":315,"_visuallyAccessible":false,"_disabledAccessible":true,"geojson_lng":6.956640868229262,"geojson_lat":52.98671977530226},"geometry":{"type":"Point","coordinates":[6.956640868229262,52.98671977530226]}},{"type":"Feature","properties":{"highway":"bus_stop","public_transport":"platform","name":"Zuiderdiep 74","ref:IFOPT":"NL:Q:18900140","_quaycode":"NL:Q:18900140","_town":"Nieuw-Buinen","_status":"available","_mode":"bus","_direction":68,"_visuallyAccessible":false,"_disabledAccessible":false,"geojson_lng":6.920168672489159,"geojson_lat":52.9503886208292},"geometry":{"type":"Point","coordinates":[6.920168672489159,52.9503886208292]}},{"type":"Feature","properties":{"highway":"bus_stop","public_transport":"platform","name":"Jasmijnstraat","ref:IFOPT":"NL:Q:12700230","_quaycode":"NL:Q:12700230","_town":"Nieuw-Buinen","_status":"available","_mode":"bus","_direction":133,"_visuallyAccessible":false,"_disabledAccessible":false,"geojson_lng":6.956996335305019,"geojson_lat":52.973862684491536},"geometry":{"type":"Point","coordinates":[6.956996335305019,52.973862684491536]}},{"type":"Feature","properties":{"highway":"bus_stop","public_transport":"platform","name":"Zuiderdiep 362","ref:IFOPT":"NL:Q:18770050","_quaycode":"NL:Q:18770050","_town":"2e Exloërmond","_status":"available","_mode":"bus","_direction":248,"_visuallyAccessible":false,"_disabledAccessible":false,"geojson_lng":6.978746067922403,"geojson_lat":52.92611026115997},"geometry":{"type":"Point","coordinates":[6.978746067922403,52.92611026115997]}},{"type":"Feature","properties":{"highway":"bus_stop","public_transport":"platform","name":"Eikenbos","ref:IFOPT":"NL:Q:12700160","_quaycode":"NL:Q:12700160","_town":"Stadskanaal","_status":"available","_mode":"bus","_direction":311,"_visuallyAccessible":false,"_disabledAccessible":false,"geojson_lng":6.974647664201367,"geojson_lat":52.963868778923185},"geometry":{"type":"Point","coordinates":[6.974647664201367,52.963868778923185]}},{"type":"Feature","properties":{"highway":"bus_stop","public_transport":"platform","name":"Ambachtstraat","ref:IFOPT":"NL:Q:12708110","_quaycode":"NL:Q:12708110","_town":"Stadskanaal","_status":"available","_mode":"bus","_direction":302,"_visuallyAccessible":false,"_disabledAccessible":true,"geojson_lng":6.977554977225875,"geojson_lat":52.9737795848011},"geometry":{"type":"Point","coordinates":[6.977554977225875,52.9737795848011]}},{"type":"Feature","properties":{"highway":"bus_stop","public_transport":"platform","name":"Paterslaan","ref:IFOPT":"NL:Q:12701710","_quaycode":"NL:Q:12701710","_town":"Gasselternijveenschemond","_status":"available","_mode":"bus","_direction":261,"_visuallyAccessible":false,"_disabledAccessible":false,"geojson_lng":6.925379696194237,"geojson_lat":52.99935831703134},"geometry":{"type":"Point","coordinates":[6.925379696194237,52.99935831703134]}},{"type":"Feature","properties":{"highway":"bus_stop","public_transport":"platform","name":"Kerklaan","ref:IFOPT":"NL:Q:18900090","_quaycode":"NL:Q:18900090","_town":"Nieuw-Buinen","_status":"available","_mode":"bus","_direction":248,"_visuallyAccessible":false,"_disabledAccessible":false,"geojson_lng":6.930274337225679,"geojson_lat":52.95463552701731},"geometry":{"type":"Point","coordinates":[6.930274337225679,52.95463552701731]}},{"type":"Feature","properties":{"highway":"bus_stop","public_transport":"platform","name":"Stadswijk","ref:IFOPT":"NL:Q:18710070","_quaycode":"NL:Q:18710070","_town":"Musselkanaal","_status":"available","_mode":"bus","_direction":245,"_visuallyAccessible":false,"_disabledAccessible":false,"geojson_lng":7.004486308890205,"geojson_lat":52.936415079432415},"geometry":{"type":"Point","coordinates":[7.004486308890205,52.936415079432415]}},{"type":"Feature","properties":{"highway":"bus_stop","public_transport":"platform","name":"Spont","ref:IFOPT":"NL:Q:12705420","_quaycode":"NL:Q:12705420","_town":"Stadskanaal","_status":"available","_mode":"bus","_direction":319,"_visuallyAccessible":false,"_disabledAccessible":false,"geojson_lng":6.956776848644966,"geojson_lat":52.98842565053478},"geometry":{"type":"Point","coordinates":[6.956776848644966,52.98842565053478]}},{"type":"Feature","properties":{"highway":"bus_stop","public_transport":"platform","name":"1e Afdraai","ref:IFOPT":"NL:Q:12700110","_quaycode":"NL:Q:12700110","_town":"Stadskanaal","_status":"available","_mode":"bus","_direction":123,"_visuallyAccessible":false,"_disabledAccessible":true,"geojson_lng":6.973195927334036,"geojson_lat":52.973873470127664},"geometry":{"type":"Point","coordinates":[6.973195927334036,52.973873470127664]}},{"type":"Feature","properties":{"highway":"bus_stop","public_transport":"platform","name":"Badstraat","ref:IFOPT":"NL:Q:12784710","_quaycode":"NL:Q:12784710","_town":"Stadskanaal","_status":"available","_mode":"bus","_direction":123,"_visuallyAccessible":false,"_disabledAccessible":false,"geojson_lng":6.916291139894218,"geojson_lat":53.01034986634203},"geometry":{"type":"Point","coordinates":[6.916291139894218,53.01034986634203]}},{"type":"Feature","properties":{"highway":"bus_stop","public_transport":"platform","name":"Zuiderdiep 234","ref:IFOPT":"NL:Q:18780050","_quaycode":"NL:Q:18780050","_town":"2e Exloërmond","_status":"available","_mode":"bus","_direction":248,"_visuallyAccessible":false,"_disabledAccessible":false,"geojson_lng":6.954921578275876,"geojson_lat":52.916637672133994},"geometry":{"type":"Point","coordinates":[6.954921578275876,52.916637672133994]}},{"type":"Feature","properties":{"highway":"bus_stop","public_transport":"platform","name":"Zuiderdiep 343","ref:IFOPT":"NL:Q:18770070","_quaycode":"NL:Q:18770070","_town":"2e Exloërmond","_status":"available","_mode":"bus","_direction":248,"_visuallyAccessible":false,"_disabledAccessible":false,"geojson_lng":6.975382966393433,"geojson_lat":52.92483382250443},"geometry":{"type":"Point","coordinates":[6.975382966393433,52.92483382250443]}},{"type":"Feature","properties":{"highway":"bus_stop","public_transport":"platform","name":"Onstwedderweg","ref:IFOPT":"NL:Q:12705920","_quaycode":"NL:Q:12705920","_town":"Stadskanaal","_status":"available","_mode":"bus","_direction":303,"_visuallyAccessible":false,"_disabledAccessible":true,"geojson_lng":6.942983406253943,"geojson_lat":52.99337842990177},"geometry":{"type":"Point","coordinates":[6.942983406253943,52.99337842990177]}},{"type":"Feature","properties":{"highway":"bus_stop","public_transport":"platform","name":"Zuiderdiep 74","ref:IFOPT":"NL:Q:18900130","_quaycode":"NL:Q:18900130","_town":"Nieuw-Buinen","_status":"available","_mode":"bus","_direction":248,"_visuallyAccessible":false,"_disabledAccessible":true,"geojson_lng":6.919723713465082,"geojson_lat":52.95043028120804},"geometry":{"type":"Point","coordinates":[6.919723713465082,52.95043028120804]}},{"type":"Feature","properties":{"highway":"bus_stop","public_transport":"platform","name":"Willem Diemerstraat","ref:IFOPT":"NL:Q:18710190","_quaycode":"NL:Q:18710190","_town":"Musselkanaal","_status":"available","_mode":"bus","_direction":131,"_visuallyAccessible":false,"_disabledAccessible":false,"geojson_lng":7.014442624676641,"geojson_lat":52.92935012628727},"geometry":{"type":"Point","coordinates":[7.014442624676641,52.92935012628727]}},{"type":"Feature","properties":{"highway":"bus_stop","public_transport":"platform","name":"2e Sluis","ref:IFOPT":"NL:Q:12705520","_quaycode":"NL:Q:12705520","_town":"Stadskanaal","_status":"available","_mode":"bus","_direction":303,"_visuallyAccessible":false,"_disabledAccessible":false,"geojson_lng":6.91938771924394,"geojson_lat":53.0085756270986},"geometry":{"type":"Point","coordinates":[6.91938771924394,53.0085756270986]}},{"type":"Feature","properties":{"highway":"bus_stop","public_transport":"platform","name":"Schoolstraat 119","ref:IFOPT":"NL:Q:18700270","_quaycode":"NL:Q:18700270","_town":"Musselkanaal","_status":"available","_mode":"bus","_direction":311,"_visuallyAccessible":false,"_disabledAccessible":false,"geojson_lng":6.982442452047364,"geojson_lat":52.95722183314251},"geometry":{"type":"Point","coordinates":[6.982442452047364,52.95722183314251]}},{"type":"Feature","properties":{"highway":"bus_stop","public_transport":"platform","name":"Europalaan","ref:IFOPT":"NL:Q:12700340","_quaycode":"NL:Q:12700340","_town":"Stadskanaal","_status":"available","_mode":"bus","_direction":332,"_visuallyAccessible":null,"_disabledAccessible":null,"geojson_lng":6.963918479782503,"geojson_lat":52.991099850719486},"geometry":{"type":"Point","coordinates":[6.963918479782503,52.991099850719486]}},{"type":"Feature","properties":{"highway":"bus_stop","public_transport":"platform","name":"Raadhuisplein","ref:IFOPT":"NL:Q:12706320","_quaycode":"NL:Q:12706320","_town":"Stadskanaal","_status":"available","_mode":"bus","_direction":316,"_visuallyAccessible":false,"_disabledAccessible":true,"geojson_lng":6.955594974100603,"geojson_lat":52.98993311999901},"geometry":{"type":"Point","coordinates":[6.955594974100603,52.98993311999901]}},{"type":"Feature","properties":{"highway":"bus_stop","public_transport":"platform","name":"Buinerbrug","ref:IFOPT":"NL:Q:12700090","_quaycode":"NL:Q:12700090","_town":"Stadskanaal","_status":"available","_mode":"bus","_direction":122,"_visuallyAccessible":false,"_disabledAccessible":true,"geojson_lng":6.964669782755001,"geojson_lat":52.97936099141358},"geometry":{"type":"Point","coordinates":[6.964669782755001,52.97936099141358]}},{"type":"Feature","properties":{"highway":"bus_stop","public_transport":"platform","name":"Esperantolaan","ref:IFOPT":"NL:Q:12706120","_quaycode":"NL:Q:12706120","_town":"Stadskanaal","_status":"available","_mode":"bus","_direction":241,"_visuallyAccessible":false,"_disabledAccessible":true,"geojson_lng":6.947462597567358,"geojson_lat":52.99159441784991},"geometry":{"type":"Point","coordinates":[6.947462597567358,52.99159441784991]}},{"type":"Feature","properties":{"highway":"bus_stop","public_transport":"platform","name":"Ambachtstraat","ref:IFOPT":"NL:Q:12708120","_quaycode":"NL:Q:12708120","_town":"Stadskanaal","_status":"available","_mode":"bus","_direction":122,"_visuallyAccessible":false,"_disabledAccessible":true,"geojson_lng":6.977344336343997,"geojson_lat":52.97371947364867},"geometry":{"type":"Point","coordinates":[6.977344336343997,52.97371947364867]}},{"type":"Feature","properties":{"highway":"bus_stop","public_transport":"platform","name":"Esperantolaan","ref:IFOPT":"NL:Q:12706110","_quaycode":"NL:Q:12706110","_town":"Stadskanaal","_status":"available","_mode":"bus","_direction":120,"_visuallyAccessible":true,"_disabledAccessible":false,"geojson_lng":6.9460084849582495,"geojson_lat":52.99133477227507},"geometry":{"type":"Point","coordinates":[6.9460084849582495,52.99133477227507]}},{"type":"Feature","properties":{"highway":"bus_stop","public_transport":"platform","name":"Cypressenhage","ref:IFOPT":"NL:Q:12700080","_quaycode":"NL:Q:12700080","_town":"Stadskanaal","_status":"available","_mode":"bus","_direction":302,"_visuallyAccessible":false,"_disabledAccessible":true,"geojson_lng":6.9643548995490665,"geojson_lat":52.98217830406327},"geometry":{"type":"Point","coordinates":[6.9643548995490665,52.98217830406327]}},{"type":"Feature","properties":{"highway":"bus_stop","public_transport":"platform","name":"Olmenhage","ref:IFOPT":"NL:Q:12700060","_quaycode":"NL:Q:12700060","_town":"Stadskanaal","_status":"available","_mode":"bus","_direction":301,"_visuallyAccessible":false,"_disabledAccessible":true,"geojson_lng":6.961194751317611,"geojson_lat":52.98415232253933},"geometry":{"type":"Point","coordinates":[6.961194751317611,52.98415232253933]}},{"type":"Feature","properties":{"highway":"bus_stop","public_transport":"platform","name":"Molenlaan","ref:IFOPT":"NL:Q:18910080","_quaycode":"NL:Q:18910080","_town":"Nieuw-Buinen","_status":"available","_mode":"bus","_direction":68,"_visuallyAccessible":false,"_disabledAccessible":false,"geojson_lng":6.891061751096694,"geojson_lat":52.93874209095683},"geometry":{"type":"Point","coordinates":[6.891061751096694,52.93874209095683]}},{"type":"Feature","properties":{"highway":"bus_stop","public_transport":"platform","name":"Schoolstraat 122","ref:IFOPT":"NL:Q:18700040","_quaycode":"NL:Q:18700040","_town":"Musselkanaal","_status":"available","_mode":"bus","_direction":311,"_visuallyAccessible":false,"_disabledAccessible":false,"geojson_lng":6.986049369901359,"geojson_lat":52.95411775255402},"geometry":{"type":"Point","coordinates":[6.986049369901359,52.95411775255402]}},{"type":"Feature","properties":{"highway":"bus_stop","public_transport":"platform","name":"Zuiderdiep 319","ref:IFOPT":"NL:Q:18770100","_quaycode":"NL:Q:18770100","_town":"2e Exloërmond","_status":"available","_mode":"bus","_direction":68,"_visuallyAccessible":false,"_disabledAccessible":false,"geojson_lng":6.970092142840802,"geojson_lat":52.922477353281394},"geometry":{"type":"Point","coordinates":[6.970092142840802,52.922477353281394]}},{"type":"Feature","properties":{"highway":"bus_stop","public_transport":"platform","name":"Kerklaan","ref:IFOPT":"NL:Q:18724520","_quaycode":"NL:Q:18724520","_town":"Musselkanaal","_status":"available","_mode":"bus","_direction":114,"_visuallyAccessible":false,"_disabledAccessible":true,"geojson_lng":7.026086518029549,"geojson_lat":52.920975861873565},"geometry":{"type":"Point","coordinates":[7.026086518029549,52.920975861873565]}},{"type":"Feature","properties":{"highway":"bus_stop","public_transport":"platform","name":"Molenlaan","ref:IFOPT":"NL:Q:18910070","_quaycode":"NL:Q:18910070","_town":"Nieuw-Buinen","_status":"available","_mode":"bus","_direction":248,"_visuallyAccessible":false,"_disabledAccessible":false,"geojson_lng":6.890573820237786,"geojson_lat":52.93882912325643},"geometry":{"type":"Point","coordinates":[6.890573820237786,52.93882912325643]}},{"type":"Feature","properties":{"highway":"bus_stop","public_transport":"platform","name":"Klein brugje","ref:IFOPT":"NL:Q:18710010","_quaycode":"NL:Q:18710010","_town":"Musselkanaal","_status":"available","_mode":"bus","_direction":131,"_visuallyAccessible":false,"_disabledAccessible":false,"geojson_lng":6.995816840575657,"geojson_lat":52.94537625028846},"geometry":{"type":"Point","coordinates":[6.995816840575657,52.94537625028846]}},{"type":"Feature","properties":{"highway":"bus_stop","public_transport":"platform","name":"Navolaan","ref:IFOPT":"NL:Q:12706210","_quaycode":"NL:Q:12706210","_town":"Stadskanaal","_status":"available","_mode":"bus","_direction":60,"_visuallyAccessible":false,"_disabledAccessible":true,"geojson_lng":6.952068242290087,"geojson_lat":52.990437715300814},"geometry":{"type":"Point","coordinates":[6.952068242290087,52.990437715300814]}},{"type":"Feature","properties":{"highway":"bus_stop","public_transport":"platform","name":"Kerkstraat","ref:IFOPT":"NL:Q:18710110","_quaycode":"NL:Q:18710110","_town":"Musselkanaal","_status":"available","_mode":"bus","_direction":311,"_visuallyAccessible":false,"_disabledAccessible":false,"geojson_lng":7.010753760136175,"geojson_lat":52.93294158754691},"geometry":{"type":"Point","coordinates":[7.010753760136175,52.93294158754691]}},{"type":"Feature","properties":{"highway":"bus_stop","public_transport":"platform","name":"Esdoornlaan","ref:IFOPT":"NL:Q:18900040","_quaycode":"NL:Q:18900040","_town":"Nieuw-Buinen","_status":"available","_mode":"bus","_direction":68,"_visuallyAccessible":false,"_disabledAccessible":true,"geojson_lng":6.949136553017693,"geojson_lat":52.963944366992024},"geometry":{"type":"Point","coordinates":[6.949136553017693,52.963944366992024]}},{"type":"Feature","properties":{"highway":"bus_stop","public_transport":"platform","name":"Brug 2e Exloërmond","ref:IFOPT":"NL:Q:18710050","_quaycode":"NL:Q:18710050","_town":"Musselkanaal","_status":"available","_mode":"bus","_direction":131,"_visuallyAccessible":false,"_disabledAccessible":true,"geojson_lng":7.0050169878074735,"geojson_lat":52.93748644102869},"geometry":{"type":"Point","coordinates":[7.0050169878074735,52.93748644102869]}},{"type":"Feature","properties":{"highway":"bus_stop","public_transport":"platform","name":"Olmenhage","ref:IFOPT":"NL:Q:12700050","_quaycode":"NL:Q:12700050","_town":"Stadskanaal","_status":"available","_mode":"bus","_direction":121,"_visuallyAccessible":false,"_disabledAccessible":true,"geojson_lng":6.961001566046184,"geojson_lat":52.98416385426714},"geometry":{"type":"Point","coordinates":[6.961001566046184,52.98416385426714]}},{"type":"Feature","properties":{"highway":"bus_stop","public_transport":"platform","name":"Busstation","ref:IFOPT":"NL:Q:12700010","_quaycode":"NL:Q:12700010","_town":"Stadskanaal","_status":"available","_mode":"bus","_direction":135,"_visuallyAccessible":false,"_disabledAccessible":true,"geojson_lng":6.956746044072545,"geojson_lat":52.986745357268916},"geometry":{"type":"Point","coordinates":[6.956746044072545,52.986745357268916]}},{"type":"Feature","properties":{"highway":"bus_stop","public_transport":"platform","name":"Iepenlaan","ref:IFOPT":"NL:Q:18900160","_quaycode":"NL:Q:18900160","_town":"Nieuw-Buinen","_status":"available","_mode":"bus","_direction":69,"_visuallyAccessible":false,"_disabledAccessible":true,"geojson_lng":6.914056198416521,"geojson_lat":52.94794136256996},"geometry":{"type":"Point","coordinates":[6.914056198416521,52.94794136256996]}},{"type":"Feature","properties":{"highway":"bus_stop","public_transport":"platform","name":"Perceel 408","ref:IFOPT":"NL:Q:18770020","_quaycode":"NL:Q:18770020","_town":"Musselkanaal","_status":"available","_mode":"bus","_direction":68,"_visuallyAccessible":false,"_disabledAccessible":false,"geojson_lng":6.997262196121711,"geojson_lat":52.93334895234291},"geometry":{"type":"Point","coordinates":[6.997262196121711,52.93334895234291]}},{"type":"Feature","properties":{"highway":"bus_stop","public_transport":"platform","name":"Brug 1e Exloërmond","ref:IFOPT":"NL:Q:18700060","_quaycode":"NL:Q:18700060","_town":"Musselkanaal","_status":"available","_mode":"bus","_direction":311,"_visuallyAccessible":false,"_disabledAccessible":false,"geojson_lng":6.9894237385445255,"geojson_lat":52.95117845615034},"geometry":{"type":"Point","coordinates":[6.9894237385445255,52.95117845615034]}},{"type":"Feature","properties":{"highway":"bus_stop","public_transport":"platform","name":"Hoofdkade","ref:IFOPT":"NL:Q:18910090","_quaycode":"NL:Q:18910090","_town":"Buinerveen","_status":"available","_mode":"bus","_direction":248,"_visuallyAccessible":false,"_disabledAccessible":false,"geojson_lng":6.884958400164458,"geojson_lat":52.93646401600053},"geometry":{"type":"Point","coordinates":[6.884958400164458,52.93646401600053]}},{"type":"Feature","properties":{"highway":"bus_stop","public_transport":"platform","name":"Tweede Dwarsdiep","ref:IFOPT":"NL:Q:12261820","_quaycode":"NL:Q:12261820","_town":"Gasselternijveenschemond","_status":"available","_mode":"bus","_direction":78,"_visuallyAccessible":true,"_disabledAccessible":true,"geojson_lng":6.896815964972864,"geojson_lat":52.99706210829569},"geometry":{"type":"Point","coordinates":[6.896815964972864,52.99706210829569]}},{"type":"Feature","properties":{"highway":"bus_stop","public_transport":"platform","name":"Noorderstraat","ref:IFOPT":"NL:Q:18910120","_quaycode":"NL:Q:18910120","_town":"Buinerveen","_status":"available","_mode":"bus","_direction":68,"_visuallyAccessible":false,"_disabledAccessible":false,"geojson_lng":6.880804940035356,"geojson_lat":52.93463760891135},"geometry":{"type":"Point","coordinates":[6.880804940035356,52.93463760891135]}},{"type":"Feature","properties":{"highway":"bus_stop","public_transport":"platform","name":"Navolaan","ref:IFOPT":"NL:Q:12706220","_quaycode":"NL:Q:12706220","_town":"Stadskanaal","_status":"available","_mode":"bus","_direction":320,"_visuallyAccessible":false,"_disabledAccessible":false,"geojson_lng":6.950886917427838,"geojson_lat":52.990722805320466},"geometry":{"type":"Point","coordinates":[6.950886917427838,52.990722805320466]}},{"type":"Feature","properties":{"highway":"bus_stop","public_transport":"platform","name":"Poststraat","ref:IFOPT":"NL:Q:18790020","_quaycode":"NL:Q:18790020","_town":"2e Exloërmond","_status":"available","_mode":"bus","_direction":68,"_visuallyAccessible":false,"_disabledAccessible":false,"geojson_lng":6.934248353734678,"geojson_lat":52.90811725066387},"geometry":{"type":"Point","coordinates":[6.934248353734678,52.90811725066387]}},{"type":"Feature","properties":{"highway":"bus_stop","public_transport":"platform","name":"Oosterstraat 38","ref:IFOPT":"NL:Q:12701290","_quaycode":"NL:Q:12701290","_town":"Stadskanaal","_status":"available","_mode":"bus","_direction":303,"_visuallyAccessible":false,"_disabledAccessible":false,"geojson_lng":6.968928031232092,"geojson_lat":52.97688700646055},"geometry":{"type":"Point","coordinates":[6.968928031232092,52.97688700646055]}},{"type":"Feature","properties":{"highway":"bus_stop","public_transport":"platform","name":"Kastanjelaan","ref:IFOPT":"NL:Q:18900120","_quaycode":"NL:Q:18900120","_town":"Nieuw-Buinen","_status":"available","_mode":"bus","_direction":68,"_visuallyAccessible":false,"_disabledAccessible":false,"geojson_lng":6.9259039310440835,"geojson_lat":52.952669663637224},"geometry":{"type":"Point","coordinates":[6.9259039310440835,52.952669663637224]}},{"type":"Feature","properties":{"highway":"bus_stop","public_transport":"platform","name":"Moeskerslaan","ref:IFOPT":"NL:Q:18900060","_quaycode":"NL:Q:18900060","_town":"Nieuw-Buinen","_status":"available","_mode":"bus","_direction":68,"_visuallyAccessible":false,"_disabledAccessible":true,"geojson_lng":6.941740239208336,"geojson_lat":52.96107488120463},"geometry":{"type":"Point","coordinates":[6.941740239208336,52.96107488120463]}},{"type":"Feature","properties":{"highway":"bus_stop","public_transport":"platform","name":"Luxemburglaan","ref:IFOPT":"NL:Q:12701120","_quaycode":"NL:Q:12701120","_town":"Stadskanaal","_status":"available","_mode":"bus","_direction":70,"_visuallyAccessible":false,"_disabledAccessible":true,"geojson_lng":6.961164500143292,"geojson_lat":52.985375048744054},"geometry":{"type":"Point","coordinates":[6.961164500143292,52.985375048744054]}},{"type":"Feature","properties":{"highway":"bus_stop","public_transport":"platform","name":"Maarsdreef","ref:IFOPT":"NL:Q:12700310","_quaycode":"NL:Q:12700310","_town":"Stadskanaal","_status":"available","_mode":"bus","_direction":71,"_visuallyAccessible":false,"_disabledAccessible":true,"geojson_lng":6.950884818737552,"geojson_lat":52.99232263752934},"geometry":{"type":"Point","coordinates":[6.950884818737552,52.99232263752934]}},{"type":"Feature","properties":{"highway":"bus_stop","public_transport":"platform","name":"Zuiderdiep 319","ref:IFOPT":"NL:Q:18770090","_quaycode":"NL:Q:18770090","_town":"2e Exloërmond","_status":"available","_mode":"bus","_direction":248,"_visuallyAccessible":false,"_disabledAccessible":false,"geojson_lng":6.969648169968235,"geojson_lat":52.92253716573988},"geometry":{"type":"Point","coordinates":[6.969648169968235,52.92253716573988]}},{"type":"Feature","properties":{"highway":"bus_stop","public_transport":"platform","name":"Gasselterbrug","ref:IFOPT":"NL:Q:12705720","_quaycode":"NL:Q:12705720","_town":"Stadskanaal","_status":"available","_mode":"bus","_direction":303,"_visuallyAccessible":false,"_disabledAccessible":true,"geojson_lng":6.932323462192559,"geojson_lat":53.00023943412935},"geometry":{"type":"Point","coordinates":[6.932323462192559,53.00023943412935]}},{"type":"Feature","properties":{"highway":"bus_stop","public_transport":"platform","name":"Noorderdiep","ref:IFOPT":"NL:Q:12700260","_quaycode":"NL:Q:12700260","_town":"Nieuw-Buinen","_status":"available","_mode":"bus","_direction":312,"_visuallyAccessible":false,"_disabledAccessible":false,"geojson_lng":6.961068340244466,"geojson_lat":52.97035783115534},"geometry":{"type":"Point","coordinates":[6.961068340244466,52.97035783115534]}},{"type":"Feature","properties":{"highway":"bus_stop","public_transport":"platform","name":"Sluisstraat 101","ref:IFOPT":"NL:Q:18710030","_quaycode":"NL:Q:18710030","_town":"Musselkanaal","_status":"available","_mode":"bus","_direction":131,"_visuallyAccessible":false,"_disabledAccessible":false,"geojson_lng":7.001109495190464,"geojson_lat":52.940837870282806},"geometry":{"type":"Point","coordinates":[7.001109495190464,52.940837870282806]}},{"type":"Feature","properties":{"highway":"bus_stop","public_transport":"platform","name":"Waterschapsweg 7","ref:IFOPT":"NL:Q:18703110","_quaycode":"NL:Q:18703110","_town":"Vledderveen","_status":"available","_mode":"bus","_direction":354,"_visuallyAccessible":false,"_disabledAccessible":false,"geojson_lng":7.004620911723782,"geojson_lat":52.98413875268836},"geometry":{"type":"Point","coordinates":[7.004620911723782,52.98413875268836]}},{"type":"Feature","properties":{"highway":"bus_stop","public_transport":"platform","name":"Zuiderdiep 385","ref:IFOPT":"NL:Q:18770040","_quaycode":"NL:Q:18770040","_town":"2e Exloërmond","_status":"available","_mode":"bus","_direction":68,"_visuallyAccessible":false,"_disabledAccessible":false,"geojson_lng":6.988384609930132,"geojson_lat":52.929783280234275},"geometry":{"type":"Point","coordinates":[6.988384609930132,52.929783280234275]}},{"type":"Feature","properties":{"highway":"bus_stop","public_transport":"platform","name":"Noorderdiep","ref:IFOPT":"NL:Q:12700250","_quaycode":"NL:Q:12700250","_town":"Nieuw-Buinen","_status":"available","_mode":"bus","_direction":132,"_visuallyAccessible":false,"_disabledAccessible":false,"geojson_lng":6.9615502504147315,"geojson_lat":52.96968638964672},"geometry":{"type":"Point","coordinates":[6.9615502504147315,52.96968638964672]}},{"type":"Feature","properties":{"highway":"bus_stop","public_transport":"platform","name":"Eikenhage","ref:IFOPT":"NL:Q:12701220","_quaycode":"NL:Q:12701220","_town":"Stadskanaal","_status":"available","_mode":"bus","_direction":73,"_visuallyAccessible":false,"_disabledAccessible":false,"geojson_lng":6.965991161161962,"geojson_lat":52.98705500415394},"geometry":{"type":"Point","coordinates":[6.965991161161962,52.98705500415394]}},{"type":"Feature","properties":{"highway":"bus_stop","public_transport":"platform","name":"Kavelingen 52a","ref:IFOPT":"NL:Q:18720100","_quaycode":"NL:Q:18720100","_town":"Musselkanaal","_status":"available","_mode":"bus","_direction":199,"_visuallyAccessible":false,"_disabledAccessible":false,"geojson_lng":7.014383563323861,"geojson_lat":52.9221875271915},"geometry":{"type":"Point","coordinates":[7.014383563323861,52.9221875271915]}},{"type":"Feature","properties":{"highway":"bus_stop","public_transport":"platform","name":"Moeskerslaan","ref:IFOPT":"NL:Q:18900050","_quaycode":"NL:Q:18900050","_town":"Nieuw-Buinen","_status":"available","_mode":"bus","_direction":248,"_visuallyAccessible":false,"_disabledAccessible":false,"geojson_lng":6.941064978122659,"geojson_lat":52.96092188653528},"geometry":{"type":"Point","coordinates":[6.941064978122659,52.96092188653528]}},{"type":"Feature","properties":{"highway":"bus_stop","public_transport":"platform","name":"Brug 2e Exloërmond","ref:IFOPT":"NL:Q:18710065","_quaycode":"NL:Q:18710065","_town":"Musselkanaal","_status":"available","_mode":"bus","_direction":310,"_visuallyAccessible":false,"_disabledAccessible":true,"geojson_lng":7.005760306593029,"geojson_lat":52.937071912999606},"geometry":{"type":"Point","coordinates":[7.005760306593029,52.937071912999606]}},{"type":"Feature","properties":{"highway":"bus_stop","public_transport":"platform","name":"Schoolstraat 119","ref:IFOPT":"NL:Q:18700260","_quaycode":"NL:Q:18700260","_town":"Musselkanaal","_status":"available","_mode":"bus","_direction":131,"_visuallyAccessible":false,"_disabledAccessible":false,"geojson_lng":6.981983595940863,"geojson_lat":52.9572908742571},"geometry":{"type":"Point","coordinates":[6.981983595940863,52.9572908742571]}},{"type":"Feature","properties":{"highway":"bus_stop","public_transport":"platform","name":"Drentse Mondenweg","ref:IFOPT":"NL:Q:18780080","_quaycode":"NL:Q:18780080","_town":"2e Exloërmond","_status":"available","_mode":"bus","_direction":68,"_visuallyAccessible":false,"_disabledAccessible":false,"geojson_lng":6.950341324359507,"geojson_lat":52.91454963214901},"geometry":{"type":"Point","coordinates":[6.950341324359507,52.91454963214901]}},{"type":"Feature","properties":{"highway":"bus_stop","public_transport":"platform","name":"Spont","ref:IFOPT":"NL:Q:12705410","_quaycode":"NL:Q:12705410","_town":"Stadskanaal","_status":"available","_mode":"bus","_direction":136,"_visuallyAccessible":false,"_disabledAccessible":true,"geojson_lng":6.956860662340155,"geojson_lat":52.9882717592097},"geometry":{"type":"Point","coordinates":[6.956860662340155,52.9882717592097]}},{"type":"Feature","properties":{"highway":"bus_stop","public_transport":"platform","name":"Klein brugje","ref:IFOPT":"NL:Q:18710020","_quaycode":"NL:Q:18710020","_town":"Musselkanaal","_status":"available","_mode":"bus","_direction":311,"_visuallyAccessible":false,"_disabledAccessible":false,"geojson_lng":6.997581756069017,"geojson_lat":52.94401327343375},"geometry":{"type":"Point","coordinates":[6.997581756069017,52.94401327343375]}},{"type":"Feature","properties":{"highway":"bus_stop","public_transport":"platform","name":"IJzeren klap","ref:IFOPT":"NL:Q:18710210","_quaycode":"NL:Q:18710210","_town":"Musselkanaal","_status":"available","_mode":"bus","_direction":131,"_visuallyAccessible":false,"_disabledAccessible":true,"geojson_lng":7.017267430881836,"geojson_lat":52.92692978826426},"geometry":{"type":"Point","coordinates":[7.017267430881836,52.92692978826426]}},{"type":"Feature","properties":{"highway":"bus_stop","public_transport":"platform","name":"Kavelingen 49","ref:IFOPT":"NL:Q:18720080","_quaycode":"NL:Q:18720080","_town":"Musselkanaal","_status":"available","_mode":"bus","_direction":199,"_visuallyAccessible":false,"_disabledAccessible":false,"geojson_lng":7.012835592861788,"geojson_lat":52.91736409717994},"geometry":{"type":"Point","coordinates":[7.012835592861788,52.91736409717994]}},{"type":"Feature","properties":{"highway":"bus_stop","public_transport":"platform","name":"Sluisstraat 28","ref:IFOPT":"NL:Q:18700250","_quaycode":"NL:Q:18700250","_town":"Musselkanaal","_status":"available","_mode":"bus","_direction":311,"_visuallyAccessible":false,"_disabledAccessible":false,"geojson_lng":6.99357956883615,"geojson_lat":52.947248873558344},"geometry":{"type":"Point","coordinates":[6.99357956883615,52.947248873558344]}},{"type":"Feature","properties":{"highway":"bus_stop","public_transport":"platform","name":"Zuiderdiep 263","ref:IFOPT":"NL:Q:18780030","_quaycode":"NL:Q:18780030","_town":"2e Exloërmond","_status":"available","_mode":"bus","_direction":248,"_visuallyAccessible":false,"_disabledAccessible":false,"geojson_lng":6.960110359731808,"geojson_lat":52.91868157211051},"geometry":{"type":"Point","coordinates":[6.960110359731808,52.91868157211051]}},{"type":"Feature","properties":{"highway":"bus_stop","public_transport":"platform","name":"Jasmijnstraat","ref:IFOPT":"NL:Q:12700240","_quaycode":"NL:Q:12700240","_town":"Nieuw-Buinen","_status":"available","_mode":"bus","_direction":313,"_visuallyAccessible":false,"_disabledAccessible":false,"geojson_lng":6.957167809685328,"geojson_lat":52.974076137154846},"geometry":{"type":"Point","coordinates":[6.957167809685328,52.974076137154846]}},{"type":"Feature","properties":{"highway":"bus_stop","public_transport":"platform","name":"Raadhuisplein","ref:IFOPT":"NL:Q:12706310","_quaycode":"NL:Q:12706310","_town":"Stadskanaal","_status":"available","_mode":"bus","_direction":136,"_visuallyAccessible":false,"_disabledAccessible":true,"geojson_lng":6.95573478290527,"geojson_lat":52.98967963034883},"geometry":{"type":"Point","coordinates":[6.95573478290527,52.98967963034883]}},{"type":"Feature","properties":{"highway":"bus_stop","public_transport":"platform","name":"4e Sluis","ref:IFOPT":"NL:Q:18700020","_quaycode":"NL:Q:18700020","_town":"Musselkanaal","_status":"available","_mode":"bus","_direction":311,"_visuallyAccessible":false,"_disabledAccessible":false,"geojson_lng":6.979137920936401,"geojson_lat":52.96006112201974},"geometry":{"type":"Point","coordinates":[6.979137920936401,52.96006112201974]}},{"type":"Feature","properties":{"highway":"bus_stop","public_transport":"platform","name":"Boerveenschemond","ref:IFOPT":"NL:Q:12784610","_quaycode":"NL:Q:12784610","_town":"Stadskanaal","_status":"available","_mode":"bus","_direction":123,"_visuallyAccessible":false,"_disabledAccessible":false,"geojson_lng":6.910737430239123,"geojson_lat":53.013880961548175},"geometry":{"type":"Point","coordinates":[6.910737430239123,53.013880961548175]}},{"type":"Feature","properties":{"highway":"bus_stop","public_transport":"platform","name":"Buinerbrug","ref:IFOPT":"NL:Q:12700100","_quaycode":"NL:Q:12700100","_town":"Stadskanaal","_status":"available","_mode":"bus","_direction":307,"_visuallyAccessible":false,"_disabledAccessible":true,"geojson_lng":6.965638755052847,"geojson_lat":52.97897970044956},"geometry":{"type":"Point","coordinates":[6.965638755052847,52.97897970044956]}},{"type":"Feature","properties":{"highway":"bus_stop","public_transport":"platform","name":"Perceel 408","ref:IFOPT":"NL:Q:18770010","_quaycode":"NL:Q:18770010","_town":"Musselkanaal","_status":"available","_mode":"bus","_direction":248,"_visuallyAccessible":false,"_disabledAccessible":false,"geojson_lng":6.9971310395343425,"geojson_lat":52.93342262387835},"geometry":{"type":"Point","coordinates":[6.9971310395343425,52.93342262387835]}},{"type":"Feature","properties":{"highway":"bus_stop","public_transport":"platform","name":"Eikenlaan","ref:IFOPT":"NL:Q:18910010","_quaycode":"NL:Q:18910010","_town":"Nieuw-Buinen","_status":"available","_mode":"bus","_direction":248,"_visuallyAccessible":false,"_disabledAccessible":false,"geojson_lng":6.906580675999892,"geojson_lat":52.94521454848812},"geometry":{"type":"Point","coordinates":[6.906580675999892,52.94521454848812]}},{"type":"Feature","properties":{"highway":"bus_stop","public_transport":"platform","name":"1e Afdraai","ref:IFOPT":"NL:Q:12700120","_quaycode":"NL:Q:12700120","_town":"Stadskanaal","_status":"available","_mode":"bus","_direction":303,"_visuallyAccessible":false,"_disabledAccessible":true,"geojson_lng":6.973978115523782,"geojson_lat":52.973683330957016},"geometry":{"type":"Point","coordinates":[6.973978115523782,52.973683330957016]}},{"type":"Feature","properties":{"highway":"bus_stop","public_transport":"platform","name":"Maarsveld","ref:IFOPT":"NL:Q:12704510","_quaycode":"NL:Q:12704510","_town":"Stadskanaal","_status":"available","_mode":"bus","_direction":148,"_visuallyAccessible":null,"_disabledAccessible":null,"geojson_lng":6.9602128339916405,"geojson_lat":52.99489653708458},"geometry":{"type":"Point","coordinates":[6.9602128339916405,52.99489653708458]}},{"type":"Feature","properties":{"highway":"bus_stop","public_transport":"platform","name":"Beukenlaan","ref:IFOPT":"NL:Q:18900020","_quaycode":"NL:Q:18900020","_town":"Nieuw-Buinen","_status":"available","_mode":"bus","_direction":68,"_visuallyAccessible":false,"_disabledAccessible":true,"geojson_lng":6.954802002010119,"geojson_lat":52.966260907516315},"geometry":{"type":"Point","coordinates":[6.954802002010119,52.966260907516315]}},{"type":"Feature","properties":{"highway":"bus_stop","public_transport":"platform","name":"Hollandialaan","ref:IFOPT":"NL:Q:18910040","_quaycode":"NL:Q:18910040","_town":"Nieuw-Buinen","_status":"available","_mode":"bus","_direction":68,"_visuallyAccessible":false,"_disabledAccessible":false,"geojson_lng":6.901227825732981,"geojson_lat":52.94274799013108},"geometry":{"type":"Point","coordinates":[6.901227825732981,52.94274799013108]}},{"type":"Feature","properties":{"highway":"bus_stop","public_transport":"platform","name":"Badstraat","ref:IFOPT":"NL:Q:12784720","_quaycode":"NL:Q:12784720","_town":"Stadskanaal","_status":"available","_mode":"bus","_direction":303,"_visuallyAccessible":false,"_disabledAccessible":false,"geojson_lng":6.916049614642526,"geojson_lat":53.01068549419458},"geometry":{"type":"Point","coordinates":[6.916049614642526,53.01068549419458]}},{"type":"Feature","properties":{"highway":"bus_stop","public_transport":"platform","name":"Sluisstraat 101","ref:IFOPT":"NL:Q:18710040","_quaycode":"NL:Q:18710040","_town":"Musselkanaal","_status":"available","_mode":"bus","_direction":311,"_visuallyAccessible":false,"_disabledAccessible":false,"geojson_lng":7.001028588417268,"geojson_lat":52.94106366094896},"geometry":{"type":"Point","coordinates":[7.001028588417268,52.94106366094896]}},{"type":"Feature","properties":{"highway":"bus_stop","public_transport":"platform","name":"Molenstraat","ref:IFOPT":"NL:Q:12705610","_quaycode":"NL:Q:12705610","_town":"Stadskanaal","_status":"available","_mode":"bus","_direction":122,"_visuallyAccessible":false,"_disabledAccessible":false,"geojson_lng":6.927378101421136,"geojson_lat":53.00320624185194},"geometry":{"type":"Point","coordinates":[6.927378101421136,53.00320624185194]}},{"type":"Feature","properties":{"highway":"bus_stop","public_transport":"platform","name":"Esdoornlaan","ref:IFOPT":"NL:Q:18900030","_quaycode":"NL:Q:18900030","_town":"Nieuw-Buinen","_status":"available","_mode":"bus","_direction":248,"_visuallyAccessible":false,"_disabledAccessible":false,"geojson_lng":6.948255498426956,"geojson_lat":52.963866004492424},"geometry":{"type":"Point","coordinates":[6.948255498426956,52.963866004492424]}},{"type":"Feature","properties":{"highway":"bus_stop","public_transport":"platform","name":"Tuinstraat","ref:IFOPT":"NL:Q:12251810","_quaycode":"NL:Q:12251810","_town":"Gasselternijveen","_status":"available","_mode":"bus","_direction":259,"_visuallyAccessible":true,"_disabledAccessible":true,"geojson_lng":6.865909482828896,"geojson_lat":52.9919210893697},"geometry":{"type":"Point","coordinates":[6.865909482828896,52.9919210893697]}},{"type":"Feature","properties":{"highway":"bus_stop","public_transport":"platform","name":"Stationsbrug","ref:IFOPT":"NL:Q:12705810","_quaycode":"NL:Q:12705810","_town":"Stadskanaal","_status":"available","_mode":"bus","_direction":123,"_visuallyAccessible":false,"_disabledAccessible":true,"geojson_lng":6.936280431653739,"geojson_lat":52.997563841420586},"geometry":{"type":"Point","coordinates":[6.936280431653739,52.997563841420586]}},{"type":"Feature","properties":{"highway":"bus_stop","public_transport":"platform","name":"2e Afdraai","ref:IFOPT":"NL:Q:12700140","_quaycode":"NL:Q:12700140","_town":"Stadskanaal","_status":"available","_mode":"bus","_direction":29,"_visuallyAccessible":false,"_disabledAccessible":true,"geojson_lng":6.972136109583926,"geojson_lat":52.96807245000542},"geometry":{"type":"Point","coordinates":[6.972136109583926,52.96807245000542]}},{"type":"Feature","properties":{"highway":"bus_stop","public_transport":"platform","name":"Beukenlaan","ref:IFOPT":"NL:Q:18900010","_quaycode":"NL:Q:18900010","_town":"Nieuw-Buinen","_status":"available","_mode":"bus","_direction":248,"_visuallyAccessible":false,"_disabledAccessible":false,"geojson_lng":6.954523174393752,"geojson_lat":52.96637241828526},"geometry":{"type":"Point","coordinates":[6.954523174393752,52.96637241828526]}},{"type":"Feature","properties":{"highway":"bus_stop","public_transport":"platform","name":"2e Afdraai","ref:IFOPT":"NL:Q:12700130","_quaycode":"NL:Q:12700130","_town":"Stadskanaal","_status":"available","_mode":"bus","_direction":209,"_visuallyAccessible":false,"_disabledAccessible":true,"geojson_lng":6.971588670283523,"geojson_lat":52.96775615072033},"geometry":{"type":"Point","coordinates":[6.971588670283523,52.96775615072033]}},{"type":"Feature","properties":{"highway":"bus_stop","public_transport":"platform","name":"Luxemburglaan","ref:IFOPT":"NL:Q:12701110","_quaycode":"NL:Q:12701110","_town":"Stadskanaal","_status":"available","_mode":"bus","_direction":250,"_visuallyAccessible":false,"_disabledAccessible":true,"geojson_lng":6.96130496962211,"geojson_lat":52.98555295286245},"geometry":{"type":"Point","coordinates":[6.96130496962211,52.98555295286245]}},{"type":"Feature","properties":{"highway":"bus_stop","public_transport":"platform","name":"Zuiderdiep 263","ref:IFOPT":"NL:Q:18780040","_quaycode":"NL:Q:18780040","_town":"2e Exloërmond","_status":"available","_mode":"bus","_direction":68,"_visuallyAccessible":false,"_disabledAccessible":false,"geojson_lng":6.9619159804598105,"geojson_lat":52.919268945289225},"geometry":{"type":"Point","coordinates":[6.9619159804598105,52.919268945289225]}},{"type":"Feature","properties":{"highway":"bus_stop","public_transport":"platform","name":"Kavelingen 42","ref:IFOPT":"NL:Q:18720050","_quaycode":"NL:Q:18720050","_town":"Musselkanaal","_status":"available","_mode":"bus","_direction":19,"_visuallyAccessible":false,"_disabledAccessible":false,"geojson_lng":7.0117918081095585,"geojson_lat":52.91369323366477},"geometry":{"type":"Point","coordinates":[7.0117918081095585,52.91369323366477]}},{"type":"Feature","properties":{"highway":"bus_stop","public_transport":"platform","name":"Brug 1e Exloërmond","ref:IFOPT":"NL:Q:18700050","_quaycode":"NL:Q:18700050","_town":"Musselkanaal","_status":"available","_mode":"bus","_direction":131,"_visuallyAccessible":false,"_disabledAccessible":false,"geojson_lng":6.988937851157622,"geojson_lat":52.95131979013105},"geometry":{"type":"Point","coordinates":[6.988937851157622,52.95131979013105]}},{"type":"Feature","properties":{"highway":"bus_stop","public_transport":"platform","name":"Kavelingen 42","ref:IFOPT":"NL:Q:18720060","_quaycode":"NL:Q:18720060","_town":"Musselkanaal","_status":"available","_mode":"bus","_direction":199,"_visuallyAccessible":false,"_disabledAccessible":false,"geojson_lng":7.011561867507902,"geojson_lat":52.913507614998736},"geometry":{"type":"Point","coordinates":[7.011561867507902,52.913507614998736]}},{"type":"Feature","properties":{"highway":"bus_stop","public_transport":"platform","name":"Waterland","ref:IFOPT":"NL:Q:12700380","_quaycode":"NL:Q:12700380","_town":"Stadskanaal","_status":"available","_mode":"bus","_direction":334,"_visuallyAccessible":null,"_disabledAccessible":null,"geojson_lng":6.955526381491541,"geojson_lat":53.000018167323326},"geometry":{"type":"Point","coordinates":[6.955526381491541,53.000018167323326]}},{"type":"Feature","properties":{"highway":"bus_stop","public_transport":"platform","name":"Willem Diemerstraat","ref:IFOPT":"NL:Q:18710180","_quaycode":"NL:Q:18710180","_town":"Musselkanaal","_status":"available","_mode":"bus","_direction":311,"_visuallyAccessible":false,"_disabledAccessible":true,"geojson_lng":7.014932543976175,"geojson_lat":52.929325472957885},"geometry":{"type":"Point","coordinates":[7.014932543976175,52.929325472957885]}},{"type":"Feature","properties":{"highway":"bus_stop","public_transport":"platform","name":"Maarsdreef","ref:IFOPT":"NL:Q:12700320","_quaycode":"NL:Q:12700320","_town":"Stadskanaal","_status":"available","_mode":"bus","_direction":252,"_visuallyAccessible":false,"_disabledAccessible":true,"geojson_lng":6.950046883109512,"geojson_lat":52.992216756483415},"geometry":{"type":"Point","coordinates":[6.950046883109512,52.992216756483415]}}]}