{"type":"FeatureCollection","features":[{"type":"Feature","properties":{"SeqNo":"711059","Type":"S","DHID":"de:03151:1192","Parent":"de:03151:1192","Name":"Steinhorst (Kr GF), Räderloher Straße","MunicipalityCode":"03151029","Municipality":"Steinhorst","DistrictCode":"","District":"","Description":"","Authority":"HannIT","DelfiName":"-","THID":"D90C4F0004A8","LastOperationDate":"2025-02-28T00:00:00","SEV":"nein","longitude":"10,405743","latitude":"52,703475","geojson_lng":10.405743,"geojson_lat":52.703475},"geometry":{"type":"Point","coordinates":[10.405743,52.703475]}},{"type":"Feature","properties":{"SeqNo":"711060","Type":"A","DHID":"de:03151:1192:1","Parent":"de:03151:1192","Name":"Bus","MunicipalityCode":"00000000","Municipality":"-","DistrictCode":"-","District":"-","Description":"","Authority":"HannIT","DelfiName":"-","THID":"-","LastOperationDate":"","SEV":"nein","longitude":"10,405752","latitude":"52,703475","geojson_lng":10.405752,"geojson_lat":52.703475},"geometry":{"type":"Point","coordinates":[10.405752,52.703475]}},{"type":"Feature","properties":{"SeqNo":"711061","Type":"Q","DHID":"de:03151:1192:1:1","Parent":"de:03151:1192:1","Name":"Rg Auermühle","MunicipalityCode":"00000000","Municipality":"-","DistrictCode":"-","District":"-","Description":"","Authority":"HannIT","DelfiName":"-","THID":"-","LastOperationDate":"","SEV":"nein","longitude":"10,40568","latitude":"52,703442","geojson_lng":10.40568,"geojson_lat":52.703442},"geometry":{"type":"Point","coordinates":[10.40568,52.703442]}},{"type":"Feature","properties":{"SeqNo":"711062","Type":"Q","DHID":"de:03151:1192:1:2","Parent":"de:03151:1192:1","Name":"Rg Steinhorst","MunicipalityCode":"00000000","Municipality":"-","DistrictCode":"-","District":"-","Description":"","Authority":"HannIT","DelfiName":"-","THID":"-","LastOperationDate":"","SEV":"nein","longitude":"10,405824","latitude":"52,70354","geojson_lng":10.405824,"geojson_lat":52.70354},"geometry":{"type":"Point","coordinates":[10.405824,52.70354]}},{"type":"Feature","properties":{"SeqNo":"711063","Type":"S","DHID":"de:03151:1193","Parent":"de:03151:1193","Name":"Steinhorst, Hof Altmark","MunicipalityCode":"03151029","Municipality":"Steinhorst","DistrictCode":"","District":"","Description":"","Authority":"HannIT","DelfiName":"-","THID":"D90C4F0004A9","LastOperationDate":"2025-02-28T00:00:00","SEV":"nein","longitude":"10,406632","latitude":"52,708749","geojson_lng":10.406632,"geojson_lat":52.708749},"geometry":{"type":"Point","coordinates":[10.406632,52.708749]}},{"type":"Feature","properties":{"SeqNo":"711064","Type":"A","DHID":"de:03151:1193:1","Parent":"de:03151:1193","Name":"Bus","MunicipalityCode":"00000000","Municipality":"-","DistrictCode":"-","District":"-","Description":"","Authority":"HannIT","DelfiName":"-","THID":"-","LastOperationDate":"","SEV":"nein","longitude":"10,406632","latitude":"52,708749","geojson_lng":10.406632,"geojson_lat":52.708749},"geometry":{"type":"Point","coordinates":[10.406632,52.708749]}},{"type":"Feature","properties":{"SeqNo":"711065","Type":"Q","DHID":"de:03151:1193:0:1","Parent":"de:03151:1193:1","Name":"Rg Auermühle","MunicipalityCode":"00000000","Municipality":"-","DistrictCode":"-","District":"-","Description":"","Authority":"HannIT","DelfiName":"-","THID":"-","LastOperationDate":"","SEV":"nein","longitude":"10,406569","latitude":"52,708651","geojson_lng":10.406569,"geojson_lat":52.708651},"geometry":{"type":"Point","coordinates":[10.406569,52.708651]}},{"type":"Feature","properties":{"SeqNo":"711066","Type":"Q","DHID":"de:03151:1193:0:2","Parent":"de:03151:1193:1","Name":"Rg Steinhorst","MunicipalityCode":"00000000","Municipality":"-","DistrictCode":"-","District":"-","Description":"","Authority":"HannIT","DelfiName":"-","THID":"-","LastOperationDate":"","SEV":"nein","longitude":"10,406695","latitude":"52,708825","geojson_lng":10.406695,"geojson_lat":52.708825},"geometry":{"type":"Point","coordinates":[10.406695,52.708825]}}]}