{"type":"FeatureCollection","features":[{"type":"Feature","properties":{"SeqNo":"71535","Type":"S","DHID":"de:08336:11147","Parent":"de:08336:11147","Name":"Liel Denkmal","MunicipalityCode":"08336078","Municipality":"Schliengen","DistrictCode":"","District":"","Description":"","Authority":"NVBW","DelfiName":"-","THID":"D92090002B8B","LastOperationDate":"2024-12-14T00:00:00","SEV":"nein","longitude":"7,609449","latitude":"47,739223","geojson_lng":7.609449,"geojson_lat":47.739223},"geometry":{"type":"Point","coordinates":[7.609449,47.739223]}},{"type":"Feature","properties":{"SeqNo":"71536","Type":"A","DHID":"de:08336:11147:1","Parent":"de:08336:11147","Name":"Bus","MunicipalityCode":"00000000","Municipality":"-","DistrictCode":"-","District":"-","Description":"","Authority":"NVBW","DelfiName":"-","THID":"-","LastOperationDate":"","SEV":"nein","longitude":"7,609449","latitude":"47,739223","geojson_lng":7.609449,"geojson_lat":47.739223},"geometry":{"type":"Point","coordinates":[7.609449,47.739223]}},{"type":"Feature","properties":{"SeqNo":"71538","Type":"Q","DHID":"de:08336:11147:1:2","Parent":"de:08336:11147:1","Name":"Ri Schliengen","MunicipalityCode":"00000000","Municipality":"-","DistrictCode":"-","District":"-","Description":"","Authority":"NVBW","DelfiName":"-","THID":"-","LastOperationDate":"","SEV":"nein","longitude":"7,609359","latitude":"47,739489","geojson_lng":7.609359,"geojson_lat":47.739489},"geometry":{"type":"Point","coordinates":[7.609359,47.739489]}},{"type":"Feature","properties":{"SeqNo":"71887","Type":"S","DHID":"de:08336:11517","Parent":"de:08336:11517","Name":"Liel Schule","MunicipalityCode":"08336078","Municipality":"Schliengen","DistrictCode":"","District":"","Description":"","Authority":"NVBW","DelfiName":"-","THID":"D92090002CFD","LastOperationDate":"2024-12-13T00:00:00","SEV":"nein","longitude":"7,609557","latitude":"47,739398","geojson_lng":7.609557,"geojson_lat":47.739398},"geometry":{"type":"Point","coordinates":[7.609557,47.739398]}},{"type":"Feature","properties":{"SeqNo":"71888","Type":"A","DHID":"de:08336:11517:1","Parent":"de:08336:11517","Name":"Bus","MunicipalityCode":"00000000","Municipality":"-","DistrictCode":"-","District":"-","Description":"","Authority":"NVBW","DelfiName":"-","THID":"-","LastOperationDate":"","SEV":"nein","longitude":"7,609557","latitude":"47,739398","geojson_lng":7.609557,"geojson_lat":47.739398},"geometry":{"type":"Point","coordinates":[7.609557,47.739398]}},{"type":"Feature","properties":{"SeqNo":"71889","Type":"Q","DHID":"de:08336:11517:1:1","Parent":"de:08336:11517:1","Name":"Steig 1","MunicipalityCode":"00000000","Municipality":"-","DistrictCode":"-","District":"-","Description":"","Authority":"NVBW","DelfiName":"-","THID":"-","LastOperationDate":"","SEV":"nein","longitude":"7,609575","latitude":"47,73941","geojson_lng":7.609575,"geojson_lat":47.73941},"geometry":{"type":"Point","coordinates":[7.609575,47.73941]}},{"type":"Feature","properties":{"SeqNo":"72026","Type":"S","DHID":"de:08336:27123","Parent":"de:08336:27123","Name":"Schliengen Liel Sonne","MunicipalityCode":"08336078","Municipality":"Schliengen","DistrictCode":"","District":"","Description":"","Authority":"NVBW","DelfiName":"-","THID":"D920900069F3","LastOperationDate":"2024-12-14T00:00:00","SEV":"nein","longitude":"7,602496","latitude":"47,740057","geojson_lng":7.602496,"geojson_lat":47.740057},"geometry":{"type":"Point","coordinates":[7.602496,47.740057]}},{"type":"Feature","properties":{"SeqNo":"73197","Type":"S","DHID":"de:08336:5154","Parent":"de:08336:5154","Name":"Liel Sonne","MunicipalityCode":"08336078","Municipality":"Schliengen","DistrictCode":"-","District":"-","Description":"","Authority":"NVBW","DelfiName":"-","THID":"D92090001422","LastOperationDate":"2025-06-14T00:00:00","SEV":"nein","longitude":"7,603619","latitude":"47,739694","geojson_lng":7.603619,"geojson_lat":47.739694},"geometry":{"type":"Point","coordinates":[7.603619,47.739694]}},{"type":"Feature","properties":{"SeqNo":"73198","Type":"A","DHID":"de:08336:5154:1","Parent":"de:08336:5154","Name":"Bus","MunicipalityCode":"00000000","Municipality":"-","DistrictCode":"-","District":"-","Description":"","Authority":"NVBW","DelfiName":"-","THID":"-","LastOperationDate":"","SEV":"nein","longitude":"7,603619","latitude":"47,739694","geojson_lng":7.603619,"geojson_lat":47.739694},"geometry":{"type":"Point","coordinates":[7.603619,47.739694]}},{"type":"Feature","properties":{"SeqNo":"73199","Type":"Q","DHID":"de:08336:5154:1:1","Parent":"de:08336:5154:1","Name":"Ri. Südosten (Riedlingen)","MunicipalityCode":"00000000","Municipality":"-","DistrictCode":"-","District":"-","Description":"","Authority":"NVBW","DelfiName":"-","THID":"-","LastOperationDate":"","SEV":"nein","longitude":"7,603628","latitude":"47,7397","geojson_lng":7.603628,"geojson_lat":47.7397},"geometry":{"type":"Point","coordinates":[7.603628,47.7397]}},{"type":"Feature","properties":{"SeqNo":"73200","Type":"Q","DHID":"de:08336:5154:1:2","Parent":"de:08336:5154:1","Name":"Ri. Nordwesten (Schliengen)","MunicipalityCode":"00000000","Municipality":"-","DistrictCode":"-","District":"-","Description":"","Authority":"NVBW","DelfiName":"-","THID":"-","LastOperationDate":"","SEV":"nein","longitude":"7,603628","latitude":"47,7397","geojson_lng":7.603628,"geojson_lat":47.7397},"geometry":{"type":"Point","coordinates":[7.603628,47.7397]}},{"type":"Feature","properties":{"SeqNo":"73231","Type":"S","DHID":"de:08336:5170","Parent":"de:08336:5170","Name":"Liel Fambergstraße","MunicipalityCode":"08336078","Municipality":"Schliengen","DistrictCode":"","District":"","Description":"","Authority":"NVBW","DelfiName":"-","THID":"D92090001432","LastOperationDate":"2025-06-14T00:00:00","SEV":"nein","longitude":"7,6067","latitude":"47,741332","geojson_lng":7.6067,"geojson_lat":47.741332},"geometry":{"type":"Point","coordinates":[7.6067,47.741332]}},{"type":"Feature","properties":{"SeqNo":"73232","Type":"A","DHID":"de:08336:5170:1","Parent":"de:08336:5170","Name":"Bus","MunicipalityCode":"00000000","Municipality":"-","DistrictCode":"-","District":"-","Description":"","Authority":"NVBW","DelfiName":"-","THID":"-","LastOperationDate":"","SEV":"nein","longitude":"7,6067","latitude":"47,741332","geojson_lng":7.6067,"geojson_lat":47.741332},"geometry":{"type":"Point","coordinates":[7.6067,47.741332]}},{"type":"Feature","properties":{"SeqNo":"73233","Type":"Q","DHID":"de:08336:5170:1:1","Parent":"de:08336:5170:1","Name":"Ri. Nordosten (Niedereggenen)","MunicipalityCode":"00000000","Municipality":"-","DistrictCode":"-","District":"-","Description":"","Authority":"NVBW","DelfiName":"-","THID":"-","LastOperationDate":"","SEV":"nein","longitude":"7,606709","latitude":"47,74135","geojson_lng":7.606709,"geojson_lat":47.74135},"geometry":{"type":"Point","coordinates":[7.606709,47.74135]}},{"type":"Feature","properties":{"SeqNo":"73234","Type":"Q","DHID":"de:08336:5170:1:2","Parent":"de:08336:5170:1","Name":"Ri. Südwesten (Liel)","MunicipalityCode":"00000000","Municipality":"-","DistrictCode":"-","District":"-","Description":"","Authority":"NVBW","DelfiName":"-","THID":"-","LastOperationDate":"","SEV":"nein","longitude":"7,606709","latitude":"47,741332","geojson_lng":7.606709,"geojson_lat":47.741332},"geometry":{"type":"Point","coordinates":[7.606709,47.741332]}}]}