{"type":"FeatureCollection","features":[{"type":"Feature","properties":{"SeqNo":"672297","Type":"S","DHID":"de:05916:7518","Parent":"de:05916:7518","Name":"Herne Bruchstr.","MunicipalityCode":"05916000","Municipality":"Herne","DistrictCode":"","District":"","Description":"","Authority":"VRR","DelfiName":"-","THID":"D9171C001D5E","LastOperationDate":"2025-06-14T00:00:00","SEV":"nein","longitude":"7,284726","latitude":"51,549363","geojson_lng":7.284726,"geojson_lat":51.549363},"geometry":{"type":"Point","coordinates":[7.284726,51.549363]}},{"type":"Feature","properties":{"SeqNo":"672298","Type":"A","DHID":"de:05916:7518:1","Parent":"de:05916:7518","Name":"Bus","MunicipalityCode":"00000000","Municipality":"-","DistrictCode":"-","District":"-","Description":"","Authority":"VRR","DelfiName":"-","THID":"-","LastOperationDate":"","SEV":"nein","longitude":"7,284726","latitude":"51,549363","geojson_lng":7.284726,"geojson_lat":51.549363},"geometry":{"type":"Point","coordinates":[7.284726,51.549363]}},{"type":"Feature","properties":{"SeqNo":"672299","Type":"Q","DHID":"de:05916:7518:1:1","Parent":"de:05916:7518:1","Name":"> Herne","MunicipalityCode":"00000000","Municipality":"-","DistrictCode":"-","District":"-","Description":"","Authority":"VRR","DelfiName":"-","THID":"-","LastOperationDate":"","SEV":"nein","longitude":"7,284762","latitude":"51,549413","geojson_lng":7.284762,"geojson_lat":51.549413},"geometry":{"type":"Point","coordinates":[7.284762,51.549413]}},{"type":"Feature","properties":{"SeqNo":"672300","Type":"Q","DHID":"de:05916:7518:1:2","Parent":"de:05916:7518:1","Name":"> Castrop","MunicipalityCode":"00000000","Municipality":"-","DistrictCode":"-","District":"-","Description":"","Authority":"VRR","DelfiName":"-","THID":"-","LastOperationDate":"","SEV":"nein","longitude":"7,284484","latitude":"51,549284","geojson_lng":7.284484,"geojson_lat":51.549284},"geometry":{"type":"Point","coordinates":[7.284484,51.549284]}},{"type":"Feature","properties":{"SeqNo":"672998","Type":"S","DHID":"de:05916:7670","Parent":"de:05916:7670","Name":"Herne Im Ostenfeld","MunicipalityCode":"05916000","Municipality":"Herne","DistrictCode":"","District":"","Description":"","Authority":"VRR","DelfiName":"-","THID":"D9171C001DF6","LastOperationDate":"2025-06-14T00:00:00","SEV":"nein","longitude":"7,284591","latitude":"51,546016","geojson_lng":7.284591,"geojson_lat":51.546016},"geometry":{"type":"Point","coordinates":[7.284591,51.546016]}},{"type":"Feature","properties":{"SeqNo":"672999","Type":"A","DHID":"de:05916:7670:1","Parent":"de:05916:7670","Name":"Bus","MunicipalityCode":"00000000","Municipality":"-","DistrictCode":"-","District":"-","Description":"","Authority":"VRR","DelfiName":"-","THID":"-","LastOperationDate":"","SEV":"nein","longitude":"7,284627","latitude":"51,545916","geojson_lng":7.284627,"geojson_lat":51.545916},"geometry":{"type":"Point","coordinates":[7.284627,51.545916]}},{"type":"Feature","properties":{"SeqNo":"673000","Type":"Q","DHID":"de:05916:7670:1:1","Parent":"de:05916:7670:1","Name":"> NE","MunicipalityCode":"00000000","Municipality":"-","DistrictCode":"-","District":"-","Description":"","Authority":"VRR","DelfiName":"-","THID":"-","LastOperationDate":"","SEV":"nein","longitude":"7,284609","latitude":"51,545927","geojson_lng":7.284609,"geojson_lat":51.545927},"geometry":{"type":"Point","coordinates":[7.284609,51.545927]}}]}