{"type":"FeatureCollection","features":[{"type":"Feature","properties":{"SeqNo":"46255","Type":"S","DHID":"de:08216:34720","Parent":"de:08216:34720","Name":"Kappelwindeck Einsiedelhof","MunicipalityCode":"08216007","Municipality":"Bühl","DistrictCode":"","District":"","Description":"","Authority":"NVBW","DelfiName":"-","THID":"D920180087A0","LastOperationDate":"2025-06-14T00:00:00","SEV":"nein","longitude":"8,147387","latitude":"48,686147","geojson_lng":8.147387,"geojson_lat":48.686147},"geometry":{"type":"Point","coordinates":[8.147387,48.686147]}},{"type":"Feature","properties":{"SeqNo":"46256","Type":"Q","DHID":"de:08216:34720:0:1","Parent":"de:08216:34720","Name":"Ri Schreinerei Rapp","MunicipalityCode":"00000000","Municipality":"-","DistrictCode":"-","District":"-","Description":"","Authority":"NVBW","DelfiName":"-","THID":"-","LastOperationDate":"","SEV":"nein","longitude":"8,147441","latitude":"48,686171","geojson_lng":8.147441,"geojson_lat":48.686171},"geometry":{"type":"Point","coordinates":[8.147441,48.686171]}},{"type":"Feature","properties":{"SeqNo":"46257","Type":"Q","DHID":"de:08216:34720:0:2","Parent":"de:08216:34720","Name":"Ri Haus König - ohne Schild!","MunicipalityCode":"00000000","Municipality":"-","DistrictCode":"-","District":"-","Description":"","Authority":"NVBW","DelfiName":"-","THID":"-","LastOperationDate":"","SEV":"nein","longitude":"8,147288","latitude":"48,686147","geojson_lng":8.147288,"geojson_lat":48.686147},"geometry":{"type":"Point","coordinates":[8.147288,48.686147]}},{"type":"Feature","properties":{"SeqNo":"46258","Type":"S","DHID":"de:08216:34721","Parent":"de:08216:34721","Name":"Kappelwindeck Schrein. Rapp","MunicipalityCode":"08216007","Municipality":"Bühl","DistrictCode":"","District":"","Description":"","Authority":"NVBW","DelfiName":"-","THID":"D920180087A1","LastOperationDate":"2025-06-14T00:00:00","SEV":"nein","longitude":"8,1471","latitude":"48,689202","geojson_lng":8.1471,"geojson_lat":48.689202},"geometry":{"type":"Point","coordinates":[8.1471,48.689202]}},{"type":"Feature","properties":{"SeqNo":"46259","Type":"Q","DHID":"de:08216:34721:0:1","Parent":"de:08216:34721","Name":"Ri Haus Seifried","MunicipalityCode":"00000000","Municipality":"-","DistrictCode":"-","District":"-","Description":"","Authority":"NVBW","DelfiName":"-","THID":"-","LastOperationDate":"","SEV":"nein","longitude":"8,147064","latitude":"48,689148","geojson_lng":8.147064,"geojson_lat":48.689148},"geometry":{"type":"Point","coordinates":[8.147064,48.689148]}},{"type":"Feature","properties":{"SeqNo":"46260","Type":"Q","DHID":"de:08216:34721:0:2","Parent":"de:08216:34721","Name":"Ri Einsiedelhof - ohne Schild!","MunicipalityCode":"00000000","Municipality":"-","DistrictCode":"-","District":"-","Description":"","Authority":"NVBW","DelfiName":"-","THID":"-","LastOperationDate":"","SEV":"nein","longitude":"8,147046","latitude":"48,689261","geojson_lng":8.147046,"geojson_lat":48.689261},"geometry":{"type":"Point","coordinates":[8.147046,48.689261]}},{"type":"Feature","properties":{"SeqNo":"46261","Type":"S","DHID":"de:08216:34722","Parent":"de:08216:34722","Name":"Kappelwindeck Haus Seifried","MunicipalityCode":"08216007","Municipality":"Bühl","DistrictCode":"","District":"","Description":"","Authority":"NVBW","DelfiName":"-","THID":"D920180087A2","LastOperationDate":"2025-06-14T00:00:00","SEV":"nein","longitude":"8,149786","latitude":"48,688104","geojson_lng":8.149786,"geojson_lat":48.688104},"geometry":{"type":"Point","coordinates":[8.149786,48.688104]}},{"type":"Feature","properties":{"SeqNo":"46262","Type":"Q","DHID":"de:08216:34722:0:1","Parent":"de:08216:34722","Name":"Ri Brombachweg","MunicipalityCode":"00000000","Municipality":"-","DistrictCode":"-","District":"-","Description":"","Authority":"NVBW","DelfiName":"-","THID":"-","LastOperationDate":"","SEV":"nein","longitude":"8,149786","latitude":"48,688057","geojson_lng":8.149786,"geojson_lat":48.688057},"geometry":{"type":"Point","coordinates":[8.149786,48.688057]}},{"type":"Feature","properties":{"SeqNo":"46263","Type":"Q","DHID":"de:08216:34722:0:2","Parent":"de:08216:34722","Name":"Ri Schreinerei Rapp - ohne Schild!","MunicipalityCode":"00000000","Municipality":"-","DistrictCode":"-","District":"-","Description":"","Authority":"NVBW","DelfiName":"-","THID":"-","LastOperationDate":"","SEV":"nein","longitude":"8,149759","latitude":"48,688158","geojson_lng":8.149759,"geojson_lat":48.688158},"geometry":{"type":"Point","coordinates":[8.149759,48.688158]}},{"type":"Feature","properties":{"SeqNo":"46275","Type":"S","DHID":"de:08216:34727","Parent":"de:08216:34727","Name":"Kappelwindeck Bachschlosssch.","MunicipalityCode":"08216007","Municipality":"Bühl","DistrictCode":"","District":"","Description":"","Authority":"NVBW","DelfiName":"-","THID":"D920180087A7","LastOperationDate":"2025-06-14T00:00:00","SEV":"nein","longitude":"8,143713","latitude":"48,690441","geojson_lng":8.143713,"geojson_lat":48.690441},"geometry":{"type":"Point","coordinates":[8.143713,48.690441]}},{"type":"Feature","properties":{"SeqNo":"46276","Type":"Q","DHID":"de:08216:34727:0:1","Parent":"de:08216:34727","Name":"1","MunicipalityCode":"00000000","Municipality":"-","DistrictCode":"-","District":"-","Description":"","Authority":"NVBW","DelfiName":"-","THID":"-","LastOperationDate":"","SEV":"nein","longitude":"8,14365","latitude":"48,690429","geojson_lng":8.14365,"geojson_lat":48.690429},"geometry":{"type":"Point","coordinates":[8.14365,48.690429]}},{"type":"Feature","properties":{"SeqNo":"46486","Type":"S","DHID":"de:08216:34838","Parent":"de:08216:34838","Name":"Kappelwindeck Rungsstraße (Ersatz)","MunicipalityCode":"08216007","Municipality":"Bühl","DistrictCode":"","District":"","Description":"","Authority":"NVBW","DelfiName":"-","THID":"D92018008816","LastOperationDate":"2025-03-28T00:00:00","SEV":"nein","longitude":"8,146714","latitude":"48,687227","geojson_lng":8.146714,"geojson_lat":48.687227},"geometry":{"type":"Point","coordinates":[8.146714,48.687227]}},{"type":"Feature","properties":{"SeqNo":"46487","Type":"Q","DHID":"de:08216:34838:0:1","Parent":"de:08216:34838","Name":"Ri Schreinerei Rapp","MunicipalityCode":"00000000","Municipality":"-","DistrictCode":"-","District":"-","Description":"","Authority":"NVBW","DelfiName":"-","THID":"-","LastOperationDate":"","SEV":"nein","longitude":"8,146687","latitude":"48,687162","geojson_lng":8.146687,"geojson_lat":48.687162},"geometry":{"type":"Point","coordinates":[8.146687,48.687162]}}]}