{"type":"FeatureCollection","features":[{"type":"Feature","properties":{"highway":"bus_stop","public_transport":"platform","name":"Dorp","ref:IFOPT":"NL:Q:22316000","_quaycode":"NL:Q:22316000","_town":"Langweer","_status":"available","_mode":"bus","_direction":143,"_visuallyAccessible":false,"_disabledAccessible":false,"geojson_lng":5.723005957788188,"geojson_lat":52.957101389956044},"geometry":{"type":"Point","coordinates":[5.723005957788188,52.957101389956044]}},{"type":"Feature","properties":{"highway":"bus_stop","public_transport":"platform","name":"Legemeer","ref:IFOPT":"NL:Q:22410800","_quaycode":"NL:Q:22410800","_town":"Legemeer","_status":"available","_mode":"bus","_direction":35,"_visuallyAccessible":false,"_disabledAccessible":false,"geojson_lng":5.726672576803991,"geojson_lat":52.93876783674563},"geometry":{"type":"Point","coordinates":[5.726672576803991,52.93876783674563]}},{"type":"Feature","properties":{"highway":"bus_stop","public_transport":"platform","name":"Dorp","ref:IFOPT":"NL:Q:22310100","_quaycode":"NL:Q:22310100","_town":"Langweer","_status":"available","_mode":"bus","_direction":312,"_visuallyAccessible":false,"_disabledAccessible":true,"geojson_lng":5.7232289576035855,"geojson_lat":52.95707380377756},"geometry":{"type":"Point","coordinates":[5.7232289576035855,52.95707380377756]}},{"type":"Feature","properties":{"highway":"bus_stop","public_transport":"platform","name":"Scharsterrijn","ref:IFOPT":"NL:Q:22310700","_quaycode":"NL:Q:22310700","_town":"Boornzwaag","_status":"available","_mode":"bus","_direction":125,"_visuallyAccessible":false,"_disabledAccessible":false,"geojson_lng":5.748619947990695,"geojson_lat":52.95579550114691},"geometry":{"type":"Point","coordinates":[5.748619947990695,52.95579550114691]}},{"type":"Feature","properties":{"highway":"bus_stop","public_transport":"platform","name":"Camping Blaauw","ref:IFOPT":"NL:Q:22310610","_quaycode":"NL:Q:22310610","_town":"Sint Nicolaasga","_status":"available","_mode":"bus","_direction":310,"_visuallyAccessible":false,"_disabledAccessible":true,"geojson_lng":5.749485540045001,"geojson_lat":52.93820654826808},"geometry":{"type":"Point","coordinates":[5.749485540045001,52.93820654826808]}},{"type":"Feature","properties":{"highway":"bus_stop","public_transport":"platform","name":"Camping Blaauw","ref:IFOPT":"NL:Q:22310810","_quaycode":"NL:Q:22310810","_town":"Sint Nicolaasga","_status":"available","_mode":"bus","_direction":128,"_visuallyAccessible":false,"_disabledAccessible":true,"geojson_lng":5.749484718374803,"geojson_lat":52.93810770041384},"geometry":{"type":"Point","coordinates":[5.749484718374803,52.93810770041384]}}]}