{"type":"FeatureCollection","features":[{"type":"Feature","properties":{"SeqNo":"722643","Type":"S","DHID":"de:03241:4269","Parent":"de:03241:4269","Name":"Hannover Heitlinger Straße","MunicipalityCode":"03241001","Municipality":"Hannover","DistrictCode":"","District":"","Description":"","Authority":"HannIT","DelfiName":"-","THID":"D90CA90010AD","LastOperationDate":"2025-06-14T00:00:00","SEV":"nein","longitude":"9,64805","latitude":"52,430479","geojson_lng":9.64805,"geojson_lat":52.430479},"geometry":{"type":"Point","coordinates":[9.64805,52.430479]}},{"type":"Feature","properties":{"SeqNo":"722644","Type":"A","DHID":"de:03241:4269:1","Parent":"de:03241:4269","Name":"Bus","MunicipalityCode":"00000000","Municipality":"-","DistrictCode":"-","District":"-","Description":"","Authority":"HannIT","DelfiName":"-","THID":"-","LastOperationDate":"","SEV":"nein","longitude":"9,64805","latitude":"52,430506","geojson_lng":9.64805,"geojson_lat":52.430506},"geometry":{"type":"Point","coordinates":[9.64805,52.430506]}},{"type":"Feature","properties":{"SeqNo":"722645","Type":"Q","DHID":"de:03241:4269:1:4269","Parent":"de:03241:4269:1","Name":"Stöcken","MunicipalityCode":"00000000","Municipality":"-","DistrictCode":"-","District":"-","Description":"","Authority":"HannIT","DelfiName":"-","THID":"-","LastOperationDate":"","SEV":"nein","longitude":"9,648086","latitude":"52,430501","geojson_lng":9.648086,"geojson_lat":52.430501},"geometry":{"type":"Point","coordinates":[9.648086,52.430501]}},{"type":"Feature","properties":{"SeqNo":"723867","Type":"S","DHID":"de:03241:4992","Parent":"de:03241:4992","Name":"Schwarze Heide","MunicipalityCode":"03241001","Municipality":"Hannover","DistrictCode":"","District":"","Description":"","Authority":"HannIT","DelfiName":"-","THID":"D90CA9001380","LastOperationDate":"2025-06-14T00:00:00","SEV":"nein","longitude":"9,645966","latitude":"52,429981","geojson_lng":9.645966,"geojson_lat":52.429981},"geometry":{"type":"Point","coordinates":[9.645966,52.429981]}},{"type":"Feature","properties":{"SeqNo":"723868","Type":"A","DHID":"de:03241:4992:1","Parent":"de:03241:4992","Name":"Bus","MunicipalityCode":"00000000","Municipality":"-","DistrictCode":"-","District":"-","Description":"","Authority":"HannIT","DelfiName":"-","THID":"-","LastOperationDate":"","SEV":"nein","longitude":"9,645966","latitude":"52,429986","geojson_lng":9.645966,"geojson_lat":52.429986},"geometry":{"type":"Point","coordinates":[9.645966,52.429986]}},{"type":"Feature","properties":{"SeqNo":"723869","Type":"Q","DHID":"de:03241:4992:1:4992","Parent":"de:03241:4992:1","Name":"Stelingen (490); Berenbostel (491)","MunicipalityCode":"00000000","Municipality":"-","DistrictCode":"-","District":"-","Description":"","Authority":"HannIT","DelfiName":"-","THID":"-","LastOperationDate":"","SEV":"nein","longitude":"9,646199","latitude":"52,429718","geojson_lng":9.646199,"geojson_lat":52.429718},"geometry":{"type":"Point","coordinates":[9.646199,52.429718]}}]}