{"type":"FeatureCollection","features":[{"type":"Feature","properties":{"SeqNo":"473321","Type":"S","DHID":"de:06631:22116","Parent":"de:06631:22116","Name":"Fulda Schannatstraße","MunicipalityCode":"06631009","Municipality":"Fulda","DistrictCode":"-","District":"-","Description":"","Authority":"rms","DelfiName":"-","THID":"D919E7005664","LastOperationDate":"2025-06-14T00:00:00","SEV":"nein","longitude":"9,654541","latitude":"50,569054","geojson_lng":9.654541,"geojson_lat":50.569054},"geometry":{"type":"Point","coordinates":[9.654541,50.569054]}},{"type":"Feature","properties":{"SeqNo":"473322","Type":"A","DHID":"de:06631:22116:1","Parent":"de:06631:22116","Name":"Fulda Schannatstraße | NHartungstraße","MunicipalityCode":"00000000","Municipality":"-","DistrictCode":"-","District":"-","Description":"","Authority":"rms","DelfiName":"-","THID":"-","LastOperationDate":"","SEV":"nein","longitude":"9,654472","latitude":"50,569135","geojson_lng":9.654472,"geojson_lat":50.569135},"geometry":{"type":"Point","coordinates":[9.654472,50.569135]}},{"type":"Feature","properties":{"SeqNo":"473323","Type":"A","DHID":"de:06631:22116:2","Parent":"de:06631:22116","Name":"Fulda Schannatstraße | NBonifatiusbrunn.","MunicipalityCode":"00000000","Municipality":"-","DistrictCode":"-","District":"-","Description":"","Authority":"rms","DelfiName":"-","THID":"-","LastOperationDate":"","SEV":"nein","longitude":"9,654582","latitude":"50,568963","geojson_lng":9.654582,"geojson_lat":50.568963},"geometry":{"type":"Point","coordinates":[9.654582,50.568963]}},{"type":"Feature","properties":{"SeqNo":"473324","Type":"Q","DHID":"de:06631:22116:1:1","Parent":"de:06631:22116:1","Name":"NHartungstraße","MunicipalityCode":"00000000","Municipality":"-","DistrictCode":"-","District":"-","Description":"","Authority":"rms","DelfiName":"-","THID":"-","LastOperationDate":"","SEV":"nein","longitude":"9,654472","latitude":"50,569135","geojson_lng":9.654472,"geojson_lat":50.569135},"geometry":{"type":"Point","coordinates":[9.654472,50.569135]}},{"type":"Feature","properties":{"SeqNo":"473325","Type":"Q","DHID":"de:06631:22116:2:2","Parent":"de:06631:22116:2","Name":"NBonifatiusbrunn","MunicipalityCode":"00000000","Municipality":"-","DistrictCode":"-","District":"-","Description":"","Authority":"rms","DelfiName":"-","THID":"-","LastOperationDate":"","SEV":"nein","longitude":"9,654582","latitude":"50,568963","geojson_lng":9.654582,"geojson_lat":50.568963},"geometry":{"type":"Point","coordinates":[9.654582,50.568963]}},{"type":"Feature","properties":{"SeqNo":"473379","Type":"S","DHID":"de:06631:22130","Parent":"de:06631:22130","Name":"Fulda An der Liede","MunicipalityCode":"06631009","Municipality":"Fulda","DistrictCode":"","District":"","Description":"","Authority":"rms","DelfiName":"-","THID":"D919E7005672","LastOperationDate":"2025-06-14T00:00:00","SEV":"nein","longitude":"9,650415","latitude":"50,568119","geojson_lng":9.650415,"geojson_lat":50.568119},"geometry":{"type":"Point","coordinates":[9.650415,50.568119]}},{"type":"Feature","properties":{"SeqNo":"473380","Type":"A","DHID":"de:06631:22130:1","Parent":"de:06631:22130","Name":"Fulda An der Liede | NSchlitzer Straße","MunicipalityCode":"00000000","Municipality":"-","DistrictCode":"-","District":"-","Description":"","Authority":"rms","DelfiName":"-","THID":"-","LastOperationDate":"","SEV":"nein","longitude":"9,649964","latitude":"50,568184","geojson_lng":9.649964,"geojson_lat":50.568184},"geometry":{"type":"Point","coordinates":[9.649964,50.568184]}},{"type":"Feature","properties":{"SeqNo":"473381","Type":"A","DHID":"de:06631:22130:2","Parent":"de:06631:22130","Name":"Fulda An der Liede | NAachener Straße","MunicipalityCode":"00000000","Municipality":"-","DistrictCode":"-","District":"-","Description":"","Authority":"rms","DelfiName":"-","THID":"-","LastOperationDate":"","SEV":"nein","longitude":"9,65102","latitude":"50,567963","geojson_lng":9.65102,"geojson_lat":50.567963},"geometry":{"type":"Point","coordinates":[9.65102,50.567963]}},{"type":"Feature","properties":{"SeqNo":"473382","Type":"Q","DHID":"de:06631:22130:1:1","Parent":"de:06631:22130:1","Name":"Fulda An der Liede | NSchlitzer Straße | NSchlitzer Straße","MunicipalityCode":"00000000","Municipality":"-","DistrictCode":"-","District":"-","Description":"","Authority":"rms","DelfiName":"-","THID":"-","LastOperationDate":"","SEV":"nein","longitude":"9,649964","latitude":"50,568184","geojson_lng":9.649964,"geojson_lat":50.568184},"geometry":{"type":"Point","coordinates":[9.649964,50.568184]}},{"type":"Feature","properties":{"SeqNo":"473383","Type":"Q","DHID":"de:06631:22130:2:2","Parent":"de:06631:22130:2","Name":"Fulda An der Liede | NAachener Straße | NAachener Straße","MunicipalityCode":"00000000","Municipality":"-","DistrictCode":"-","District":"-","Description":"","Authority":"rms","DelfiName":"-","THID":"-","LastOperationDate":"","SEV":"nein","longitude":"9,65102","latitude":"50,567963","geojson_lng":9.65102,"geojson_lat":50.567963},"geometry":{"type":"Point","coordinates":[9.65102,50.567963]}},{"type":"Feature","properties":{"SeqNo":"473980","Type":"S","DHID":"de:06631:22331","Parent":"de:06631:22331","Name":"Fulda Schlitzer Straße","MunicipalityCode":"06631009","Municipality":"Fulda","DistrictCode":"-","District":"-","Description":"","Authority":"rms","DelfiName":"-","THID":"D919E700573B","LastOperationDate":"2025-06-14T00:00:00","SEV":"nein","longitude":"9,653611","latitude":"50,567108","geojson_lng":9.653611,"geojson_lat":50.567108},"geometry":{"type":"Point","coordinates":[9.653611,50.567108]}},{"type":"Feature","properties":{"SeqNo":"473981","Type":"A","DHID":"de:06631:22331:1","Parent":"de:06631:22331","Name":"Fulda Schlitzer Straße | NFulda","MunicipalityCode":"00000000","Municipality":"-","DistrictCode":"-","District":"-","Description":"","Authority":"rms","DelfiName":"-","THID":"-","LastOperationDate":"","SEV":"nein","longitude":"9,65361","latitude":"50,567045","geojson_lng":9.65361,"geojson_lat":50.567045},"geometry":{"type":"Point","coordinates":[9.65361,50.567045]}},{"type":"Feature","properties":{"SeqNo":"473982","Type":"A","DHID":"de:06631:22331:2","Parent":"de:06631:22331","Name":"Fulda Schlitzer Straße | VFulda","MunicipalityCode":"00000000","Municipality":"-","DistrictCode":"-","District":"-","Description":"","Authority":"rms","DelfiName":"-","THID":"-","LastOperationDate":"","SEV":"nein","longitude":"9,653527","latitude":"50,56718","geojson_lng":9.653527,"geojson_lat":50.56718},"geometry":{"type":"Point","coordinates":[9.653527,50.56718]}},{"type":"Feature","properties":{"SeqNo":"473983","Type":"Q","DHID":"de:06631:22331:1:1","Parent":"de:06631:22331:1","Name":"NFulda","MunicipalityCode":"00000000","Municipality":"-","DistrictCode":"-","District":"-","Description":"","Authority":"rms","DelfiName":"-","THID":"-","LastOperationDate":"","SEV":"nein","longitude":"9,65361","latitude":"50,567045","geojson_lng":9.65361,"geojson_lat":50.567045},"geometry":{"type":"Point","coordinates":[9.65361,50.567045]}},{"type":"Feature","properties":{"SeqNo":"473984","Type":"Q","DHID":"de:06631:22331:2:2","Parent":"de:06631:22331:2","Name":"VFulda","MunicipalityCode":"00000000","Municipality":"-","DistrictCode":"-","District":"-","Description":"","Authority":"rms","DelfiName":"-","THID":"-","LastOperationDate":"","SEV":"nein","longitude":"9,653527","latitude":"50,56718","geojson_lng":9.653527,"geojson_lat":50.56718},"geometry":{"type":"Point","coordinates":[9.653527,50.56718]}}]}