{"type":"FeatureCollection","features":[{"type":"Feature","properties":{"SeqNo":"465274","Type":"S","DHID":"de:06534:10319","Parent":"de:06534:10319","Name":"Lohra Feuerwehr","MunicipalityCode":"06534013","Municipality":"Lohra","DistrictCode":"-","District":"-","Description":"","Authority":"rms","DelfiName":"-","THID":"D9198600284F","LastOperationDate":"2025-06-14T00:00:00","SEV":"nein","longitude":"8,621685","latitude":"50,740724","geojson_lng":8.621685,"geojson_lat":50.740724},"geometry":{"type":"Point","coordinates":[8.621685,50.740724]}},{"type":"Feature","properties":{"SeqNo":"465275","Type":"A","DHID":"de:06534:10319:1","Parent":"de:06534:10319","Name":"Lohra Feuerwehr | VMornshausen","MunicipalityCode":"00000000","Municipality":"-","DistrictCode":"-","District":"-","Description":"","Authority":"rms","DelfiName":"-","THID":"-","LastOperationDate":"","SEV":"nein","longitude":"8,6216","latitude":"50,740706","geojson_lng":8.6216,"geojson_lat":50.740706},"geometry":{"type":"Point","coordinates":[8.6216,50.740706]}},{"type":"Feature","properties":{"SeqNo":"465276","Type":"Q","DHID":"de:06534:10319:1:1","Parent":"de:06534:10319:1","Name":"VMornshausen","MunicipalityCode":"00000000","Municipality":"-","DistrictCode":"-","District":"-","Description":"","Authority":"rms","DelfiName":"-","THID":"-","LastOperationDate":"","SEV":"nein","longitude":"8,6216","latitude":"50,740706","geojson_lng":8.6216,"geojson_lat":50.740706},"geometry":{"type":"Point","coordinates":[8.6216,50.740706]}},{"type":"Feature","properties":{"SeqNo":"465277","Type":"S","DHID":"de:06534:10320","Parent":"de:06534:10320","Name":"Lohra Konrad-Gaul-Straße","MunicipalityCode":"06534013","Municipality":"Lohra","DistrictCode":"-","District":"-","Description":"","Authority":"rms","DelfiName":"-","THID":"D91986002850","LastOperationDate":"2025-06-14T00:00:00","SEV":"nein","longitude":"8,621257","latitude":"50,7411","geojson_lng":8.621257,"geojson_lat":50.7411},"geometry":{"type":"Point","coordinates":[8.621257,50.7411]}},{"type":"Feature","properties":{"SeqNo":"465278","Type":"A","DHID":"de:06534:10320:1","Parent":"de:06534:10320","Name":"Lohra Konrad-Gaul-Straße | NMornshausen","MunicipalityCode":"00000000","Municipality":"-","DistrictCode":"-","District":"-","Description":"","Authority":"rms","DelfiName":"-","THID":"-","LastOperationDate":"","SEV":"nein","longitude":"8,621242","latitude":"50,741217","geojson_lng":8.621242,"geojson_lat":50.741217},"geometry":{"type":"Point","coordinates":[8.621242,50.741217]}},{"type":"Feature","properties":{"SeqNo":"465279","Type":"Q","DHID":"de:06534:10320:1:1","Parent":"de:06534:10320:1","Name":"NMornshausen","MunicipalityCode":"00000000","Municipality":"-","DistrictCode":"-","District":"-","Description":"","Authority":"rms","DelfiName":"-","THID":"-","LastOperationDate":"","SEV":"nein","longitude":"8,621242","latitude":"50,741217","geojson_lng":8.621242,"geojson_lat":50.741217},"geometry":{"type":"Point","coordinates":[8.621242,50.741217]}},{"type":"Feature","properties":{"SeqNo":"467550","Type":"S","DHID":"de:06534:19920","Parent":"de:06534:19920","Name":"Lohra Am Trieb","MunicipalityCode":"06534013","Municipality":"Lohra","DistrictCode":"","District":"","Description":"","Authority":"rms","DelfiName":"-","THID":"D91986004DD0","LastOperationDate":"1999-12-31T00:00:00","SEV":"nein","longitude":"8,623618","latitude":"50,739494","geojson_lng":8.623618,"geojson_lat":50.739494},"geometry":{"type":"Point","coordinates":[8.623618,50.739494]}},{"type":"Feature","properties":{"SeqNo":"467551","Type":"A","DHID":"de:06534:19920:1","Parent":"de:06534:19920","Name":"Lohra Am Trieb | VGladenbach","MunicipalityCode":"00000000","Municipality":"-","DistrictCode":"-","District":"-","Description":"","Authority":"rms","DelfiName":"-","THID":"-","LastOperationDate":"","SEV":"nein","longitude":"8,624059","latitude":"50,739163","geojson_lng":8.624059,"geojson_lat":50.739163},"geometry":{"type":"Point","coordinates":[8.624059,50.739163]}},{"type":"Feature","properties":{"SeqNo":"467552","Type":"A","DHID":"de:06534:19920:2","Parent":"de:06534:19920","Name":"Lohra Am Trieb | NGladenbach","MunicipalityCode":"00000000","Municipality":"-","DistrictCode":"-","District":"-","Description":"","Authority":"rms","DelfiName":"-","THID":"-","LastOperationDate":"","SEV":"nein","longitude":"8,623532","latitude":"50,739575","geojson_lng":8.623532,"geojson_lat":50.739575},"geometry":{"type":"Point","coordinates":[8.623532,50.739575]}},{"type":"Feature","properties":{"SeqNo":"467553","Type":"Q","DHID":"de:06534:19920:1:1","Parent":"de:06534:19920:1","Name":"Lohra Am Trieb | VGladenbach | VGladenbach","MunicipalityCode":"00000000","Municipality":"-","DistrictCode":"-","District":"-","Description":"","Authority":"rms","DelfiName":"-","THID":"-","LastOperationDate":"","SEV":"nein","longitude":"8,624059","latitude":"50,739163","geojson_lng":8.624059,"geojson_lat":50.739163},"geometry":{"type":"Point","coordinates":[8.624059,50.739163]}},{"type":"Feature","properties":{"SeqNo":"467554","Type":"Q","DHID":"de:06534:19920:2:2","Parent":"de:06534:19920:2","Name":"Lohra Am Trieb | NGladenbach | NGladenbach","MunicipalityCode":"00000000","Municipality":"-","DistrictCode":"-","District":"-","Description":"","Authority":"rms","DelfiName":"-","THID":"-","LastOperationDate":"","SEV":"nein","longitude":"8,623532","latitude":"50,739575","geojson_lng":8.623532,"geojson_lat":50.739575},"geometry":{"type":"Point","coordinates":[8.623532,50.739575]}}]}