{"type":"FeatureCollection","features":[{"type":"Feature","properties":{"SeqNo":"727707","Type":"S","DHID":"de:03241:8186","Parent":"de:03241:8186","Name":"Nöpke Roter Weg","MunicipalityCode":"03241012","Municipality":"Neustadt am Rübenberge","DistrictCode":"","District":"","Description":"","Authority":"HannIT","DelfiName":"-","THID":"D90CA9001FFA","LastOperationDate":"2025-06-14T00:00:00","SEV":"nein","longitude":"9,389973","latitude":"52,596176","geojson_lng":9.389973,"geojson_lat":52.596176},"geometry":{"type":"Point","coordinates":[9.389973,52.596176]}},{"type":"Feature","properties":{"SeqNo":"727708","Type":"A","DHID":"de:03241:8186:1","Parent":"de:03241:8186","Name":"Bus","MunicipalityCode":"00000000","Municipality":"-","DistrictCode":"-","District":"-","Description":"","Authority":"HannIT","DelfiName":"-","THID":"-","LastOperationDate":"","SEV":"nein","longitude":"9,389973","latitude":"52,596176","geojson_lng":9.389973,"geojson_lat":52.596176},"geometry":{"type":"Point","coordinates":[9.389973,52.596176]}},{"type":"Feature","properties":{"SeqNo":"727709","Type":"Q","DHID":"de:03241:8186:1:8186","Parent":"de:03241:8186:1","Name":"Dudensen","MunicipalityCode":"00000000","Municipality":"-","DistrictCode":"-","District":"-","Description":"","Authority":"HannIT","DelfiName":"-","THID":"-","LastOperationDate":"","SEV":"nein","longitude":"9,389973","latitude":"52,596094","geojson_lng":9.389973,"geojson_lat":52.596094},"geometry":{"type":"Point","coordinates":[9.389973,52.596094]}},{"type":"Feature","properties":{"SeqNo":"727710","Type":"Q","DHID":"de:03241:8186:1:8187","Parent":"de:03241:8186:1","Name":"Borstel","MunicipalityCode":"00000000","Municipality":"-","DistrictCode":"-","District":"-","Description":"","Authority":"HannIT","DelfiName":"-","THID":"-","LastOperationDate":"","SEV":"nein","longitude":"9,389991","latitude":"52,596231","geojson_lng":9.389991,"geojson_lat":52.596231},"geometry":{"type":"Point","coordinates":[9.389991,52.596231]}},{"type":"Feature","properties":{"SeqNo":"728124","Type":"S","DHID":"de:03241:8399","Parent":"de:03241:8399","Name":"Borstel Im Bruche","MunicipalityCode":"03241012","Municipality":"Neustadt am Rübenberge","DistrictCode":"","District":"","Description":"","Authority":"HannIT","DelfiName":"-","THID":"D90CA90020CF","LastOperationDate":"2025-06-14T00:00:00","SEV":"nein","longitude":"9,389703","latitude":"52,590326","geojson_lng":9.389703,"geojson_lat":52.590326},"geometry":{"type":"Point","coordinates":[9.389703,52.590326]}},{"type":"Feature","properties":{"SeqNo":"728125","Type":"A","DHID":"de:03241:8399:1","Parent":"de:03241:8399","Name":"Bus","MunicipalityCode":"00000000","Municipality":"-","DistrictCode":"-","District":"-","Description":"","Authority":"HannIT","DelfiName":"-","THID":"-","LastOperationDate":"","SEV":"nein","longitude":"9,389658","latitude":"52,590348","geojson_lng":9.389658,"geojson_lat":52.590348},"geometry":{"type":"Point","coordinates":[9.389658,52.590348]}},{"type":"Feature","properties":{"SeqNo":"728126","Type":"Q","DHID":"de:03241:8399:1:8399","Parent":"de:03241:8399:1","Name":"Hagen","MunicipalityCode":"00000000","Municipality":"-","DistrictCode":"-","District":"-","Description":"","Authority":"HannIT","DelfiName":"-","THID":"-","LastOperationDate":"","SEV":"nein","longitude":"9,389712","latitude":"52,590375","geojson_lng":9.389712,"geojson_lat":52.590375},"geometry":{"type":"Point","coordinates":[9.389712,52.590375]}},{"type":"Feature","properties":{"SeqNo":"728127","Type":"Q","DHID":"de:03241:8399:1:8400","Parent":"de:03241:8399:1","Name":"Nöpke","MunicipalityCode":"00000000","Municipality":"-","DistrictCode":"-","District":"-","Description":"","Authority":"HannIT","DelfiName":"-","THID":"-","LastOperationDate":"","SEV":"nein","longitude":"9,389703","latitude":"52,590321","geojson_lng":9.389703,"geojson_lat":52.590321},"geometry":{"type":"Point","coordinates":[9.389703,52.590321]}}]}