{"type":"FeatureCollection","features":[{"type":"Feature","properties":{"highway":"bus_stop","public_transport":"platform","name":"Ugchelsegrensweg","ref:IFOPT":"NL:Q:40471295","_quaycode":"NL:Q:40471295","_town":"Ugchelen","_status":"available","_mode":"bus","_direction":65,"_visuallyAccessible":false,"_disabledAccessible":false,"geojson_lng":5.9410966362673605,"geojson_lat":52.18690229587015},"geometry":{"type":"Point","coordinates":[5.9410966362673605,52.18690229587015]}},{"type":"Feature","properties":{"highway":"bus_stop","public_transport":"platform","name":"De Ugchelse Kei","ref:IFOPT":"NL:Q:40471131","_quaycode":"NL:Q:40471131","_town":"Ugchelen","_status":"available","_mode":"bus","_direction":68,"_visuallyAccessible":false,"_disabledAccessible":true,"geojson_lng":5.936188833181748,"geojson_lat":52.18498381374864},"geometry":{"type":"Point","coordinates":[5.936188833181748,52.18498381374864]}},{"type":"Feature","properties":{"highway":"bus_stop","public_transport":"platform","name":"Randerode","ref:IFOPT":"NL:Q:40471152","_quaycode":"NL:Q:40471152","_town":"Apeldoorn","_status":"available","_mode":"bus","_direction":160,"_visuallyAccessible":false,"_disabledAccessible":false,"geojson_lng":5.950028099607715,"geojson_lat":52.179687544888566},"geometry":{"type":"Point","coordinates":[5.950028099607715,52.179687544888566]}},{"type":"Feature","properties":{"highway":"bus_stop","public_transport":"platform","name":"Zuster Meyboomlaan","ref:IFOPT":"NL:Q:60000203","_quaycode":"NL:Q:60000203","_town":"Apeldoorn","_status":"available","_mode":"bus","_direction":268,"_visuallyAccessible":false,"_disabledAccessible":false,"geojson_lng":5.95108833446842,"geojson_lat":52.182594618732814},"geometry":{"type":"Point","coordinates":[5.95108833446842,52.182594618732814]}},{"type":"Feature","properties":{"highway":"bus_stop","public_transport":"platform","name":"Markendoel","ref:IFOPT":"NL:Q:40471300","_quaycode":"NL:Q:40471300","_town":"Ugchelen","_status":"available","_mode":"bus","_direction":155,"_visuallyAccessible":null,"_disabledAccessible":null,"geojson_lng":5.942346000000001,"geojson_lat":52.185798999999996},"geometry":{"type":"Point","coordinates":[5.942346000000001,52.185798999999996]}},{"type":"Feature","properties":{"highway":"bus_stop","public_transport":"platform","name":"Middachten","ref:IFOPT":"NL:Q:40471171","_quaycode":"NL:Q:40471171","_town":"Apeldoorn","_status":"available","_mode":"bus","_direction":143,"_visuallyAccessible":false,"_disabledAccessible":true,"geojson_lng":5.952026791221254,"geojson_lat":52.18626625108023},"geometry":{"type":"Point","coordinates":[5.952026791221254,52.18626625108023]}},{"type":"Feature","properties":{"highway":"bus_stop","public_transport":"platform","name":"Richtersweg","ref:IFOPT":"NL:Q:40471301","_quaycode":"NL:Q:40471301","_town":"Ugchelen","_status":"available","_mode":"bus","_direction":252,"_visuallyAccessible":false,"_disabledAccessible":false,"geojson_lng":5.941325552262946,"geojson_lat":52.18531932191491},"geometry":{"type":"Point","coordinates":[5.941325552262946,52.18531932191491]}},{"type":"Feature","properties":{"highway":"bus_stop","public_transport":"platform","name":"G.P. Duuringlaan","ref:IFOPT":"NL:Q:40471327","_quaycode":"NL:Q:40471327","_town":"Ugchelen","_status":"available","_mode":"bus","_direction":267,"_visuallyAccessible":false,"_disabledAccessible":true,"geojson_lng":5.934330659668396,"geojson_lat":52.18251174066755},"geometry":{"type":"Point","coordinates":[5.934330659668396,52.18251174066755]}},{"type":"Feature","properties":{"highway":"bus_stop","public_transport":"platform","name":"Molecatenlaan","ref:IFOPT":"NL:Q:40471349","_quaycode":"NL:Q:40471349","_town":"Apeldoorn","_status":"available","_mode":"bus","_direction":264,"_visuallyAccessible":false,"_disabledAccessible":false,"geojson_lng":5.9462143573067685,"geojson_lat":52.18220436302252},"geometry":{"type":"Point","coordinates":[5.9462143573067685,52.18220436302252]}},{"type":"Feature","properties":{"highway":"bus_stop","public_transport":"platform","name":"Middachten","ref:IFOPT":"NL:Q:40471170","_quaycode":"NL:Q:40471170","_town":"Apeldoorn","_status":"available","_mode":"bus","_direction":331,"_visuallyAccessible":false,"_disabledAccessible":false,"geojson_lng":5.951714550616125,"geojson_lat":52.1870137551965},"geometry":{"type":"Point","coordinates":[5.951714550616125,52.1870137551965]}},{"type":"Feature","properties":{"highway":"bus_stop","public_transport":"platform","name":"Gelre Ziekenhuis","ref:IFOPT":"NL:Q:40471467","_quaycode":"NL:Q:40471467","_town":"Apeldoorn","_status":"available","_mode":"bus","_direction":90,"_visuallyAccessible":false,"_disabledAccessible":true,"geojson_lng":5.946811669351571,"geojson_lat":52.182030757800405},"geometry":{"type":"Point","coordinates":[5.946811669351571,52.182030757800405]}}]}