{"type":"FeatureCollection","features":[{"type":"Feature","properties":{"highway":"bus_stop","public_transport":"platform","name":"Rietdijk","ref:IFOPT":"NL:Q:31000324","_quaycode":"NL:Q:31000324","_town":"Rotterdam","_status":"available","_mode":"bus","_direction":102,"_visuallyAccessible":false,"_disabledAccessible":true,"geojson_lng":4.462691981418191,"geojson_lat":51.89319949231569},"geometry":{"type":"Point","coordinates":[4.462691981418191,51.89319949231569]}},{"type":"Feature","properties":{"highway":"bus_stop","public_transport":"platform","name":"Waalhaven Noordzijde","ref:IFOPT":"NL:Q:31000325","_quaycode":"NL:Q:31000325","_town":"Rotterdam","_status":"available","_mode":"bus","_direction":104,"_visuallyAccessible":false,"_disabledAccessible":true,"geojson_lng":4.460751528847434,"geojson_lat":51.89359769146782},"geometry":{"type":"Point","coordinates":[4.460751528847434,51.89359769146782]}},{"type":"Feature","properties":{"highway":"bus_stop","public_transport":"platform","name":"Kaatsbaan","ref:IFOPT":"NL:Q:31000312","_quaycode":"NL:Q:31000312","_town":"Rotterdam","_status":"available","_mode":"bus","_direction":318,"_visuallyAccessible":false,"_disabledAccessible":true,"geojson_lng":4.464917971807269,"geojson_lat":51.89233608625031},"geometry":{"type":"Point","coordinates":[4.464917971807269,51.89233608625031]}},{"type":"Feature","properties":{"highway":"bus_stop","public_transport":"platform","name":"Dokhaven","ref:IFOPT":"NL:Q:31000540","_quaycode":"NL:Q:31000540","_town":"Rotterdam","_status":"available","_mode":"bus","_direction":95,"_visuallyAccessible":false,"_disabledAccessible":true,"geojson_lng":4.462211736590784,"geojson_lat":51.89465189577729},"geometry":{"type":"Point","coordinates":[4.462211736590784,51.89465189577729]}},{"type":"Feature","properties":{"highway":"bus_stop","public_transport":"platform","name":"Dokhaven","ref:IFOPT":"NL:Q:31000436","_quaycode":"NL:Q:31000436","_town":"Rotterdam","_status":"available","_mode":"bus","_direction":280,"_visuallyAccessible":false,"_disabledAccessible":true,"geojson_lng":4.461756797551896,"geojson_lat":51.894873032927855},"geometry":{"type":"Point","coordinates":[4.461756797551896,51.894873032927855]}},{"type":"Feature","properties":{"highway":"bus_stop","public_transport":"platform","name":"Waalhaven Noordzijde","ref:IFOPT":"NL:Q:31007139","_quaycode":"NL:Q:31007139","_town":"Rotterdam","_status":"available","_mode":"bus","_direction":267,"_visuallyAccessible":false,"_disabledAccessible":false,"geojson_lng":4.460968122756651,"geojson_lat":51.89366232069437},"geometry":{"type":"Point","coordinates":[4.460968122756651,51.89366232069437]}},{"type":"Feature","properties":{"highway":"bus_stop","public_transport":"platform","name":"Kaatsbaan","ref:IFOPT":"NL:Q:31000311","_quaycode":"NL:Q:31000311","_town":"Rotterdam","_status":"available","_mode":"bus","_direction":140,"_visuallyAccessible":false,"_disabledAccessible":true,"geojson_lng":4.464892606581423,"geojson_lat":51.892156111420825},"geometry":{"type":"Point","coordinates":[4.464892606581423,51.892156111420825]}},{"type":"Feature","properties":{"highway":"bus_stop","public_transport":"platform","name":"Rietdijk","ref:IFOPT":"NL:Q:31000323","_quaycode":"NL:Q:31000323","_town":"Rotterdam","_status":"available","_mode":"bus","_direction":284,"_visuallyAccessible":false,"_disabledAccessible":false,"geojson_lng":4.462557738232146,"geojson_lat":51.893369222851895},"geometry":{"type":"Point","coordinates":[4.462557738232146,51.893369222851895]}}]}