{"type":"FeatureCollection","features":[{"type":"Feature","properties":{"highway":"bus_stop","public_transport":"platform","name":"Voorstraat","ref:IFOPT":"NL:Q:61510120","_quaycode":"NL:Q:61510120","_town":"Echteld","_status":"available","_mode":"bus","_direction":90,"_visuallyAccessible":false,"_disabledAccessible":true,"geojson_lng":5.495083438702976,"geojson_lat":51.911536119262706},"geometry":{"type":"Point","coordinates":[5.495083438702976,51.911536119262706]}},{"type":"Feature","properties":{"highway":"bus_stop","public_transport":"platform","name":"Adelsweg","ref:IFOPT":"NL:Q:61690340","_quaycode":"NL:Q:61690340","_town":"Lienden","_status":"available","_mode":"bus","_direction":178,"_visuallyAccessible":false,"_disabledAccessible":false,"geojson_lng":5.515769419504957,"geojson_lat":51.94377410784645},"geometry":{"type":"Point","coordinates":[5.515769419504957,51.94377410784645]}},{"type":"Feature","properties":{"highway":"bus_stop","public_transport":"platform","name":"Lingemeer","ref:IFOPT":"NL:Q:91000020","_quaycode":"NL:Q:91000020","_town":"Lienden","_status":"available","_mode":"bus","_direction":67,"_visuallyAccessible":false,"_disabledAccessible":false,"geojson_lng":5.497675999999999,"geojson_lat":51.923236199999984},"geometry":{"type":"Point","coordinates":[5.497675999999999,51.923236199999984]}},{"type":"Feature","properties":{"highway":"bus_stop","public_transport":"platform","name":"Bedrijvenpark Medel Zuid","ref:IFOPT":"NL:Q:91000058","_quaycode":"NL:Q:91000058","_town":"Tiel","_status":"available","_mode":"bus","_direction":295,"_visuallyAccessible":false,"_disabledAccessible":false,"geojson_lng":5.452095000000001,"geojson_lat":51.91067829999998},"geometry":{"type":"Point","coordinates":[5.452095000000001,51.91067829999998]}},{"type":"Feature","properties":{"highway":"bus_stop","public_transport":"platform","name":"Voorstraat","ref:IFOPT":"NL:Q:61690150","_quaycode":"NL:Q:61690150","_town":"Lienden","_status":"available","_mode":"bus","_direction":254,"_visuallyAccessible":false,"_disabledAccessible":false,"geojson_lng":5.505678769700819,"geojson_lat":51.944773430449914},"geometry":{"type":"Point","coordinates":[5.505678769700819,51.944773430449914]}},{"type":"Feature","properties":{"highway":"bus_stop","public_transport":"platform","name":"Voorstraat","ref:IFOPT":"NL:Q:61690140","_quaycode":"NL:Q:61690140","_town":"Lienden","_status":"available","_mode":"bus","_direction":74,"_visuallyAccessible":false,"_disabledAccessible":false,"geojson_lng":5.50570771525012,"geojson_lat":51.944719471869924},"geometry":{"type":"Point","coordinates":[5.50570771525012,51.944719471869924]}},{"type":"Feature","properties":{"highway":"bus_stop","public_transport":"platform","name":"Bedrijvenpark Medel Noord","ref:IFOPT":"NL:Q:91000057","_quaycode":"NL:Q:91000057","_town":"Tiel","_status":"available","_mode":"bus","_direction":0,"_visuallyAccessible":false,"_disabledAccessible":false,"geojson_lng":5.454374999999994,"geojson_lat":51.9195695},"geometry":{"type":"Point","coordinates":[5.454374999999994,51.9195695]}},{"type":"Feature","properties":{"highway":"bus_stop","public_transport":"platform","name":"Adelsweg","ref:IFOPT":"NL:Q:61690330","_quaycode":"NL:Q:61690330","_town":"Lienden","_status":"available","_mode":"bus","_direction":351,"_visuallyAccessible":false,"_disabledAccessible":false,"geojson_lng":5.515914443844082,"geojson_lat":51.94363013727315},"geometry":{"type":"Point","coordinates":[5.515914443844082,51.94363013727315]}},{"type":"Feature","properties":{"highway":"bus_stop","public_transport":"platform","name":"Voorstraat","ref:IFOPT":"NL:Q:61510050","_quaycode":"NL:Q:61510050","_town":"Echteld","_status":"available","_mode":"bus","_direction":257,"_visuallyAccessible":false,"_disabledAccessible":true,"geojson_lng":5.49470555177895,"geojson_lat":51.911527477836664},"geometry":{"type":"Point","coordinates":[5.49470555177895,51.911527477836664]}}]}