{"type":"FeatureCollection","features":[{"type":"Feature","properties":{"highway":"bus_stop","public_transport":"platform","name":"Mgr. v. Oorschotstraat","ref:IFOPT":"NL:Q:63440040","_quaycode":"NL:Q:63440040","_town":"Heeswijk-Dinther","_status":"available","_mode":"bus","_direction":103,"_visuallyAccessible":true,"_disabledAccessible":true,"geojson_lng":5.466993286426435,"geojson_lat":51.65140718520314},"geometry":{"type":"Point","coordinates":[5.466993286426435,51.65140718520314]}},{"type":"Feature","properties":{"highway":"bus_stop","public_transport":"platform","name":"Plein 1969","ref:IFOPT":"NL:Q:63440210","_quaycode":"NL:Q:63440210","_town":"Heeswijk-Dinther","_status":"available","_mode":"bus","_direction":284,"_visuallyAccessible":true,"_disabledAccessible":true,"geojson_lng":5.473824103119912,"geojson_lat":51.64936192254885},"geometry":{"type":"Point","coordinates":[5.473824103119912,51.64936192254885]}},{"type":"Feature","properties":{"highway":"bus_stop","public_transport":"platform","name":"Middegaal","ref:IFOPT":"NL:Q:64552010","_quaycode":"NL:Q:64552010","_town":"Veghel","_status":"available","_mode":"bus","_direction":306,"_visuallyAccessible":false,"_disabledAccessible":true,"geojson_lng":5.537268584707774,"geojson_lat":51.627104946039495},"geometry":{"type":"Point","coordinates":[5.537268584707774,51.627104946039495]}},{"type":"Feature","properties":{"highway":"bus_stop","public_transport":"platform","name":"Den Dolvert","ref:IFOPT":"NL:Q:63440200","_quaycode":"NL:Q:63440200","_town":"Heeswijk-Dinther","_status":"available","_mode":"bus","_direction":283,"_visuallyAccessible":true,"_disabledAccessible":true,"geojson_lng":5.487195148095497,"geojson_lat":51.645369321985726},"geometry":{"type":"Point","coordinates":[5.487195148095497,51.645369321985726]}},{"type":"Feature","properties":{"highway":"bus_stop","public_transport":"platform","name":"Mgr. v. Oorschotstraat","ref:IFOPT":"NL:Q:63440250","_quaycode":"NL:Q:63440250","_town":"Heeswijk-Dinther","_status":"available","_mode":"bus","_direction":282,"_visuallyAccessible":true,"_disabledAccessible":true,"geojson_lng":5.466921243833231,"geojson_lat":51.651524085294696},"geometry":{"type":"Point","coordinates":[5.466921243833231,51.651524085294696]}},{"type":"Feature","properties":{"highway":"bus_stop","public_transport":"platform","name":"Hazelberg","ref:IFOPT":"NL:Q:64551810","_quaycode":"NL:Q:64551810","_town":"Heeswijk-Dinther","_status":"available","_mode":"bus","_direction":300,"_visuallyAccessible":false,"_disabledAccessible":true,"geojson_lng":5.5199760754256495,"geojson_lat":51.635107709260005},"geometry":{"type":"Point","coordinates":[5.5199760754256495,51.635107709260005]}},{"type":"Feature","properties":{"highway":"bus_stop","public_transport":"platform","name":"Edm. v. Dintherstraat","ref:IFOPT":"NL:Q:63440130","_quaycode":"NL:Q:63440130","_town":"Heeswijk-Dinther","_status":"available","_mode":"bus","_direction":291,"_visuallyAccessible":true,"_disabledAccessible":true,"geojson_lng":5.48286401882946,"geojson_lat":51.64689201132297},"geometry":{"type":"Point","coordinates":[5.48286401882946,51.64689201132297]}},{"type":"Feature","properties":{"highway":"bus_stop","public_transport":"platform","name":"Laag Beugt","ref:IFOPT":"NL:Q:63440050","_quaycode":"NL:Q:63440050","_town":"Heeswijk-Dinther","_status":"available","_mode":"bus","_direction":275,"_visuallyAccessible":false,"_disabledAccessible":true,"geojson_lng":5.49214843060737,"geojson_lat":51.64436725009776},"geometry":{"type":"Point","coordinates":[5.49214843060737,51.64436725009776]}},{"type":"Feature","properties":{"highway":"bus_stop","public_transport":"platform","name":"Sint Servatiusstraat","ref:IFOPT":"NL:Q:63440170","_quaycode":"NL:Q:63440170","_town":"Heeswijk-Dinther","_status":"available","_mode":"bus","_direction":282,"_visuallyAccessible":true,"_disabledAccessible":true,"geojson_lng":5.477521434873461,"geojson_lat":51.64854116584003},"geometry":{"type":"Point","coordinates":[5.477521434873461,51.64854116584003]}},{"type":"Feature","properties":{"highway":"bus_stop","public_transport":"platform","name":"Den Dolvert","ref:IFOPT":"NL:Q:63440090","_quaycode":"NL:Q:63440090","_town":"Heeswijk-Dinther","_status":"available","_mode":"bus","_direction":104,"_visuallyAccessible":true,"_disabledAccessible":true,"geojson_lng":5.486660717560582,"geojson_lat":51.64543269791983},"geometry":{"type":"Point","coordinates":[5.486660717560582,51.64543269791983]}},{"type":"Feature","properties":{"highway":"bus_stop","public_transport":"platform","name":"Middegaal","ref:IFOPT":"NL:Q:64552710","_quaycode":"NL:Q:64552710","_town":"Veghel","_status":"available","_mode":"bus","_direction":125,"_visuallyAccessible":false,"_disabledAccessible":true,"geojson_lng":5.537095578766481,"geojson_lat":51.62719505366908},"geometry":{"type":"Point","coordinates":[5.537095578766481,51.62719505366908]}},{"type":"Feature","properties":{"highway":"bus_stop","public_transport":"platform","name":"Edm. v. Dintherstraat","ref:IFOPT":"NL:Q:63440160","_quaycode":"NL:Q:63440160","_town":"Heeswijk-Dinther","_status":"available","_mode":"bus","_direction":111,"_visuallyAccessible":true,"_disabledAccessible":true,"geojson_lng":5.482791568327194,"geojson_lat":51.64679319672698},"geometry":{"type":"Point","coordinates":[5.482791568327194,51.64679319672698]}},{"type":"Feature","properties":{"highway":"bus_stop","public_transport":"platform","name":"Plein 1969","ref:IFOPT":"NL:Q:63440080","_quaycode":"NL:Q:63440080","_town":"Heeswijk-Dinther","_status":"available","_mode":"bus","_direction":104,"_visuallyAccessible":true,"_disabledAccessible":true,"geojson_lng":5.473780549278258,"geojson_lat":51.64925409244106},"geometry":{"type":"Point","coordinates":[5.473780549278258,51.64925409244106]}},{"type":"Feature","properties":{"highway":"bus_stop","public_transport":"platform","name":"Berg en Dalseweg","ref:IFOPT":"NL:Q:63440280","_quaycode":"NL:Q:63440280","_town":"Heeswijk-Dinther","_status":"available","_mode":"bus","_direction":92,"_visuallyAccessible":false,"_disabledAccessible":true,"geojson_lng":5.499409896182039,"geojson_lat":51.642095390286336},"geometry":{"type":"Point","coordinates":[5.499409896182039,51.642095390286336]}},{"type":"Feature","properties":{"highway":"bus_stop","public_transport":"platform","name":"Hazelberg","ref:IFOPT":"NL:Q:64553210","_quaycode":"NL:Q:64553210","_town":"Heeswijk-Dinther","_status":"available","_mode":"bus","_direction":129,"_visuallyAccessible":false,"_disabledAccessible":true,"geojson_lng":5.5209705156076625,"geojson_lat":51.63435153689574},"geometry":{"type":"Point","coordinates":[5.5209705156076625,51.63435153689574]}},{"type":"Feature","properties":{"highway":"bus_stop","public_transport":"platform","name":"Laag Beugt","ref:IFOPT":"NL:Q:63440240","_quaycode":"NL:Q:63440240","_town":"Heeswijk-Dinther","_status":"available","_mode":"bus","_direction":102,"_visuallyAccessible":false,"_disabledAccessible":true,"geojson_lng":5.493303322812355,"geojson_lat":51.643979699888376},"geometry":{"type":"Point","coordinates":[5.493303322812355,51.643979699888376]}},{"type":"Feature","properties":{"highway":"bus_stop","public_transport":"platform","name":"Hoofdstraat","ref:IFOPT":"NL:Q:63440020","_quaycode":"NL:Q:63440020","_town":"Heeswijk-Dinther","_status":"available","_mode":"bus","_direction":103,"_visuallyAccessible":false,"_disabledAccessible":false,"geojson_lng":5.463483440517559,"geojson_lat":51.65226344069204},"geometry":{"type":"Point","coordinates":[5.463483440517559,51.65226344069204]}},{"type":"Feature","properties":{"highway":"bus_stop","public_transport":"platform","name":"De Beemd","ref:IFOPT":"NL:Q:63459710","_quaycode":"NL:Q:63459710","_town":"Schijndel","_status":"available","_mode":"bus","_direction":0,"_visuallyAccessible":true,"_disabledAccessible":true,"geojson_lng":5.45422885512558,"geojson_lat":51.618616015125994},"geometry":{"type":"Point","coordinates":[5.45422885512558,51.618616015125994]}},{"type":"Feature","properties":{"highway":"bus_stop","public_transport":"platform","name":"Hoog Beugt","ref:IFOPT":"NL:Q:63440630","_quaycode":"NL:Q:63440630","_town":"Heeswijk-Dinther","_status":"available","_mode":"bus","_direction":109,"_visuallyAccessible":false,"_disabledAccessible":true,"geojson_lng":5.5116392516613155,"geojson_lat":51.639521272485794},"geometry":{"type":"Point","coordinates":[5.5116392516613155,51.639521272485794]}},{"type":"Feature","properties":{"highway":"bus_stop","public_transport":"platform","name":"De Beemd","ref:IFOPT":"NL:Q:63459700","_quaycode":"NL:Q:63459700","_town":"Schijndel","_status":"available","_mode":"bus","_direction":0,"_visuallyAccessible":true,"_disabledAccessible":true,"geojson_lng":5.454098555781182,"geojson_lat":51.618382387420624},"geometry":{"type":"Point","coordinates":[5.454098555781182,51.618382387420624]}},{"type":"Feature","properties":{"highway":"bus_stop","public_transport":"platform","name":"Hoog Beugt","ref:IFOPT":"NL:Q:63440320","_quaycode":"NL:Q:63440320","_town":"Heeswijk-Dinther","_status":"available","_mode":"bus","_direction":288,"_visuallyAccessible":false,"_disabledAccessible":true,"geojson_lng":5.512793978185053,"geojson_lat":51.63917847245585},"geometry":{"type":"Point","coordinates":[5.512793978185053,51.63917847245585]}},{"type":"Feature","properties":{"highway":"bus_stop","public_transport":"platform","name":"Berg en Dalseweg","ref:IFOPT":"NL:Q:63440010","_quaycode":"NL:Q:63440010","_town":"Heeswijk-Dinther","_status":"available","_mode":"bus","_direction":270,"_visuallyAccessible":false,"_disabledAccessible":true,"geojson_lng":5.499641312449795,"geojson_lat":51.64220303034091},"geometry":{"type":"Point","coordinates":[5.499641312449795,51.64220303034091]}},{"type":"Feature","properties":{"highway":"bus_stop","public_transport":"platform","name":"Sint Servatiusstraat","ref:IFOPT":"NL:Q:63440120","_quaycode":"NL:Q:63440120","_town":"Heeswijk-Dinther","_status":"available","_mode":"bus","_direction":99,"_visuallyAccessible":false,"_disabledAccessible":false,"geojson_lng":5.47749217819922,"geojson_lat":51.64836141777244},"geometry":{"type":"Point","coordinates":[5.47749217819922,51.64836141777244]}},{"type":"Feature","properties":{"highway":"bus_stop","public_transport":"platform","name":"Hoofdstraat","ref:IFOPT":"NL:Q:63440290","_quaycode":"NL:Q:63440290","_town":"Heeswijk-Dinther","_status":"available","_mode":"bus","_direction":284,"_visuallyAccessible":false,"_disabledAccessible":false,"geojson_lng":5.46323809274001,"geojson_lat":51.65244337127548},"geometry":{"type":"Point","coordinates":[5.46323809274001,51.65244337127548]}},{"type":"Feature","properties":{"highway":"bus_stop","public_transport":"platform","name":"Gouverneursweg","ref:IFOPT":"NL:Q:63340120","_quaycode":"NL:Q:63340120","_town":"Heeswijk-Dinther","_status":"available","_mode":"bus","_direction":281,"_visuallyAccessible":false,"_disabledAccessible":false,"geojson_lng":5.451797707660994,"geojson_lat":51.655299623654635},"geometry":{"type":"Point","coordinates":[5.451797707660994,51.655299623654635]}},{"type":"Feature","properties":{"highway":"bus_stop","public_transport":"platform","name":"Gouverneursweg","ref:IFOPT":"NL:Q:63340220","_quaycode":"NL:Q:63340220","_town":"Heeswijk-Dinther","_status":"available","_mode":"bus","_direction":114,"_visuallyAccessible":false,"_disabledAccessible":false,"geojson_lng":5.4516675461470605,"geojson_lat":51.6552277873908},"geometry":{"type":"Point","coordinates":[5.4516675461470605,51.6552277873908]}}]}