{"type":"FeatureCollection","features":[{"type":"Feature","properties":{"SeqNo":"779945","Type":"S","DHID":"de:08225:4781","Parent":"de:08225:4781","Name":"Schollbrunn, Ort","MunicipalityCode":"08225118","Municipality":"Waldbrunn","DistrictCode":"","District":"","Description":"","Authority":"VRN","DelfiName":"-","THID":"D920210012AD","LastOperationDate":"2025-06-14T00:00:00","SEV":"nein","longitude":"9,078644","latitude":"49,435311","geojson_lng":9.078644,"geojson_lat":49.435311},"geometry":{"type":"Point","coordinates":[9.078644,49.435311]}},{"type":"Feature","properties":{"SeqNo":"779946","Type":"Q","DHID":"de:08225:4781:0:RiO","Parent":"de:08225:4781","Name":"RiO Mühle","MunicipalityCode":"00000000","Municipality":"-","DistrictCode":"-","District":"-","Description":"","Authority":"VRN","DelfiName":"-","THID":"-","LastOperationDate":"","SEV":"nein","longitude":"9,078617","latitude":"49,435323","geojson_lng":9.078617,"geojson_lat":49.435323},"geometry":{"type":"Point","coordinates":[9.078617,49.435323]}},{"type":"Feature","properties":{"SeqNo":"779947","Type":"Q","DHID":"de:08225:4781:0:RiW","Parent":"de:08225:4781","Name":"RiW Oberdielbach","MunicipalityCode":"00000000","Municipality":"-","DistrictCode":"-","District":"-","Description":"","Authority":"VRN","DelfiName":"-","THID":"-","LastOperationDate":"","SEV":"nein","longitude":"9,07859","latitude":"49,4353","geojson_lng":9.07859,"geojson_lat":49.4353},"geometry":{"type":"Point","coordinates":[9.07859,49.4353]}},{"type":"Feature","properties":{"SeqNo":"780000","Type":"S","DHID":"de:08225:48000","Parent":"de:08225:48000","Name":"Schollbrunn, Sägewerk","MunicipalityCode":"08225118","Municipality":"Waldbrunn","DistrictCode":"","District":"","Description":"","Authority":"VRN","DelfiName":"-","THID":"D9202100BB80","LastOperationDate":"2025-06-14T00:00:00","SEV":"nein","longitude":"9,076003","latitude":"49,437087","geojson_lng":9.076003,"geojson_lat":49.437087},"geometry":{"type":"Point","coordinates":[9.076003,49.437087]}},{"type":"Feature","properties":{"SeqNo":"780001","Type":"Q","DHID":"de:08225:48000:0:1","Parent":"de:08225:48000","Name":"Ri Schollbrunn-Ort","MunicipalityCode":"00000000","Municipality":"-","DistrictCode":"-","District":"-","Description":"","Authority":"VRN","DelfiName":"-","THID":"-","LastOperationDate":"","SEV":"nein","longitude":"9,075976","latitude":"49,437052","geojson_lng":9.075976,"geojson_lat":49.437052},"geometry":{"type":"Point","coordinates":[9.075976,49.437052]}},{"type":"Feature","properties":{"SeqNo":"780002","Type":"Q","DHID":"de:08225:48000:0:2","Parent":"de:08225:48000","Name":"Ri Oberdielbach","MunicipalityCode":"00000000","Municipality":"-","DistrictCode":"-","District":"-","Description":"","Authority":"VRN","DelfiName":"-","THID":"-","LastOperationDate":"","SEV":"nein","longitude":"9,075985","latitude":"49,43714","geojson_lng":9.075985,"geojson_lat":49.43714},"geometry":{"type":"Point","coordinates":[9.075985,49.43714]}}]}