{"type":"FeatureCollection","features":[{"type":"Feature","properties":{"SeqNo":"14032","Type":"S","DHID":"de:08118:3311","Parent":"de:08118:3311","Name":"Markgr. H.-Lange-Sch","MunicipalityCode":"08118050","Municipality":"Markgröningen","DistrictCode":"-","District":"-","Description":"","Authority":"NVBW","DelfiName":"-","THID":"D91FB6000CEF","LastOperationDate":"2025-02-28T00:00:00","SEV":"nein","longitude":"9,078787","latitude":"48,905625","geojson_lng":9.078787,"geojson_lat":48.905625},"geometry":{"type":"Point","coordinates":[9.078787,48.905625]}},{"type":"Feature","properties":{"SeqNo":"14033","Type":"Q","DHID":"de:08118:3311:0:3","Parent":"de:08118:3311","Name":"3","MunicipalityCode":"00000000","Municipality":"-","DistrictCode":"-","District":"-","Description":"eRtg Pappelw./Münchinger Str./Haus Frank","Authority":"NVBW","DelfiName":"-","THID":"-","LastOperationDate":"","SEV":"nein","longitude":"9,078796","latitude":"48,905625","geojson_lng":9.078796,"geojson_lat":48.905625},"geometry":{"type":"Point","coordinates":[9.078796,48.905625]}},{"type":"Feature","properties":{"SeqNo":"14034","Type":"Q","DHID":"de:08118:3311:0:4","Parent":"de:08118:3311","Name":"4","MunicipalityCode":"00000000","Municipality":"-","DistrictCode":"-","District":"-","Description":"eRtg Mitte/Helenenstraße","Authority":"NVBW","DelfiName":"-","THID":"-","LastOperationDate":"","SEV":"nein","longitude":"9,078796","latitude":"48,905625","geojson_lng":9.078796,"geojson_lat":48.905625},"geometry":{"type":"Point","coordinates":[9.078796,48.905625]}},{"type":"Feature","properties":{"SeqNo":"14040","Type":"A","DHID":"de:08118:3313:2","Parent":"de:08118:3313","Name":"2","MunicipalityCode":"00000000","Municipality":"-","DistrictCode":"-","District":"-","Description":"Bus Asperg","Authority":"NVBW","DelfiName":"-","THID":"-","LastOperationDate":"","SEV":"nein","longitude":"9,08548","latitude":"48,905081","geojson_lng":9.08548,"geojson_lat":48.905081},"geometry":{"type":"Point","coordinates":[9.08548,48.905081]}},{"type":"Feature","properties":{"SeqNo":"14042","Type":"Q","DHID":"de:08118:3313:2:4","Parent":"de:08118:3313:2","Name":"4","MunicipalityCode":"00000000","Municipality":"-","DistrictCode":"-","District":"-","Description":"eRtg Abzw. Bahnhof/Sträßle","Authority":"NVBW","DelfiName":"-","THID":"-","LastOperationDate":"","SEV":"nein","longitude":"9,08548","latitude":"48,905081","geojson_lng":9.08548,"geojson_lat":48.905081},"geometry":{"type":"Point","coordinates":[9.08548,48.905081]}},{"type":"Feature","properties":{"SeqNo":"14043","Type":"S","DHID":"de:08118:3314","Parent":"de:08118:3314","Name":"Markgr. Münch. Str.","MunicipalityCode":"08118050","Municipality":"Markgröningen","DistrictCode":"-","District":"-","Description":"","Authority":"NVBW","DelfiName":"-","THID":"D91FB6000CF2","LastOperationDate":"2025-02-28T00:00:00","SEV":"nein","longitude":"9,084097","latitude":"48,901899","geojson_lng":9.084097,"geojson_lat":48.901899},"geometry":{"type":"Point","coordinates":[9.084097,48.901899]}},{"type":"Feature","properties":{"SeqNo":"14044","Type":"A","DHID":"de:08118:3314:1","Parent":"de:08118:3314","Name":"1","MunicipalityCode":"00000000","Municipality":"-","DistrictCode":"-","District":"-","Description":"Bus Ludwigsburg","Authority":"NVBW","DelfiName":"-","THID":"-","LastOperationDate":"","SEV":"nein","longitude":"9,084088","latitude":"48,901904","geojson_lng":9.084088,"geojson_lat":48.901904},"geometry":{"type":"Point","coordinates":[9.084088,48.901904]}},{"type":"Feature","properties":{"SeqNo":"14045","Type":"A","DHID":"de:08118:3314:2","Parent":"de:08118:3314","Name":"2","MunicipalityCode":"00000000","Municipality":"-","DistrictCode":"-","District":"-","Description":"Bus Schwieberd","Authority":"NVBW","DelfiName":"-","THID":"-","LastOperationDate":"","SEV":"nein","longitude":"9,084088","latitude":"48,901904","geojson_lng":9.084088,"geojson_lat":48.901904},"geometry":{"type":"Point","coordinates":[9.084088,48.901904]}},{"type":"Feature","properties":{"SeqNo":"14046","Type":"Q","DHID":"de:08118:3314:1:3","Parent":"de:08118:3314:1","Name":"3","MunicipalityCode":"00000000","Municipality":"-","DistrictCode":"-","District":"-","Description":"Pos 3","Authority":"NVBW","DelfiName":"-","THID":"-","LastOperationDate":"","SEV":"nein","longitude":"9,084088","latitude":"48,901916","geojson_lng":9.084088,"geojson_lat":48.901916},"geometry":{"type":"Point","coordinates":[9.084088,48.901916]}},{"type":"Feature","properties":{"SeqNo":"14047","Type":"Q","DHID":"de:08118:3314:2:4","Parent":"de:08118:3314:2","Name":"4","MunicipalityCode":"00000000","Municipality":"-","DistrictCode":"-","District":"-","Description":"Pos 4","Authority":"NVBW","DelfiName":"-","THID":"-","LastOperationDate":"","SEV":"nein","longitude":"9,084088","latitude":"48,901916","geojson_lng":9.084088,"geojson_lat":48.901916},"geometry":{"type":"Point","coordinates":[9.084088,48.901916]}},{"type":"Feature","properties":{"SeqNo":"14054","Type":"S","DHID":"de:08118:3317","Parent":"de:08118:3317","Name":"Markgr. Mitte/Volksb","MunicipalityCode":"08118050","Municipality":"Markgröningen","DistrictCode":"-","District":"-","Description":"","Authority":"NVBW","DelfiName":"-","THID":"D91FB6000CF5","LastOperationDate":"2025-02-28T00:00:00","SEV":"nein","longitude":"9,083971","latitude":"48,905512","geojson_lng":9.083971,"geojson_lat":48.905512},"geometry":{"type":"Point","coordinates":[9.083971,48.905512]}},{"type":"Feature","properties":{"SeqNo":"14055","Type":"A","DHID":"de:08118:3317:1","Parent":"de:08118:3317","Name":"1","MunicipalityCode":"00000000","Municipality":"-","DistrictCode":"-","District":"-","Description":"Bus","Authority":"NVBW","DelfiName":"-","THID":"-","LastOperationDate":"","SEV":"nein","longitude":"9,083899","latitude":"48,905506","geojson_lng":9.083899,"geojson_lat":48.905506},"geometry":{"type":"Point","coordinates":[9.083899,48.905506]}},{"type":"Feature","properties":{"SeqNo":"14056","Type":"A","DHID":"de:08118:3317:2","Parent":"de:08118:3317","Name":"2","MunicipalityCode":"00000000","Municipality":"-","DistrictCode":"-","District":"-","Description":"Umleitung","Authority":"NVBW","DelfiName":"-","THID":"-","LastOperationDate":"","SEV":"nein","longitude":"9,083629","latitude":"48,905961","geojson_lng":9.083629,"geojson_lat":48.905961},"geometry":{"type":"Point","coordinates":[9.083629,48.905961]}},{"type":"Feature","properties":{"SeqNo":"14057","Type":"Q","DHID":"de:08118:3317:0:3","Parent":"de:08118:3317:1","Name":"3","MunicipalityCode":"00000000","Municipality":"-","DistrictCode":"-","District":"-","Description":"eRtg Heyd-Schule/Festplatz","Authority":"NVBW","DelfiName":"-","THID":"-","LastOperationDate":"","SEV":"nein","longitude":"9,083971","latitude":"48,905512","geojson_lng":9.083971,"geojson_lat":48.905512},"geometry":{"type":"Point","coordinates":[9.083971,48.905512]}},{"type":"Feature","properties":{"SeqNo":"14058","Type":"Q","DHID":"de:08118:3317:0:4","Parent":"de:08118:3317:1","Name":"4","MunicipalityCode":"00000000","Municipality":"-","DistrictCode":"-","District":"-","Description":"eRtg","Authority":"NVBW","DelfiName":"-","THID":"-","LastOperationDate":"","SEV":"nein","longitude":"9,083971","latitude":"48,905512","geojson_lng":9.083971,"geojson_lat":48.905512},"geometry":{"type":"Point","coordinates":[9.083971,48.905512]}},{"type":"Feature","properties":{"SeqNo":"14059","Type":"Q","DHID":"de:08118:3317:2:5","Parent":"de:08118:3317:2","Name":"5","MunicipalityCode":"00000000","Municipality":"-","DistrictCode":"-","District":"-","Description":"Rtg Münchinger Str.","Authority":"NVBW","DelfiName":"-","THID":"-","LastOperationDate":"","SEV":"nein","longitude":"9,083504","latitude":"48,906097","geojson_lng":9.083504,"geojson_lat":48.906097},"geometry":{"type":"Point","coordinates":[9.083504,48.906097]}},{"type":"Feature","properties":{"SeqNo":"14654","Type":"S","DHID":"de:08118:3581","Parent":"de:08118:3581","Name":"Markgr. Festplatz","MunicipalityCode":"08118050","Municipality":"Markgröningen","DistrictCode":"-","District":"-","Description":"","Authority":"NVBW","DelfiName":"-","THID":"D91FB6000DFD","LastOperationDate":"2025-02-28T00:00:00","SEV":"nein","longitude":"9,077997","latitude":"48,90762","geojson_lng":9.077997,"geojson_lat":48.90762},"geometry":{"type":"Point","coordinates":[9.077997,48.90762]}},{"type":"Feature","properties":{"SeqNo":"14655","Type":"Q","DHID":"de:08118:3581:0:3","Parent":"de:08118:3581","Name":"3","MunicipalityCode":"00000000","Municipality":"-","DistrictCode":"-","District":"-","Description":"eRtg Heyd-Schule/Festplatz","Authority":"NVBW","DelfiName":"-","THID":"-","LastOperationDate":"","SEV":"nein","longitude":"9,077997","latitude":"48,90762","geojson_lng":9.077997,"geojson_lat":48.90762},"geometry":{"type":"Point","coordinates":[9.077997,48.90762]}},{"type":"Feature","properties":{"SeqNo":"15913","Type":"S","DHID":"de:08118:5860","Parent":"de:08118:5860","Name":"Markgr. Bildungszentrum","MunicipalityCode":"08118050","Municipality":"Markgröningen","DistrictCode":"-","District":"-","Description":"","Authority":"NVBW","DelfiName":"-","THID":"D91FB60016E4","LastOperationDate":"2025-02-28T00:00:00","SEV":"nein","longitude":"9,082965","latitude":"48,901468","geojson_lng":9.082965,"geojson_lat":48.901468},"geometry":{"type":"Point","coordinates":[9.082965,48.901468]}},{"type":"Feature","properties":{"SeqNo":"15914","Type":"Q","DHID":"de:08118:5860:0:3","Parent":"de:08118:5860","Name":"eRtg alle Richtungen","MunicipalityCode":"00000000","Municipality":"-","DistrictCode":"-","District":"-","Description":"eRtg alle Richtungen","Authority":"NVBW","DelfiName":"-","THID":"-","LastOperationDate":"","SEV":"nein","longitude":"9,082965","latitude":"48,901468","geojson_lng":9.082965,"geojson_lat":48.901468},"geometry":{"type":"Point","coordinates":[9.082965,48.901468]}},{"type":"Feature","properties":{"SeqNo":"15917","Type":"S","DHID":"de:08118:5862","Parent":"de:08118:5862","Name":"Markgr. Heyd-Schule","MunicipalityCode":"08118050","Municipality":"Markgröningen","DistrictCode":"","District":"","Description":"","Authority":"NVBW","DelfiName":"-","THID":"D91FB60016E6","LastOperationDate":"2025-02-28T00:00:00","SEV":"nein","longitude":"9,081653","latitude":"48,907886","geojson_lng":9.081653,"geojson_lat":48.907886},"geometry":{"type":"Point","coordinates":[9.081653,48.907886]}},{"type":"Feature","properties":{"SeqNo":"15918","Type":"Q","DHID":"de:08118:5862:0:3","Parent":"de:08118:5862","Name":"Rtg Haus Frank","MunicipalityCode":"00000000","Municipality":"-","DistrictCode":"-","District":"-","Description":"","Authority":"NVBW","DelfiName":"-","THID":"-","LastOperationDate":"","SEV":"nein","longitude":"9,081563","latitude":"48,907969","geojson_lng":9.081563,"geojson_lat":48.907969},"geometry":{"type":"Point","coordinates":[9.081563,48.907969]}},{"type":"Feature","properties":{"SeqNo":"15919","Type":"Q","DHID":"de:08118:5862:0:4","Parent":"de:08118:5862","Name":"Rtg Mitte","MunicipalityCode":"00000000","Municipality":"-","DistrictCode":"-","District":"-","Description":"","Authority":"NVBW","DelfiName":"-","THID":"-","LastOperationDate":"","SEV":"nein","longitude":"9,081536","latitude":"48,907797","geojson_lng":9.081536,"geojson_lat":48.907797},"geometry":{"type":"Point","coordinates":[9.081536,48.907797]}},{"type":"Feature","properties":{"SeqNo":"16351","Type":"S","DHID":"de:08118:6888","Parent":"de:08118:6888","Name":"Markgr. Mitte/Helene","MunicipalityCode":"08118050","Municipality":"Markgröningen","DistrictCode":"-","District":"-","Description":"","Authority":"NVBW","DelfiName":"-","THID":"D91FB6001AE8","LastOperationDate":"2025-02-28T00:00:00","SEV":"nein","longitude":"9,083234","latitude":"48,905772","geojson_lng":9.083234,"geojson_lat":48.905772},"geometry":{"type":"Point","coordinates":[9.083234,48.905772]}},{"type":"Feature","properties":{"SeqNo":"16352","Type":"Q","DHID":"de:08118:6888:0:3","Parent":"de:08118:6888","Name":"3","MunicipalityCode":"00000000","Municipality":"-","DistrictCode":"-","District":"-","Description":"eRtg Münchinger Straße","Authority":"NVBW","DelfiName":"-","THID":"-","LastOperationDate":"","SEV":"nein","longitude":"9,083234","latitude":"48,905772","geojson_lng":9.083234,"geojson_lat":48.905772},"geometry":{"type":"Point","coordinates":[9.083234,48.905772]}},{"type":"Feature","properties":{"SeqNo":"16983","Type":"S","DHID":"de:08118:7925","Parent":"de:08118:7925","Name":"Markgr. Paulinenstr.","MunicipalityCode":"08118050","Municipality":"Markgröningen","DistrictCode":"-","District":"-","Description":"","Authority":"NVBW","DelfiName":"-","THID":"D91FB6001EF5","LastOperationDate":"1999-12-31T00:00:00","SEV":"nein","longitude":"9,085022","latitude":"48,90775","geojson_lng":9.085022,"geojson_lat":48.90775},"geometry":{"type":"Point","coordinates":[9.085022,48.90775]}},{"type":"Feature","properties":{"SeqNo":"16984","Type":"Q","DHID":"de:08118:7925:0:3","Parent":"de:08118:7925","Name":"3","MunicipalityCode":"00000000","Municipality":"-","DistrictCode":"-","District":"-","Description":"Rtg Heyd-Schule/Mitte Voba","Authority":"NVBW","DelfiName":"-","THID":"-","LastOperationDate":"","SEV":"nein","longitude":"9,085067","latitude":"48,907815","geojson_lng":9.085067,"geojson_lat":48.907815},"geometry":{"type":"Point","coordinates":[9.085067,48.907815]}},{"type":"Feature","properties":{"SeqNo":"16985","Type":"Q","DHID":"de:08118:7925:0:4","Parent":"de:08118:7925","Name":"4","MunicipalityCode":"00000000","Municipality":"-","DistrictCode":"-","District":"-","Description":"Rtg Dornierstr.","Authority":"NVBW","DelfiName":"-","THID":"-","LastOperationDate":"","SEV":"nein","longitude":"9,084986","latitude":"48,907697","geojson_lng":9.084986,"geojson_lat":48.907697},"geometry":{"type":"Point","coordinates":[9.084986,48.907697]}}]}