{"type":"FeatureCollection","features":[{"type":"Feature","properties":{"highway":"bus_stop","public_transport":"platform","name":"Swichum","ref:IFOPT":"NL:Q:23741500","_quaycode":"NL:Q:23741500","_town":"Swichum","_status":"available","_mode":"bus","_direction":145,"_visuallyAccessible":false,"_disabledAccessible":false,"geojson_lng":5.820214965257174,"geojson_lat":53.15379115051232},"geometry":{"type":"Point","coordinates":[5.820214965257174,53.15379115051232]}},{"type":"Feature","properties":{"highway":"bus_stop","public_transport":"platform","name":"Manege","ref:IFOPT":"NL:Q:23740030","_quaycode":"NL:Q:23740030","_town":"Goutum","_status":"available","_mode":"bus","_direction":124,"_visuallyAccessible":false,"_disabledAccessible":false,"geojson_lng":5.821550802107129,"geojson_lat":53.1617837050821},"geometry":{"type":"Point","coordinates":[5.821550802107129,53.1617837050821]}},{"type":"Feature","properties":{"highway":"bus_stop","public_transport":"platform","name":"De Klamp","ref:IFOPT":"NL:Q:23745600","_quaycode":"NL:Q:23745600","_town":"Leeuwarden","_status":"available","_mode":"bus","_direction":163,"_visuallyAccessible":false,"_disabledAccessible":false,"geojson_lng":5.805937768985484,"geojson_lat":53.16909979421268},"geometry":{"type":"Point","coordinates":[5.805937768985484,53.16909979421268]}},{"type":"Feature","properties":{"highway":"bus_stop","public_transport":"platform","name":"Leeuwarderweg","ref:IFOPT":"NL:Q:23700210","_quaycode":"NL:Q:23700210","_town":"Wergea","_status":"available","_mode":"bus","_direction":259,"_visuallyAccessible":false,"_disabledAccessible":false,"geojson_lng":5.842645675585152,"geojson_lat":53.151713145066296},"geometry":{"type":"Point","coordinates":[5.842645675585152,53.151713145066296]}},{"type":"Feature","properties":{"highway":"bus_stop","public_transport":"platform","name":"Manege","ref:IFOPT":"NL:Q:23740040","_quaycode":"NL:Q:23740040","_town":"Goutum","_status":"available","_mode":"bus","_direction":308,"_visuallyAccessible":false,"_disabledAccessible":false,"geojson_lng":5.822071457483067,"geojson_lat":53.16152122840997},"geometry":{"type":"Point","coordinates":[5.822071457483067,53.16152122840997]}},{"type":"Feature","properties":{"highway":"bus_stop","public_transport":"platform","name":"De Klamp","ref:IFOPT":"NL:Q:23745610","_quaycode":"NL:Q:23745610","_town":"Leeuwarden","_status":"available","_mode":"bus","_direction":343,"_visuallyAccessible":false,"_disabledAccessible":false,"geojson_lng":5.805762066847022,"geojson_lat":53.169486796755315},"geometry":{"type":"Point","coordinates":[5.805762066847022,53.169486796755315]}},{"type":"Feature","properties":{"highway":"bus_stop","public_transport":"platform","name":"Leeuwarderweg","ref:IFOPT":"NL:Q:23700200","_quaycode":"NL:Q:23700200","_town":"Wergea","_status":"available","_mode":"bus","_direction":81,"_visuallyAccessible":false,"_disabledAccessible":false,"geojson_lng":5.842824379549699,"geojson_lat":53.15164956476401},"geometry":{"type":"Point","coordinates":[5.842824379549699,53.15164956476401]}}]}