{"type":"FeatureCollection","features":[{"type":"Feature","properties":{"highway":"bus_stop","public_transport":"platform","name":"P+R Nijmegen West","ref:IFOPT":"NL:Q:60157290","_quaycode":"NL:Q:60157290","_town":"Nijmegen","_status":"available","_mode":"bus","_direction":220,"_visuallyAccessible":false,"_disabledAccessible":false,"geojson_lng":5.801438995088244,"geojson_lat":51.836556926647106},"geometry":{"type":"Point","coordinates":[5.801438995088244,51.836556926647106]}},{"type":"Feature","properties":{"highway":"bus_stop","public_transport":"platform","name":"Fuchsiastraat","ref:IFOPT":"NL:Q:60008450","_quaycode":"NL:Q:60008450","_town":"Nijmegen","_status":"available","_mode":"bus","_direction":227,"_visuallyAccessible":false,"_disabledAccessible":true,"geojson_lng":5.840027017419204,"geojson_lat":51.84166360508303},"geometry":{"type":"Point","coordinates":[5.840027017419204,51.84166360508303]}},{"type":"Feature","properties":{"highway":"bus_stop","public_transport":"platform","name":"Poort Neerbosch ","ref:IFOPT":"NL:Q:60157320","_quaycode":"NL:Q:60157320","_town":"Nijmegen","_status":"available","_mode":"bus","_direction":100,"_visuallyAccessible":false,"_disabledAccessible":false,"geojson_lng":5.803484104039997,"geojson_lat":51.83805075904978},"geometry":{"type":"Point","coordinates":[5.803484104039997,51.83805075904978]}},{"type":"Feature","properties":{"highway":"bus_stop","public_transport":"platform","name":"Scheepvaartweg","ref:IFOPT":"NL:Q:60001550","_quaycode":"NL:Q:60001550","_town":"Nijmegen","_status":"available","_mode":"bus","_direction":50,"_visuallyAccessible":true,"_disabledAccessible":false,"geojson_lng":5.830745825308052,"geojson_lat":51.84961788231172},"geometry":{"type":"Point","coordinates":[5.830745825308052,51.84961788231172]}},{"type":"Feature","properties":{"highway":"bus_stop","public_transport":"platform","name":"Molenweg/Wolfskuilseweg","ref:IFOPT":"NL:Q:60008490","_quaycode":"NL:Q:60008490","_town":"Nijmegen","_status":"available","_mode":"bus","_direction":237,"_visuallyAccessible":false,"_disabledAccessible":true,"geojson_lng":5.835921379191962,"geojson_lat":51.83884801218344},"geometry":{"type":"Point","coordinates":[5.835921379191962,51.83884801218344]}},{"type":"Feature","properties":{"highway":"bus_stop","public_transport":"platform","name":"Vuurdoornstraat","ref:IFOPT":"NL:Q:60008180","_quaycode":"NL:Q:60008180","_town":"Nijmegen","_status":"available","_mode":"bus","_direction":63,"_visuallyAccessible":false,"_disabledAccessible":true,"geojson_lng":5.832298769112853,"geojson_lat":51.83640796011372},"geometry":{"type":"Point","coordinates":[5.832298769112853,51.83640796011372]}},{"type":"Feature","properties":{"highway":"bus_stop","public_transport":"platform","name":"Dr. de Blecourtstraat","ref:IFOPT":"NL:Q:60001420","_quaycode":"NL:Q:60001420","_town":"Nijmegen","_status":"available","_mode":"bus","_direction":64,"_visuallyAccessible":false,"_disabledAccessible":true,"geojson_lng":5.816670278474894,"geojson_lat":51.8377156031267},"geometry":{"type":"Point","coordinates":[5.816670278474894,51.8377156031267]}},{"type":"Feature","properties":{"highway":"bus_stop","public_transport":"platform","name":"Energieweg/Wolfskuilsewg","ref:IFOPT":"NL:Q:60001390","_quaycode":"NL:Q:60001390","_town":"Nijmegen","_status":"available","_mode":"bus","_direction":223,"_visuallyAccessible":false,"_disabledAccessible":false,"geojson_lng":5.825103155193791,"geojson_lat":51.84396736276594},"geometry":{"type":"Point","coordinates":[5.825103155193791,51.84396736276594]}},{"type":"Feature","properties":{"highway":"bus_stop","public_transport":"platform","name":"Lagelandseweg","ref:IFOPT":"NL:Q:60151010","_quaycode":"NL:Q:60151010","_town":"Nijmegen","_status":"available","_mode":"bus","_direction":217,"_visuallyAccessible":false,"_disabledAccessible":true,"geojson_lng":5.804729805424326,"geojson_lat":51.84094960080794},"geometry":{"type":"Point","coordinates":[5.804729805424326,51.84094960080794]}},{"type":"Feature","properties":{"highway":"bus_stop","public_transport":"platform","name":"Merwedestraat","ref:IFOPT":"NL:Q:60003370","_quaycode":"NL:Q:60003370","_town":"Nijmegen","_status":"available","_mode":"bus","_direction":270,"_visuallyAccessible":false,"_disabledAccessible":true,"geojson_lng":5.844591091378845,"geojson_lat":51.85098491214123},"geometry":{"type":"Point","coordinates":[5.844591091378845,51.85098491214123]}},{"type":"Feature","properties":{"highway":"bus_stop","public_transport":"platform","name":"Biezenstraat","ref:IFOPT":"NL:Q:60003490","_quaycode":"NL:Q:60003490","_town":"Nijmegen","_status":"available","_mode":"bus","_direction":31,"_visuallyAccessible":false,"_disabledAccessible":true,"geojson_lng":5.84288761045972,"geojson_lat":51.84902306754323},"geometry":{"type":"Point","coordinates":[5.84288761045972,51.84902306754323]}},{"type":"Feature","properties":{"highway":"bus_stop","public_transport":"platform","name":"Vuurdoornstraat","ref:IFOPT":"NL:Q:60008530","_quaycode":"NL:Q:60008530","_town":"Nijmegen","_status":"available","_mode":"bus","_direction":247,"_visuallyAccessible":false,"_disabledAccessible":false,"geojson_lng":5.830973604827328,"geojson_lat":51.83591861430735},"geometry":{"type":"Point","coordinates":[5.830973604827328,51.83591861430735]}},{"type":"Feature","properties":{"highway":"bus_stop","public_transport":"platform","name":"Rozenstraat","ref:IFOPT":"NL:Q:60000130","_quaycode":"NL:Q:60000130","_town":"Nijmegen","_status":"available","_mode":"bus","_direction":249,"_visuallyAccessible":false,"_disabledAccessible":false,"geojson_lng":5.845183751971386,"geojson_lat":51.83658337865688},"geometry":{"type":"Point","coordinates":[5.845183751971386,51.83658337865688]}},{"type":"Feature","properties":{"highway":"bus_stop","public_transport":"platform","name":"Sluis Weurt","ref:IFOPT":"NL:Q:60000990","_quaycode":"NL:Q:60000990","_town":"Nijmegen","_status":"available","_mode":"bus","_direction":288,"_visuallyAccessible":true,"_disabledAccessible":false,"geojson_lng":5.8258970043353315,"geojson_lat":51.853950561550356},"geometry":{"type":"Point","coordinates":[5.8258970043353315,51.853950561550356]}},{"type":"Feature","properties":{"highway":"bus_stop","public_transport":"platform","name":"Kerkstraat","ref:IFOPT":"NL:Q:61120100","_quaycode":"NL:Q:61120100","_town":"Weurt","_status":"available","_mode":"bus","_direction":111,"_visuallyAccessible":false,"_disabledAccessible":true,"geojson_lng":5.815066902524168,"geojson_lat":51.857476321261196},"geometry":{"type":"Point","coordinates":[5.815066902524168,51.857476321261196]}},{"type":"Feature","properties":{"highway":"bus_stop","public_transport":"platform","name":"Energieweg/Wolfskuilsewg","ref:IFOPT":"NL:Q:60001400","_quaycode":"NL:Q:60001400","_town":"Nijmegen","_status":"available","_mode":"bus","_direction":42,"_visuallyAccessible":true,"_disabledAccessible":true,"geojson_lng":5.826241511500381,"geojson_lat":51.84462825449289},"geometry":{"type":"Point","coordinates":[5.826241511500381,51.84462825449289]}},{"type":"Feature","properties":{"highway":"bus_stop","public_transport":"platform","name":"Dr. de Blecourtstraat","ref:IFOPT":"NL:Q:60001410","_quaycode":"NL:Q:60001410","_town":"Nijmegen","_status":"available","_mode":"bus","_direction":245,"_visuallyAccessible":false,"_disabledAccessible":false,"geojson_lng":5.816906027569325,"geojson_lat":51.83809225503068},"geometry":{"type":"Point","coordinates":[5.816906027569325,51.83809225503068]}},{"type":"Feature","properties":{"highway":"bus_stop","public_transport":"platform","name":"Industrieweg","ref:IFOPT":"NL:Q:60003880","_quaycode":"NL:Q:60003880","_town":"Nijmegen","_status":"available","_mode":"bus","_direction":316,"_visuallyAccessible":true,"_disabledAccessible":true,"geojson_lng":5.833668081914445,"geojson_lat":51.848663013695905},"geometry":{"type":"Point","coordinates":[5.833668081914445,51.848663013695905]}},{"type":"Feature","properties":{"highway":"bus_stop","public_transport":"platform","name":"P+R Nijmegen West","ref:IFOPT":"NL:Q:60157300","_quaycode":"NL:Q:60157300","_town":"Nijmegen","_status":"available","_mode":"bus","_direction":10,"_visuallyAccessible":false,"_disabledAccessible":false,"geojson_lng":5.8024935765892325,"geojson_lat":51.83763181226471},"geometry":{"type":"Point","coordinates":[5.8024935765892325,51.83763181226471]}},{"type":"Feature","properties":{"highway":"bus_stop","public_transport":"platform","name":"Vlietstraat","ref:IFOPT":"NL:Q:60003580","_quaycode":"NL:Q:60003580","_town":"Nijmegen","_status":"available","_mode":"bus","_direction":287,"_visuallyAccessible":false,"_disabledAccessible":true,"geojson_lng":5.838574891162472,"geojson_lat":51.84590276417521},"geometry":{"type":"Point","coordinates":[5.838574891162472,51.84590276417521]}},{"type":"Feature","properties":{"highway":"bus_stop","public_transport":"platform","name":"Fuchsiastraat","ref:IFOPT":"NL:Q:60008240","_quaycode":"NL:Q:60008240","_town":"Nijmegen","_status":"available","_mode":"bus","_direction":51,"_visuallyAccessible":false,"_disabledAccessible":true,"geojson_lng":5.839600345628833,"geojson_lat":51.841081000858615},"geometry":{"type":"Point","coordinates":[5.839600345628833,51.841081000858615]}},{"type":"Feature","properties":{"highway":"bus_stop","public_transport":"platform","name":"Molenweg/Wolfskuilseweg","ref:IFOPT":"NL:Q:60008220","_quaycode":"NL:Q:60008220","_town":"Nijmegen","_status":"available","_mode":"bus","_direction":57,"_visuallyAccessible":false,"_disabledAccessible":true,"geojson_lng":5.836241125681308,"geojson_lat":51.838900719710836},"geometry":{"type":"Point","coordinates":[5.836241125681308,51.838900719710836]}},{"type":"Feature","properties":{"highway":"bus_stop","public_transport":"platform","name":"Hogelandseweg","ref:IFOPT":"NL:Q:60151040","_quaycode":"NL:Q:60151040","_town":"Nijmegen","_status":"available","_mode":"bus","_direction":308,"_visuallyAccessible":true,"_disabledAccessible":true,"geojson_lng":5.800446352584002,"geojson_lat":51.84538707766503},"geometry":{"type":"Point","coordinates":[5.800446352584002,51.84538707766503]}},{"type":"Feature","properties":{"highway":"bus_stop","public_transport":"platform","name":"Poort Neerbosch ","ref:IFOPT":"NL:Q:60157310","_quaycode":"NL:Q:60157310","_town":"Nijmegen","_status":"available","_mode":"bus","_direction":280,"_visuallyAccessible":false,"_disabledAccessible":false,"geojson_lng":5.803298141466476,"geojson_lat":51.83833904900177},"geometry":{"type":"Point","coordinates":[5.803298141466476,51.83833904900177]}},{"type":"Feature","properties":{"highway":"bus_stop","public_transport":"platform","name":"Sluis Weurt","ref:IFOPT":"NL:Q:60000970","_quaycode":"NL:Q:60000970","_town":"Nijmegen","_status":"available","_mode":"bus","_direction":108,"_visuallyAccessible":true,"_disabledAccessible":true,"geojson_lng":5.826199438845507,"geojson_lat":51.853706742735895},"geometry":{"type":"Point","coordinates":[5.826199438845507,51.853706742735895]}},{"type":"Feature","properties":{"highway":"bus_stop","public_transport":"platform","name":"Zwaluwstraat","ref:IFOPT":"NL:Q:60003430","_quaycode":"NL:Q:60003430","_town":"Nijmegen","_status":"available","_mode":"bus","_direction":104,"_visuallyAccessible":true,"_disabledAccessible":true,"geojson_lng":5.843942880942821,"geojson_lat":51.84431800130142},"geometry":{"type":"Point","coordinates":[5.843942880942821,51.84431800130142]}},{"type":"Feature","properties":{"highway":"bus_stop","public_transport":"platform","name":"Vlietstraat","ref:IFOPT":"NL:Q:60003450","_quaycode":"NL:Q:60003450","_town":"Nijmegen","_status":"available","_mode":"bus","_direction":107,"_visuallyAccessible":false,"_disabledAccessible":true,"geojson_lng":5.838586879389551,"geojson_lat":51.84565104127531},"geometry":{"type":"Point","coordinates":[5.838586879389551,51.84565104127531]}},{"type":"Feature","properties":{"highway":"bus_stop","public_transport":"platform","name":"Scheepvaartweg","ref:IFOPT":"NL:Q:60001540","_quaycode":"NL:Q:60001540","_town":"Nijmegen","_status":"available","_mode":"bus","_direction":222,"_visuallyAccessible":false,"_disabledAccessible":false,"geojson_lng":5.829841955570785,"geojson_lat":51.849207826489625},"geometry":{"type":"Point","coordinates":[5.829841955570785,51.849207826489625]}},{"type":"Feature","properties":{"highway":"bus_stop","public_transport":"platform","name":"Lagelandseweg","ref:IFOPT":"NL:Q:60151020","_quaycode":"NL:Q:60151020","_town":"Nijmegen","_status":"available","_mode":"bus","_direction":327,"_visuallyAccessible":false,"_disabledAccessible":true,"geojson_lng":5.805143851155057,"geojson_lat":51.84178405203756},"geometry":{"type":"Point","coordinates":[5.805143851155057,51.84178405203756]}},{"type":"Feature","properties":{"highway":"bus_stop","public_transport":"platform","name":"Zwaluwstraat","ref:IFOPT":"NL:Q:60003440","_quaycode":"NL:Q:60003440","_town":"Nijmegen","_status":"available","_mode":"bus","_direction":283,"_visuallyAccessible":true,"_disabledAccessible":false,"geojson_lng":5.8437712073619075,"geojson_lat":51.84456135783237},"geometry":{"type":"Point","coordinates":[5.8437712073619075,51.84456135783237]}},{"type":"Feature","properties":{"highway":"bus_stop","public_transport":"platform","name":"Kerkstraat","ref:IFOPT":"NL:Q:61120010","_quaycode":"NL:Q:61120010","_town":"Weurt","_status":"available","_mode":"bus","_direction":294,"_visuallyAccessible":false,"_disabledAccessible":true,"geojson_lng":5.816230787870029,"geojson_lat":51.85706932925306},"geometry":{"type":"Point","coordinates":[5.816230787870029,51.85706932925306]}},{"type":"Feature","properties":{"highway":"bus_stop","public_transport":"platform","name":"Merwedestraat","ref:IFOPT":"NL:Q:60003720","_quaycode":"NL:Q:60003720","_town":"Nijmegen","_status":"available","_mode":"bus","_direction":90,"_visuallyAccessible":false,"_disabledAccessible":true,"geojson_lng":5.844560968634246,"geojson_lat":51.85087716808989},"geometry":{"type":"Point","coordinates":[5.844560968634246,51.85087716808989]}},{"type":"Feature","properties":{"highway":"bus_stop","public_transport":"platform","name":"Hogelandseweg","ref:IFOPT":"NL:Q:60151030","_quaycode":"NL:Q:60151030","_town":"Nijmegen","_status":"available","_mode":"bus","_direction":128,"_visuallyAccessible":true,"_disabledAccessible":false,"geojson_lng":5.802217197681606,"geojson_lat":51.84385279318826},"geometry":{"type":"Point","coordinates":[5.802217197681606,51.84385279318826]}},{"type":"Feature","properties":{"highway":"bus_stop","public_transport":"platform","name":"2e Oude Heselaan","ref:IFOPT":"NL:Q:60008430","_quaycode":"NL:Q:60008430","_town":"Nijmegen","_status":"available","_mode":"bus","_direction":260,"_visuallyAccessible":false,"_disabledAccessible":true,"geojson_lng":5.8452790727826685,"geojson_lat":51.84300047724574},"geometry":{"type":"Point","coordinates":[5.8452790727826685,51.84300047724574]}},{"type":"Feature","properties":{"highway":"bus_stop","public_transport":"platform","name":"Biezenstraat","ref:IFOPT":"NL:Q:60003660","_quaycode":"NL:Q:60003660","_town":"Nijmegen","_status":"available","_mode":"bus","_direction":210,"_visuallyAccessible":true,"_disabledAccessible":true,"geojson_lng":5.842772327169933,"geojson_lat":51.84910441123636},"geometry":{"type":"Point","coordinates":[5.842772327169933,51.84910441123636]}},{"type":"Feature","properties":{"highway":"bus_stop","public_transport":"platform","name":"Nyma","ref:IFOPT":"NL:Q:60000905","_quaycode":"NL:Q:60000905","_town":"Nijmegen","_status":"available","_mode":"bus","_direction":97,"_visuallyAccessible":null,"_disabledAccessible":null,"geojson_lng":5.83693744519937,"geojson_lat":51.85487053421758},"geometry":{"type":"Point","coordinates":[5.83693744519937,51.85487053421758]}},{"type":"Feature","properties":{"highway":"bus_stop","public_transport":"platform","name":"Nyma","ref:IFOPT":"NL:Q:60000915","_quaycode":"NL:Q:60000915","_town":"Nijmegen","_status":"available","_mode":"bus","_direction":277,"_visuallyAccessible":null,"_disabledAccessible":null,"geojson_lng":5.836720264160679,"geojson_lat":51.85492529693415},"geometry":{"type":"Point","coordinates":[5.836720264160679,51.85492529693415]}},{"type":"Feature","properties":{"highway":"bus_stop","public_transport":"platform","name":"Industrieweg","ref:IFOPT":"NL:Q:60003960","_quaycode":"NL:Q:60003960","_town":"Nijmegen","_status":"available","_mode":"bus","_direction":134,"_visuallyAccessible":false,"_disabledAccessible":true,"geojson_lng":5.832887157577436,"geojson_lat":51.84894462412178},"geometry":{"type":"Point","coordinates":[5.832887157577436,51.84894462412178]}}]}