{"type":"FeatureCollection","features":[{"type":"Feature","properties":{"highway":"bus_stop","public_transport":"platform","name":"Groot-Welsden","ref:IFOPT":"NL:Q:66340100","_quaycode":"NL:Q:66340100","_town":"Margraten","_status":"available","_mode":"bus","_direction":293,"_visuallyAccessible":false,"_disabledAccessible":false,"geojson_lng":5.82049507989018,"geojson_lat":50.83096715262473},"geometry":{"type":"Point","coordinates":[5.82049507989018,50.83096715262473]}},{"type":"Feature","properties":{"highway":"bus_stop","public_transport":"platform","name":"Aan de Fremme","ref:IFOPT":"NL:Q:66340180","_quaycode":"NL:Q:66340180","_town":"Margraten","_status":"available","_mode":"bus","_direction":350,"_visuallyAccessible":false,"_disabledAccessible":false,"geojson_lng":5.833358549575945,"geojson_lat":50.8210753798619},"geometry":{"type":"Point","coordinates":[5.833358549575945,50.8210753798619]}},{"type":"Feature","properties":{"highway":"bus_stop","public_transport":"platform","name":"Kapel","ref:IFOPT":"NL:Q:66340390","_quaycode":"NL:Q:66340390","_town":"Scheulder","_status":"available","_mode":"bus","_direction":42,"_visuallyAccessible":false,"_disabledAccessible":false,"geojson_lng":5.840399851661907,"geojson_lat":50.830072815632384},"geometry":{"type":"Point","coordinates":[5.840399851661907,50.830072815632384]}},{"type":"Feature","properties":{"highway":"bus_stop","public_transport":"platform","name":"Van Schaluynhofstraat","ref:IFOPT":"NL:Q:66340330","_quaycode":"NL:Q:66340330","_town":"Margraten","_status":"available","_mode":"bus","_direction":330,"_visuallyAccessible":false,"_disabledAccessible":false,"geojson_lng":5.824568843240608,"geojson_lat":50.820461787448075},"geometry":{"type":"Point","coordinates":[5.824568843240608,50.820461787448075]}},{"type":"Feature","properties":{"highway":"bus_stop","public_transport":"platform","name":"Dorpstraat","ref:IFOPT":"NL:Q:66340410","_quaycode":"NL:Q:66340410","_town":"Sibbe","_status":"available","_mode":"bus","_direction":270,"_visuallyAccessible":false,"_disabledAccessible":false,"geojson_lng":5.822789953200815,"geojson_lat":50.845592419320425},"geometry":{"type":"Point","coordinates":[5.822789953200815,50.845592419320425]}},{"type":"Feature","properties":{"highway":"bus_stop","public_transport":"platform","name":"Hendrik van Gelderstraat","ref:IFOPT":"NL:Q:66340230","_quaycode":"NL:Q:66340230","_town":"Margraten","_status":"available","_mode":"bus","_direction":207,"_visuallyAccessible":false,"_disabledAccessible":false,"geojson_lng":5.822109935991505,"geojson_lat":50.82154973410488},"geometry":{"type":"Point","coordinates":[5.822109935991505,50.82154973410488]}},{"type":"Feature","properties":{"highway":"bus_stop","public_transport":"platform","name":"Aan de Fremme","ref:IFOPT":"NL:Q:66340190","_quaycode":"NL:Q:66340190","_town":"Margraten","_status":"available","_mode":"bus","_direction":167,"_visuallyAccessible":false,"_disabledAccessible":false,"geojson_lng":5.833288118633105,"geojson_lat":50.82112958508009},"geometry":{"type":"Point","coordinates":[5.833288118633105,50.82112958508009]}},{"type":"Feature","properties":{"highway":"bus_stop","public_transport":"platform","name":"Gemeentehuis","ref:IFOPT":"NL:Q:66340270","_quaycode":"NL:Q:66340270","_town":"Margraten","_status":"available","_mode":"bus","_direction":255,"_visuallyAccessible":false,"_disabledAccessible":false,"geojson_lng":5.822995296136945,"geojson_lat":50.82062953299189},"geometry":{"type":"Point","coordinates":[5.822995296136945,50.82062953299189]}},{"type":"Feature","properties":{"highway":"bus_stop","public_transport":"platform","name":"Sibberkerkstraat 1","ref:IFOPT":"NL:Q:66340450","_quaycode":"NL:Q:66340450","_town":"Sibbe","_status":"available","_mode":"bus","_direction":170,"_visuallyAccessible":false,"_disabledAccessible":false,"geojson_lng":5.828413833508153,"geojson_lat":50.84127440230072},"geometry":{"type":"Point","coordinates":[5.828413833508153,50.84127440230072]}},{"type":"Feature","properties":{"highway":"bus_stop","public_transport":"platform","name":"Gemeentehuis","ref:IFOPT":"NL:Q:66340280","_quaycode":"NL:Q:66340280","_town":"Margraten","_status":"available","_mode":"bus","_direction":75,"_visuallyAccessible":false,"_disabledAccessible":false,"geojson_lng":5.823122497714595,"geojson_lat":50.82057511990031},"geometry":{"type":"Point","coordinates":[5.823122497714595,50.82057511990031]}},{"type":"Feature","properties":{"highway":"bus_stop","public_transport":"platform","name":"Groot-Welsden","ref:IFOPT":"NL:Q:66340110","_quaycode":"NL:Q:66340110","_town":"Margraten","_status":"available","_mode":"bus","_direction":176,"_visuallyAccessible":false,"_disabledAccessible":false,"geojson_lng":5.82028285650586,"geojson_lat":50.83103985918354},"geometry":{"type":"Point","coordinates":[5.82028285650586,50.83103985918354]}},{"type":"Feature","properties":{"highway":"bus_stop","public_transport":"platform","name":"Dorpstraat/St. Rosastraat","ref:IFOPT":"NL:Q:66340440","_quaycode":"NL:Q:66340440","_town":"Sibbe","_status":"available","_mode":"bus","_direction":272,"_visuallyAccessible":false,"_disabledAccessible":false,"geojson_lng":5.827718030157867,"geojson_lat":50.84424338756333},"geometry":{"type":"Point","coordinates":[5.827718030157867,50.84424338756333]}},{"type":"Feature","properties":{"highway":"bus_stop","public_transport":"platform","name":"Scheuldersteeg","ref:IFOPT":"NL:Q:66340310","_quaycode":"NL:Q:66340310","_town":"Margraten","_status":"available","_mode":"bus","_direction":66,"_visuallyAccessible":false,"_disabledAccessible":false,"geojson_lng":5.827550475453025,"geojson_lat":50.822131382175336},"geometry":{"type":"Point","coordinates":[5.827550475453025,50.822131382175336]}},{"type":"Feature","properties":{"highway":"bus_stop","public_transport":"platform","name":"Hendrik van Gelderstraat","ref:IFOPT":"NL:Q:66340240","_quaycode":"NL:Q:66340240","_town":"Margraten","_status":"available","_mode":"bus","_direction":21,"_visuallyAccessible":false,"_disabledAccessible":false,"geojson_lng":5.821965000048375,"geojson_lat":50.821226680112225},"geometry":{"type":"Point","coordinates":[5.821965000048375,50.821226680112225]}},{"type":"Feature","properties":{"highway":"bus_stop","public_transport":"platform","name":"Eijkerweg","ref:IFOPT":"NL:Q:66340260","_quaycode":"NL:Q:66340260","_town":"Margraten","_status":"available","_mode":"bus","_direction":150,"_visuallyAccessible":false,"_disabledAccessible":false,"geojson_lng":5.823849748640359,"geojson_lat":50.825471310678495},"geometry":{"type":"Point","coordinates":[5.823849748640359,50.825471310678495]}},{"type":"Feature","properties":{"highway":"bus_stop","public_transport":"platform","name":"Eijkerweg","ref:IFOPT":"NL:Q:66340250","_quaycode":"NL:Q:66340250","_town":"Margraten","_status":"available","_mode":"bus","_direction":330,"_visuallyAccessible":false,"_disabledAccessible":false,"geojson_lng":5.824020637548558,"geojson_lat":50.825533586908676},"geometry":{"type":"Point","coordinates":[5.824020637548558,50.825533586908676]}},{"type":"Feature","properties":{"highway":"bus_stop","public_transport":"platform","name":"Dorpstraat","ref:IFOPT":"NL:Q:66340420","_quaycode":"NL:Q:66340420","_town":"Sibbe","_status":"available","_mode":"bus","_direction":159,"_visuallyAccessible":false,"_disabledAccessible":false,"geojson_lng":5.822775079635493,"geojson_lat":50.84552056432932},"geometry":{"type":"Point","coordinates":[5.822775079635493,50.84552056432932]}},{"type":"Feature","properties":{"highway":"bus_stop","public_transport":"platform","name":"Kapel","ref:IFOPT":"NL:Q:66340400","_quaycode":"NL:Q:66340400","_town":"Scheulder","_status":"available","_mode":"bus","_direction":96,"_visuallyAccessible":false,"_disabledAccessible":false,"geojson_lng":5.8404415508469105,"geojson_lat":50.829982763233694},"geometry":{"type":"Point","coordinates":[5.8404415508469105,50.829982763233694]}},{"type":"Feature","properties":{"highway":"bus_stop","public_transport":"platform","name":"Kruisstraat no 11","ref:IFOPT":"NL:Q:66340120","_quaycode":"NL:Q:66340120","_town":"IJzeren","_status":"available","_mode":"bus","_direction":277,"_visuallyAccessible":false,"_disabledAccessible":false,"geojson_lng":5.831447220784124,"geojson_lat":50.8393032059259},"geometry":{"type":"Point","coordinates":[5.831447220784124,50.8393032059259]}},{"type":"Feature","properties":{"highway":"bus_stop","public_transport":"platform","name":"Van Schaluynhofstraat","ref:IFOPT":"NL:Q:66340340","_quaycode":"NL:Q:66340340","_town":"Margraten","_status":"available","_mode":"bus","_direction":150,"_visuallyAccessible":false,"_disabledAccessible":false,"geojson_lng":5.824454900975803,"geojson_lat":50.82041727433712},"geometry":{"type":"Point","coordinates":[5.824454900975803,50.82041727433712]}},{"type":"Feature","properties":{"highway":"bus_stop","public_transport":"platform","name":"Tromputte","ref:IFOPT":"NL:Q:66340510","_quaycode":"NL:Q:66340510","_town":"Margraten","_status":"available","_mode":"bus","_direction":359,"_visuallyAccessible":false,"_disabledAccessible":false,"geojson_lng":5.833100873293106,"geojson_lat":50.822325834685444},"geometry":{"type":"Point","coordinates":[5.833100873293106,50.822325834685444]}},{"type":"Feature","properties":{"highway":"bus_stop","public_transport":"platform","name":"Dorpstraat/St. Rosastraat","ref:IFOPT":"NL:Q:66340430","_quaycode":"NL:Q:66340430","_town":"Sibbe","_status":"available","_mode":"bus","_direction":171,"_visuallyAccessible":false,"_disabledAccessible":false,"geojson_lng":5.827335136080045,"geojson_lat":50.84428979067525},"geometry":{"type":"Point","coordinates":[5.827335136080045,50.84428979067525]}},{"type":"Feature","properties":{"highway":"bus_stop","public_transport":"platform","name":"Scheuldersteeg","ref:IFOPT":"NL:Q:66340320","_quaycode":"NL:Q:66340320","_town":"Margraten","_status":"available","_mode":"bus","_direction":231,"_visuallyAccessible":false,"_disabledAccessible":false,"geojson_lng":5.827465845789182,"geojson_lat":50.8221856379376},"geometry":{"type":"Point","coordinates":[5.827465845789182,50.8221856379376]}},{"type":"Feature","properties":{"highway":"bus_stop","public_transport":"platform","name":"Tromputte","ref:IFOPT":"NL:Q:66340500","_quaycode":"NL:Q:66340500","_town":"Margraten","_status":"available","_mode":"bus","_direction":172,"_visuallyAccessible":false,"_disabledAccessible":false,"geojson_lng":5.8329305025939435,"geojson_lat":50.82231750316292},"geometry":{"type":"Point","coordinates":[5.8329305025939435,50.82231750316292]}},{"type":"Feature","properties":{"highway":"bus_stop","public_transport":"platform","name":"Sibberkerkstraat 1","ref:IFOPT":"NL:Q:66340460","_quaycode":"NL:Q:66340460","_town":"Sibbe","_status":"available","_mode":"bus","_direction":320,"_visuallyAccessible":false,"_disabledAccessible":false,"geojson_lng":5.828499438534559,"geojson_lat":50.841319019881986},"geometry":{"type":"Point","coordinates":[5.828499438534559,50.841319019881986]}},{"type":"Feature","properties":{"highway":"bus_stop","public_transport":"platform","name":"Kruisstraat no 11","ref:IFOPT":"NL:Q:66340130","_quaycode":"NL:Q:66340130","_town":"IJzeren","_status":"available","_mode":"bus","_direction":173,"_visuallyAccessible":false,"_disabledAccessible":false,"geojson_lng":5.831149630809646,"geojson_lat":50.83935828273515},"geometry":{"type":"Point","coordinates":[5.831149630809646,50.83935828273515]}},{"type":"Feature","properties":{"highway":"bus_stop","public_transport":"platform","name":"Amerikaanse Begraafplaats","ref:IFOPT":"NL:Q:66390360","_quaycode":"NL:Q:66390360","_town":"Margraten","_status":"available","_mode":"bus","_direction":89,"_visuallyAccessible":false,"_disabledAccessible":true,"geojson_lng":5.804026581178643,"geojson_lat":50.821050088128864},"geometry":{"type":"Point","coordinates":[5.804026581178643,50.821050088128864]}},{"type":"Feature","properties":{"highway":"bus_stop","public_transport":"platform","name":"Amerikaanse Begraafplaats","ref:IFOPT":"NL:Q:66390370","_quaycode":"NL:Q:66390370","_town":"Margraten","_status":"available","_mode":"bus","_direction":280,"_visuallyAccessible":false,"_disabledAccessible":false,"geojson_lng":5.803545896735679,"geojson_lat":50.82124957629222},"geometry":{"type":"Point","coordinates":[5.803545896735679,50.82124957629222]}}]}