{"type":"FeatureCollection","features":[{"type":"Feature","properties":{"SeqNo":"38280","Type":"S","DHID":"de:08212:1510","Parent":"de:08212:1510","Name":"Durlach HubstraÃŸe","MunicipalityCode":"08212000","Municipality":"Karlsruhe","DistrictCode":"","District":"","Description":"","Authority":"NVBW","DelfiName":"-","THID":"D920140005E6","LastOperationDate":"2025-06-14T00:00:00","SEV":"nein","longitude":"8,472272","latitude":"49,007164","geojson_lng":8.472272,"geojson_lat":49.007164},"geometry":{"type":"Point","coordinates":[8.472272,49.007164]}},{"type":"Feature","properties":{"SeqNo":"38281","Type":"A","DHID":"de:08212:1510:1","Parent":"de:08212:1510","Name":"Tram >West","MunicipalityCode":"00000000","Municipality":"-","DistrictCode":"-","District":"-","Description":"","Authority":"NVBW","DelfiName":"-","THID":"-","LastOperationDate":"","SEV":"nein","longitude":"8,471984","latitude":"49,007099","geojson_lng":8.471984,"geojson_lat":49.007099},"geometry":{"type":"Point","coordinates":[8.471984,49.007099]}},{"type":"Feature","properties":{"SeqNo":"38282","Type":"A","DHID":"de:08212:1510:2","Parent":"de:08212:1510","Name":"Tram >Ost","MunicipalityCode":"00000000","Municipality":"-","DistrictCode":"-","District":"-","Description":"","Authority":"NVBW","DelfiName":"-","THID":"-","LastOperationDate":"","SEV":"nein","longitude":"8,472497","latitude":"49,007205","geojson_lng":8.472497,"geojson_lat":49.007205},"geometry":{"type":"Point","coordinates":[8.472497,49.007205]}},{"type":"Feature","properties":{"SeqNo":"38283","Type":"Q","DHID":"de:08212:1510:1:1","Parent":"de:08212:1510:1","Name":"Tram/12 >West","MunicipalityCode":"00000000","Municipality":"-","DistrictCode":"-","District":"-","Description":"","Authority":"NVBW","DelfiName":"-","THID":"-","LastOperationDate":"","SEV":"nein","longitude":"8,472011","latitude":"49,007081","geojson_lng":8.472011,"geojson_lat":49.007081},"geometry":{"type":"Point","coordinates":[8.472011,49.007081]}},{"type":"Feature","properties":{"SeqNo":"38284","Type":"Q","DHID":"de:08212:1510:2:2","Parent":"de:08212:1510:2","Name":"Tram/12 >Ost","MunicipalityCode":"00000000","Municipality":"-","DistrictCode":"-","District":"-","Description":"","Authority":"NVBW","DelfiName":"-","THID":"-","LastOperationDate":"","SEV":"nein","longitude":"8,472488","latitude":"49,007228","geojson_lng":8.472488,"geojson_lat":49.007228},"geometry":{"type":"Point","coordinates":[8.472488,49.007228]}}]}