{"type":"FeatureCollection","features":[{"type":"Feature","properties":{"SeqNo":"64726","Type":"S","DHID":"de:08326:1586","Parent":"de:08326:1586","Name":"Villingen Fürstenbergring","MunicipalityCode":"08326074","Municipality":"Villingen-Schwenningen","DistrictCode":"","District":"","Description":"","Authority":"NVBW","DelfiName":"-","THID":"D92086000632","LastOperationDate":"2024-12-14T00:00:00","SEV":"nein","longitude":"8,47317","latitude":"48,057775","geojson_lng":8.47317,"geojson_lat":48.057775},"geometry":{"type":"Point","coordinates":[8.47317,48.057775]}},{"type":"Feature","properties":{"SeqNo":"64727","Type":"Q","DHID":"de:08326:1586:0:1","Parent":"de:08326:1586","Name":"","MunicipalityCode":"00000000","Municipality":"-","DistrictCode":"-","District":"-","Description":"","Authority":"NVBW","DelfiName":"-","THID":"-","LastOperationDate":"","SEV":"nein","longitude":"8,473143","latitude":"48,057739","geojson_lng":8.473143,"geojson_lat":48.057739},"geometry":{"type":"Point","coordinates":[8.473143,48.057739]}},{"type":"Feature","properties":{"SeqNo":"64728","Type":"Q","DHID":"de:08326:1586:0:2","Parent":"de:08326:1586","Name":"","MunicipalityCode":"00000000","Municipality":"-","DistrictCode":"-","District":"-","Description":"","Authority":"NVBW","DelfiName":"-","THID":"-","LastOperationDate":"","SEV":"nein","longitude":"8,473386","latitude":"48,05897","geojson_lng":8.473386,"geojson_lat":48.05897},"geometry":{"type":"Point","coordinates":[8.473386,48.05897]}},{"type":"Feature","properties":{"SeqNo":"65640","Type":"S","DHID":"de:08326:8037","Parent":"de:08326:8037","Name":"Villingen Habsburger Ring","MunicipalityCode":"08326074","Municipality":"Villingen-Schwenningen","DistrictCode":"","District":"","Description":"","Authority":"NVBW","DelfiName":"-","THID":"D92086001F65","LastOperationDate":"2024-12-14T00:00:00","SEV":"nein","longitude":"8,476665","latitude":"48,063443","geojson_lng":8.476665,"geojson_lat":48.063443},"geometry":{"type":"Point","coordinates":[8.476665,48.063443]}},{"type":"Feature","properties":{"SeqNo":"65641","Type":"Q","DHID":"de:08326:8037:0:1","Parent":"de:08326:8037","Name":"","MunicipalityCode":"00000000","Municipality":"-","DistrictCode":"-","District":"-","Description":"","Authority":"NVBW","DelfiName":"-","THID":"-","LastOperationDate":"","SEV":"nein","longitude":"8,476611","latitude":"48,063467","geojson_lng":8.476611,"geojson_lat":48.063467},"geometry":{"type":"Point","coordinates":[8.476611,48.063467]}},{"type":"Feature","properties":{"SeqNo":"65786","Type":"S","DHID":"de:08326:8100","Parent":"de:08326:8100","Name":"Villingen Falkenring Süd","MunicipalityCode":"08326074","Municipality":"Villingen-Schwenningen","DistrictCode":"","District":"","Description":"","Authority":"NVBW","DelfiName":"-","THID":"D92086001FA4","LastOperationDate":"2024-12-14T00:00:00","SEV":"nein","longitude":"8,471724","latitude":"48,062999","geojson_lng":8.471724,"geojson_lat":48.062999},"geometry":{"type":"Point","coordinates":[8.471724,48.062999]}},{"type":"Feature","properties":{"SeqNo":"65787","Type":"Q","DHID":"de:08326:8100:0:1","Parent":"de:08326:8100","Name":"","MunicipalityCode":"00000000","Municipality":"-","DistrictCode":"-","District":"-","Description":"","Authority":"NVBW","DelfiName":"-","THID":"-","LastOperationDate":"","SEV":"nein","longitude":"8,471724","latitude":"48,062999","geojson_lng":8.471724,"geojson_lat":48.062999},"geometry":{"type":"Point","coordinates":[8.471724,48.062999]}},{"type":"Feature","properties":{"SeqNo":"65913","Type":"S","DHID":"de:08326:8164","Parent":"de:08326:8164","Name":"Villingen Bertholdschule","MunicipalityCode":"08326074","Municipality":"Villingen-Schwenningen","DistrictCode":"","District":"","Description":"","Authority":"NVBW","DelfiName":"-","THID":"D92086001FE4","LastOperationDate":"2024-12-14T00:00:00","SEV":"nein","longitude":"8,473476","latitude":"48,061306","geojson_lng":8.473476,"geojson_lat":48.061306},"geometry":{"type":"Point","coordinates":[8.473476,48.061306]}},{"type":"Feature","properties":{"SeqNo":"65914","Type":"Q","DHID":"de:08326:8164:0:1","Parent":"de:08326:8164","Name":"","MunicipalityCode":"00000000","Municipality":"-","DistrictCode":"-","District":"-","Description":"","Authority":"NVBW","DelfiName":"-","THID":"-","LastOperationDate":"","SEV":"nein","longitude":"8,473476","latitude":"48,061306","geojson_lng":8.473476,"geojson_lat":48.061306},"geometry":{"type":"Point","coordinates":[8.473476,48.061306]}},{"type":"Feature","properties":{"SeqNo":"65915","Type":"Q","DHID":"de:08326:8164:0:2","Parent":"de:08326:8164","Name":"","MunicipalityCode":"00000000","Municipality":"-","DistrictCode":"-","District":"-","Description":"","Authority":"NVBW","DelfiName":"-","THID":"-","LastOperationDate":"","SEV":"nein","longitude":"8,473557","latitude":"48,060639","geojson_lng":8.473557,"geojson_lat":48.060639},"geometry":{"type":"Point","coordinates":[8.473557,48.060639]}},{"type":"Feature","properties":{"SeqNo":"66633","Type":"S","DHID":"de:08326:8533","Parent":"de:08326:8533","Name":"Villingen Auf der Steig I","MunicipalityCode":"08326074","Municipality":"Villingen-Schwenningen","DistrictCode":"","District":"","Description":"","Authority":"NVBW","DelfiName":"-","THID":"D92086002155","LastOperationDate":"2024-12-13T00:00:00","SEV":"nein","longitude":"8,479917","latitude":"48,061582","geojson_lng":8.479917,"geojson_lat":48.061582},"geometry":{"type":"Point","coordinates":[8.479917,48.061582]}},{"type":"Feature","properties":{"SeqNo":"66634","Type":"Q","DHID":"de:08326:8533:0:1","Parent":"de:08326:8533","Name":"","MunicipalityCode":"00000000","Municipality":"-","DistrictCode":"-","District":"-","Description":"","Authority":"NVBW","DelfiName":"-","THID":"-","LastOperationDate":"","SEV":"nein","longitude":"8,479917","latitude":"48,061582","geojson_lng":8.479917,"geojson_lat":48.061582},"geometry":{"type":"Point","coordinates":[8.479917,48.061582]}}]}