{"type":"FeatureCollection","features":[{"type":"Feature","properties":{"highway":"bus_stop","public_transport":"platform","name":"Margarethaland","ref:IFOPT":"NL:Q:32002521","_quaycode":"NL:Q:32002521","_town":"Den Haag","_status":"available","_mode":"bus","_direction":135,"_visuallyAccessible":false,"_disabledAccessible":false,"geojson_lng":4.365101599525143,"geojson_lat":52.0920497025903},"geometry":{"type":"Point","coordinates":[4.365101599525143,52.0920497025903]}},{"type":"Feature","properties":{"highway":"bus_stop","public_transport":"platform","name":"Station Mariahoeve","ref:IFOPT":"NL:Q:32002526","_quaycode":"NL:Q:32002526","_town":"Den Haag","_status":"available","_mode":"bus","_direction":66,"_visuallyAccessible":true,"_disabledAccessible":true,"geojson_lng":4.3688735572025,"geojson_lat":52.09110259363573},"geometry":{"type":"Point","coordinates":[4.3688735572025,52.09110259363573]}},{"type":"Feature","properties":{"highway":"bus_stop","public_transport":"platform","name":"Voorburg 't Loo","ref:IFOPT":"NL:Q:32018727","_quaycode":"NL:Q:32018727","_town":"Voorburg","_status":"available","_mode":"bus","_direction":49,"_visuallyAccessible":false,"_disabledAccessible":false,"geojson_lng":4.365061453230159,"geojson_lat":52.08167645294862},"geometry":{"type":"Point","coordinates":[4.365061453230159,52.08167645294862]}},{"type":"Feature","properties":{"highway":"bus_stop","public_transport":"platform","name":"Station Mariahoeve","ref:IFOPT":"NL:Q:32002525","_quaycode":"NL:Q:32002525","_town":"Den Haag","_status":"available","_mode":"bus","_direction":120,"_visuallyAccessible":true,"_disabledAccessible":true,"geojson_lng":4.368089806436013,"geojson_lat":52.09091604600139},"geometry":{"type":"Point","coordinates":[4.368089806436013,52.09091604600139]}},{"type":"Feature","properties":{"highway":"bus_stop","public_transport":"platform","name":"Reigersbergenweg","ref:IFOPT":"NL:Q:32002504","_quaycode":"NL:Q:32002504","_town":"Den Haag","_status":"available","_mode":"bus","_direction":240,"_visuallyAccessible":false,"_disabledAccessible":false,"geojson_lng":4.350579952882715,"geojson_lat":52.0921206164169},"geometry":{"type":"Point","coordinates":[4.350579952882715,52.0921206164169]}},{"type":"Feature","properties":{"highway":"bus_stop","public_transport":"platform","name":"Reigersbergenweg","ref:IFOPT":"NL:Q:32002531","_quaycode":"NL:Q:32002531","_town":"Den Haag","_status":"available","_mode":"bus","_direction":64,"_visuallyAccessible":false,"_disabledAccessible":false,"geojson_lng":4.353472749687167,"geojson_lat":52.0894494283292},"geometry":{"type":"Point","coordinates":[4.353472749687167,52.0894494283292]}},{"type":"Feature","properties":{"highway":"bus_stop","public_transport":"platform","name":"Reigersbergenweg","ref:IFOPT":"NL:Q:32002503","_quaycode":"NL:Q:32002503","_town":"Den Haag","_status":"available","_mode":"bus","_direction":70,"_visuallyAccessible":false,"_disabledAccessible":true,"geojson_lng":4.352420408782657,"geojson_lat":52.09267610997926},"geometry":{"type":"Point","coordinates":[4.352420408782657,52.09267610997926]}},{"type":"Feature","properties":{"highway":"bus_stop","public_transport":"platform","name":"Margarethaland","ref:IFOPT":"NL:Q:32002522","_quaycode":"NL:Q:32002522","_town":"Den Haag","_status":"available","_mode":"bus","_direction":309,"_visuallyAccessible":true,"_disabledAccessible":true,"geojson_lng":4.365718282930384,"geojson_lat":52.09188426508851},"geometry":{"type":"Point","coordinates":[4.365718282930384,52.09188426508851]}}]}