{"type":"FeatureCollection","features":[{"type":"Feature","properties":{"highway":"bus_stop","public_transport":"platform","name":"Fuutlaan","ref:IFOPT":"NL:Q:42002801","_quaycode":"NL:Q:42002801","_town":"Delft","_status":"available","_mode":"bus","_direction":12,"_visuallyAccessible":true,"_disabledAccessible":true,"geojson_lng":4.362171517184903,"geojson_lat":51.98365624274338},"geometry":{"type":"Point","coordinates":[4.362171517184903,51.98365624274338]}},{"type":"Feature","properties":{"highway":"bus_stop","public_transport":"platform","name":"Abtswoudsepark","ref:IFOPT":"NL:Q:42000706","_quaycode":"NL:Q:42000706","_town":"Delft","_status":"available","_mode":"bus","_direction":260,"_visuallyAccessible":false,"_disabledAccessible":false,"geojson_lng":4.350560300186971,"geojson_lat":51.98088483232956},"geometry":{"type":"Point","coordinates":[4.350560300186971,51.98088483232956]}},{"type":"Feature","properties":{"highway":"bus_stop","public_transport":"platform","name":"Rietzangerstraat","ref:IFOPT":"NL:Q:42006301","_quaycode":"NL:Q:42006301","_town":"Delft","_status":"available","_mode":"bus","_direction":79,"_visuallyAccessible":true,"_disabledAccessible":true,"geojson_lng":4.357516653631141,"geojson_lat":51.98223132073184},"geometry":{"type":"Point","coordinates":[4.357516653631141,51.98223132073184]}},{"type":"Feature","properties":{"highway":"bus_stop","public_transport":"platform","name":"Abtswoudsepark","ref:IFOPT":"NL:Q:42000701","_quaycode":"NL:Q:42000701","_town":"Delft","_status":"available","_mode":"bus","_direction":76,"_visuallyAccessible":true,"_disabledAccessible":true,"geojson_lng":4.350254046440039,"geojson_lat":51.98090909981755},"geometry":{"type":"Point","coordinates":[4.350254046440039,51.98090909981755]}},{"type":"Feature","properties":{"highway":"bus_stop","public_transport":"platform","name":"Fuutlaan","ref:IFOPT":"NL:Q:42002802","_quaycode":"NL:Q:42002802","_town":"Delft","_status":"available","_mode":"bus","_direction":194,"_visuallyAccessible":true,"_disabledAccessible":true,"geojson_lng":4.361947268067169,"geojson_lat":51.98327675949179},"geometry":{"type":"Point","coordinates":[4.361947268067169,51.98327675949179]}},{"type":"Feature","properties":{"highway":"bus_stop","public_transport":"platform","name":"Rietzangerstraat","ref:IFOPT":"NL:Q:42006302","_quaycode":"NL:Q:42006302","_town":"Delft","_status":"available","_mode":"bus","_direction":261,"_visuallyAccessible":true,"_disabledAccessible":true,"geojson_lng":4.356862329562247,"geojson_lat":51.98219862577785},"geometry":{"type":"Point","coordinates":[4.356862329562247,51.98219862577785]}},{"type":"Feature","properties":{"highway":"bus_stop","public_transport":"platform","name":"Edelhertlaan","ref:IFOPT":"NL:Q:42002602","_quaycode":"NL:Q:42002602","_town":"Delft","_status":"available","_mode":"bus","_direction":166,"_visuallyAccessible":true,"_disabledAccessible":true,"geojson_lng":4.3618479631451175,"geojson_lat":51.98507365248101},"geometry":{"type":"Point","coordinates":[4.3618479631451175,51.98507365248101]}}]}