{"type":"FeatureCollection","features":[{"type":"Feature","properties":{"SeqNo":"82355","Type":"A","DHID":"de:08421:1507:5","Parent":"de:08421:1507","Name":"B+R","MunicipalityCode":"00000000","Municipality":"-","DistrictCode":"-","District":"-","Description":"","Authority":"NVBW","DelfiName":"-","THID":"-","LastOperationDate":"","SEV":"nein","longitude":"9,954187","latitude":"48,371021","geojson_lng":9.954187,"geojson_lat":48.371021},"geometry":{"type":"Point","coordinates":[9.954187,48.371021]}},{"type":"Feature","properties":{"SeqNo":"82357","Type":"Q","DHID":"de:08421:1507:1:2","Parent":"de:08421:1507:1","Name":"Steig B","MunicipalityCode":"00000000","Municipality":"-","DistrictCode":"-","District":"-","Description":"","Authority":"NVBW","DelfiName":"-","THID":"-","LastOperationDate":"","SEV":"nein","longitude":"9,95433","latitude":"48,371129","geojson_lng":9.95433,"geojson_lat":48.371129},"geometry":{"type":"Point","coordinates":[9.95433,48.371129]}},{"type":"Feature","properties":{"SeqNo":"82358","Type":"Q","DHID":"de:08421:1507:5:50","Parent":"de:08421:1507:5","Name":"B+R Zugang","MunicipalityCode":"00000000","Municipality":"-","DistrictCode":"-","District":"-","Description":"","Authority":"NVBW","DelfiName":"-","THID":"-","LastOperationDate":"","SEV":"nein","longitude":"9,954214","latitude":"48,371009","geojson_lng":9.954214,"geojson_lat":48.371009},"geometry":{"type":"Point","coordinates":[9.954214,48.371009]}},{"type":"Feature","properties":{"SeqNo":"82359","Type":"S","DHID":"de:08421:1528","Parent":"de:08421:1528","Name":"Donautal Hans-Reyhing-Weg","MunicipalityCode":"08421000","Municipality":"Ulm","DistrictCode":"","District":"","Description":"","Authority":"NVBW","DelfiName":"-","THID":"D920E50005F8","LastOperationDate":"2025-06-14T00:00:00","SEV":"nein","longitude":"9,955534","latitude":"48,375103","geojson_lng":9.955534,"geojson_lat":48.375103},"geometry":{"type":"Point","coordinates":[9.955534,48.375103]}},{"type":"Feature","properties":{"SeqNo":"82360","Type":"Q","DHID":"de:08421:1528:0:1","Parent":"de:08421:1528","Name":"Steig A","MunicipalityCode":"00000000","Municipality":"-","DistrictCode":"-","District":"-","Description":"","Authority":"NVBW","DelfiName":"-","THID":"-","LastOperationDate":"","SEV":"nein","longitude":"9,95575","latitude":"48,375151","geojson_lng":9.95575,"geojson_lat":48.375151},"geometry":{"type":"Point","coordinates":[9.95575,48.375151]}},{"type":"Feature","properties":{"SeqNo":"82361","Type":"Q","DHID":"de:08421:1528:0:2","Parent":"de:08421:1528","Name":"Steig B","MunicipalityCode":"00000000","Municipality":"-","DistrictCode":"-","District":"-","Description":"","Authority":"NVBW","DelfiName":"-","THID":"-","LastOperationDate":"","SEV":"nein","longitude":"9,955319","latitude":"48,375031","geojson_lng":9.955319,"geojson_lat":48.375031},"geometry":{"type":"Point","coordinates":[9.955319,48.375031]}}]}