{"type":"FeatureCollection","features":[{"type":"Feature","properties":{"highway":"bus_stop","public_transport":"platform","name":"Globdijk","ref:IFOPT":"NL:Q:36380660","_quaycode":"NL:Q:36380660","_town":"Graft","_status":"available","_mode":"bus","_direction":10,"_visuallyAccessible":false,"_disabledAccessible":false,"geojson_lng":4.832658251190927,"geojson_lat":52.56464621190061},"geometry":{"type":"Point","coordinates":[4.832658251190927,52.56464621190061]}},{"type":"Feature","properties":{"highway":"bus_stop","public_transport":"platform","name":"Noorderstraat","ref:IFOPT":"NL:Q:37324260","_quaycode":"NL:Q:37324260","_town":"Wormerveer","_status":"available","_mode":"bus","_direction":211,"_visuallyAccessible":true,"_disabledAccessible":false,"geojson_lng":4.787931669511057,"geojson_lat":52.49585452034458},"geometry":{"type":"Point","coordinates":[4.787931669511057,52.49585452034458]}},{"type":"Feature","properties":{"highway":"bus_stop","public_transport":"platform","name":"Zandweg","ref:IFOPT":"NL:Q:37420250","_quaycode":"NL:Q:37420250","_town":"Wormer","_status":"available","_mode":"bus","_direction":144,"_visuallyAccessible":false,"_disabledAccessible":false,"geojson_lng":4.802073849432761,"geojson_lat":52.49542181454456},"geometry":{"type":"Point","coordinates":[4.802073849432761,52.49542181454456]}},{"type":"Feature","properties":{"highway":"bus_stop","public_transport":"platform","name":"Warmoesstraat","ref:IFOPT":"NL:Q:37324160","_quaycode":"NL:Q:37324160","_town":"Wormerveer","_status":"available","_mode":"bus","_direction":289,"_visuallyAccessible":true,"_disabledAccessible":true,"geojson_lng":4.8016729211524485,"geojson_lat":52.48678280743665},"geometry":{"type":"Point","coordinates":[4.8016729211524485,52.48678280743665]}},{"type":"Feature","properties":{"highway":"bus_stop","public_transport":"platform","name":"Warmoesstraat","ref:IFOPT":"NL:Q:37324230","_quaycode":"NL:Q:37324230","_town":"Wormerveer","_status":"available","_mode":"bus","_direction":109,"_visuallyAccessible":true,"_disabledAccessible":true,"geojson_lng":4.80211753922669,"geojson_lat":52.4865603126096},"geometry":{"type":"Point","coordinates":[4.80211753922669,52.4865603126096]}},{"type":"Feature","properties":{"highway":"bus_stop","public_transport":"platform","name":"De Balk","ref:IFOPT":"NL:Q:37420310","_quaycode":"NL:Q:37420310","_town":"Wormer","_status":"available","_mode":"bus","_direction":82,"_visuallyAccessible":true,"_disabledAccessible":false,"geojson_lng":4.80824827245051,"geojson_lat":52.490580864057435},"geometry":{"type":"Point","coordinates":[4.80824827245051,52.490580864057435]}},{"type":"Feature","properties":{"highway":"bus_stop","public_transport":"platform","name":"Klaterbuurt","ref:IFOPT":"NL:Q:36470280","_quaycode":"NL:Q:36470280","_town":"Westbeemster","_status":"available","_mode":"bus","_direction":290,"_visuallyAccessible":false,"_disabledAccessible":false,"geojson_lng":4.861089307135205,"geojson_lat":52.5600212447856},"geometry":{"type":"Point","coordinates":[4.861089307135205,52.5600212447856]}},{"type":"Feature","properties":{"highway":"bus_stop","public_transport":"platform","name":"Neckerbrug","ref:IFOPT":"NL:Q:37404010","_quaycode":"NL:Q:37404010","_town":"Neck","_status":"available","_mode":"bus","_direction":69,"_visuallyAccessible":false,"_disabledAccessible":false,"geojson_lng":4.919225086867608,"geojson_lat":52.50820963891396},"geometry":{"type":"Point","coordinates":[4.919225086867608,52.50820963891396]}},{"type":"Feature","properties":{"highway":"bus_stop","public_transport":"platform","name":"Keerlus Wormer Oost","ref:IFOPT":"NL:Q:37420020","_quaycode":"NL:Q:37420020","_town":"Wormer","_status":"available","_mode":"bus","_direction":187,"_visuallyAccessible":false,"_disabledAccessible":false,"geojson_lng":4.84723705955639,"geojson_lat":52.502592295045396},"geometry":{"type":"Point","coordinates":[4.84723705955639,52.502592295045396]}},{"type":"Feature","properties":{"highway":"bus_stop","public_transport":"platform","name":"Pontveer","ref:IFOPT":"NL:Q:36210120","_quaycode":"NL:Q:36210120","_town":"Akersloot","_status":"available","_mode":"bus","_direction":64,"_visuallyAccessible":false,"_disabledAccessible":false,"geojson_lng":4.745247264180476,"geojson_lat":52.57051506983883},"geometry":{"type":"Point","coordinates":[4.745247264180476,52.57051506983883]}},{"type":"Feature","properties":{"highway":"bus_stop","public_transport":"platform","name":"Zaandammerstraat","ref:IFOPT":"NL:Q:37420090","_quaycode":"NL:Q:37420090","_town":"Wormer","_status":"available","_mode":"bus","_direction":66,"_visuallyAccessible":true,"_disabledAccessible":true,"geojson_lng":4.812754527935979,"geojson_lat":52.49844888418724},"geometry":{"type":"Point","coordinates":[4.812754527935979,52.49844888418724]}},{"type":"Feature","properties":{"highway":"bus_stop","public_transport":"platform","name":"Noordse Balk","ref:IFOPT":"NL:Q:37324360","_quaycode":"NL:Q:37324360","_town":"Wormerveer","_status":"available","_mode":"bus","_direction":281,"_visuallyAccessible":true,"_disabledAccessible":true,"geojson_lng":4.778592403075831,"geojson_lat":52.497164095102406},"geometry":{"type":"Point","coordinates":[4.778592403075831,52.497164095102406]}},{"type":"Feature","properties":{"highway":"bus_stop","public_transport":"platform","name":"Prins van Oranjestraat","ref:IFOPT":"NL:Q:37420110","_quaycode":"NL:Q:37420110","_town":"Wormer","_status":"available","_mode":"bus","_direction":68,"_visuallyAccessible":true,"_disabledAccessible":true,"geojson_lng":4.816320607807188,"geojson_lat":52.49940978684778},"geometry":{"type":"Point","coordinates":[4.816320607807188,52.49940978684778]}},{"type":"Feature","properties":{"highway":"bus_stop","public_transport":"platform","name":"De Knip","ref:IFOPT":"NL:Q:36470040","_quaycode":"NL:Q:36470040","_town":"Middenbeemster","_status":"available","_mode":"bus","_direction":212,"_visuallyAccessible":false,"_disabledAccessible":false,"geojson_lng":4.9077441101385775,"geojson_lat":52.54004214631978},"geometry":{"type":"Point","coordinates":[4.9077441101385775,52.54004214631978]}},{"type":"Feature","properties":{"highway":"bus_stop","public_transport":"platform","name":"Jupiterstraat","ref:IFOPT":"NL:Q:37324621","_quaycode":"NL:Q:37324621","_town":"Krommenie","_status":"available","_mode":"bus","_direction":14,"_visuallyAccessible":false,"_disabledAccessible":true,"geojson_lng":4.755313150622445,"geojson_lat":52.4980220286463},"geometry":{"type":"Point","coordinates":[4.755313150622445,52.4980220286463]}},{"type":"Feature","properties":{"highway":"bus_stop","public_transport":"platform","name":"Wezenland","ref:IFOPT":"NL:Q:37420130","_quaycode":"NL:Q:37420130","_town":"Wormer","_status":"available","_mode":"bus","_direction":263,"_visuallyAccessible":false,"_disabledAccessible":false,"geojson_lng":4.821127745336686,"geojson_lat":52.500070934056374},"geometry":{"type":"Point","coordinates":[4.821127745336686,52.500070934056374]}},{"type":"Feature","properties":{"highway":"bus_stop","public_transport":"platform","name":"Voetpad Urk","ref:IFOPT":"NL:Q:36280040","_quaycode":"NL:Q:36280040","_town":"Grootschermer","_status":"available","_mode":"bus","_direction":56,"_visuallyAccessible":false,"_disabledAccessible":true,"geojson_lng":4.848305140694371,"geojson_lat":52.579223817361886},"geometry":{"type":"Point","coordinates":[4.848305140694371,52.579223817361886]}},{"type":"Feature","properties":{"highway":"bus_stop","public_transport":"platform","name":"Nieuweweg","ref:IFOPT":"NL:Q:37420200","_quaycode":"NL:Q:37420200","_town":"Wormer","_status":"available","_mode":"bus","_direction":197,"_visuallyAccessible":true,"_disabledAccessible":false,"geojson_lng":4.7991301299104485,"geojson_lat":52.49200098114792},"geometry":{"type":"Point","coordinates":[4.7991301299104485,52.49200098114792]}},{"type":"Feature","properties":{"highway":"bus_stop","public_transport":"platform","name":"Rotonde Ned. Benedictweg","ref:IFOPT":"NL:Q:37420050","_quaycode":"NL:Q:37420050","_town":"Wormer","_status":"available","_mode":"bus","_direction":77,"_visuallyAccessible":false,"_disabledAccessible":false,"geojson_lng":4.803401656569837,"geojson_lat":52.49634508455398},"geometry":{"type":"Point","coordinates":[4.803401656569837,52.49634508455398]}},{"type":"Feature","properties":{"highway":"bus_stop","public_transport":"platform","name":"Rouenweg","ref:IFOPT":"NL:Q:37420230","_quaycode":"NL:Q:37420230","_town":"Wormer","_status":"available","_mode":"bus","_direction":208,"_visuallyAccessible":true,"_disabledAccessible":true,"geojson_lng":4.803046856343323,"geojson_lat":52.49310782545168},"geometry":{"type":"Point","coordinates":[4.803046856343323,52.49310782545168]}},{"type":"Feature","properties":{"highway":"bus_stop","public_transport":"platform","name":"Armstrongbrug","ref:IFOPT":"NL:Q:37324520","_quaycode":"NL:Q:37324520","_town":"Krommenie","_status":"available","_mode":"bus","_direction":212,"_visuallyAccessible":true,"_disabledAccessible":true,"geojson_lng":4.754297037468388,"geojson_lat":52.504191064419054},"geometry":{"type":"Point","coordinates":[4.754297037468388,52.504191064419054]}},{"type":"Feature","properties":{"highway":"bus_stop","public_transport":"platform","name":"Station","ref:IFOPT":"NL:Q:37320131","_quaycode":"NL:Q:37320131","_town":"Wormerveer","_status":"available","_mode":"bus","_direction":20,"_visuallyAccessible":false,"_disabledAccessible":false,"geojson_lng":4.792773017691016,"geojson_lat":52.48953366998188},"geometry":{"type":"Point","coordinates":[4.792773017691016,52.48953366998188]}},{"type":"Feature","properties":{"highway":"bus_stop","public_transport":"platform","name":"Dorpstraat Nr 137","ref:IFOPT":"NL:Q:37520110","_quaycode":"NL:Q:37520110","_town":"Jisp","_status":"available","_mode":"bus","_direction":87,"_visuallyAccessible":false,"_disabledAccessible":false,"geojson_lng":4.866307086679028,"geojson_lat":52.50653317465713},"geometry":{"type":"Point","coordinates":[4.866307086679028,52.50653317465713]}},{"type":"Feature","properties":{"highway":"bus_stop","public_transport":"platform","name":"Tuyp","ref:IFOPT":"NL:Q:36470540","_quaycode":"NL:Q:36470540","_town":"Middenbeemster","_status":"available","_mode":"bus","_direction":31,"_visuallyAccessible":false,"_disabledAccessible":false,"geojson_lng":4.918320607554187,"geojson_lat":52.55734010433963},"geometry":{"type":"Point","coordinates":[4.918320607554187,52.55734010433963]}},{"type":"Feature","properties":{"highway":"bus_stop","public_transport":"platform","name":"Torenerf","ref:IFOPT":"NL:Q:37424110","_quaycode":"NL:Q:37424110","_town":"Wormer","_status":"available","_mode":"bus","_direction":348,"_visuallyAccessible":false,"_disabledAccessible":false,"geojson_lng":4.816340577139856,"geojson_lat":52.497864029843456},"geometry":{"type":"Point","coordinates":[4.816340577139856,52.497864029843456]}},{"type":"Feature","properties":{"highway":"bus_stop","public_transport":"platform","name":"Brandweerkazerne","ref:IFOPT":"NL:Q:37520090","_quaycode":"NL:Q:37520090","_town":"Jisp","_status":"available","_mode":"bus","_direction":96,"_visuallyAccessible":false,"_disabledAccessible":false,"geojson_lng":4.857241174458417,"geojson_lat":52.507167090447915},"geometry":{"type":"Point","coordinates":[4.857241174458417,52.507167090447915]}},{"type":"Feature","properties":{"highway":"bus_stop","public_transport":"platform","name":"Oosteinde","ref:IFOPT":"NL:Q:36380040","_quaycode":"NL:Q:36380040","_town":"De Rijp","_status":"available","_mode":"bus","_direction":270,"_visuallyAccessible":false,"_disabledAccessible":false,"geojson_lng":4.857643050711041,"geojson_lat":52.55964643300354},"geometry":{"type":"Point","coordinates":[4.857643050711041,52.55964643300354]}},{"type":"Feature","properties":{"highway":"bus_stop","public_transport":"platform","name":"Noordeinde nr. 66","ref:IFOPT":"NL:Q:36280080","_quaycode":"NL:Q:36280080","_town":"Grootschermer","_status":"available","_mode":"bus","_direction":13,"_visuallyAccessible":false,"_disabledAccessible":false,"geojson_lng":4.850571997162361,"geojson_lat":52.58691823957752},"geometry":{"type":"Point","coordinates":[4.850571997162361,52.58691823957752]}},{"type":"Feature","properties":{"highway":"bus_stop","public_transport":"platform","name":"Kopdammerdijk","ref:IFOPT":"NL:Q:36280110","_quaycode":"NL:Q:36280110","_town":"Grootschermer","_status":"available","_mode":"bus","_direction":277,"_visuallyAccessible":false,"_disabledAccessible":false,"geojson_lng":4.848687732157102,"geojson_lat":52.58292833136481},"geometry":{"type":"Point","coordinates":[4.848687732157102,52.58292833136481]}},{"type":"Feature","properties":{"highway":"bus_stop","public_transport":"platform","name":"Jonk","ref:IFOPT":"NL:Q:36570580","_quaycode":"NL:Q:36570580","_town":"Zuidoostbeemster","_status":"available","_mode":"bus","_direction":283,"_visuallyAccessible":false,"_disabledAccessible":false,"geojson_lng":4.921723837886669,"geojson_lat":52.52827937265106},"geometry":{"type":"Point","coordinates":[4.921723837886669,52.52827937265106]}},{"type":"Feature","properties":{"highway":"bus_stop","public_transport":"platform","name":"K. Hogetoornlaan","ref:IFOPT":"NL:Q:36470060","_quaycode":"NL:Q:36470060","_town":"Middenbeemster","_status":"available","_mode":"bus","_direction":30,"_visuallyAccessible":false,"_disabledAccessible":false,"geojson_lng":4.911178235903776,"geojson_lat":52.5455382600493},"geometry":{"type":"Point","coordinates":[4.911178235903776,52.5455382600493]}},{"type":"Feature","properties":{"highway":"bus_stop","public_transport":"platform","name":"'t Weiver","ref:IFOPT":"NL:Q:37520030","_quaycode":"NL:Q:37520030","_town":"Jisp","_status":"available","_mode":"bus","_direction":185,"_visuallyAccessible":false,"_disabledAccessible":false,"geojson_lng":4.847508451729879,"geojson_lat":52.505694212563974},"geometry":{"type":"Point","coordinates":[4.847508451729879,52.505694212563974]}},{"type":"Feature","properties":{"highway":"bus_stop","public_transport":"platform","name":"Padlaan","ref:IFOPT":"NL:Q:37324010","_quaycode":"NL:Q:37324010","_town":"Krommenie","_status":"available","_mode":"bus","_direction":100,"_visuallyAccessible":false,"_disabledAccessible":true,"geojson_lng":4.772719406723808,"geojson_lat":52.49803257543103},"geometry":{"type":"Point","coordinates":[4.772719406723808,52.49803257543103]}},{"type":"Feature","properties":{"highway":"bus_stop","public_transport":"platform","name":"Noordeinde nr. 90","ref:IFOPT":"NL:Q:36280100","_quaycode":"NL:Q:36280100","_town":"Grootschermer","_status":"available","_mode":"bus","_direction":9,"_visuallyAccessible":false,"_disabledAccessible":false,"geojson_lng":4.85096108285204,"geojson_lat":52.58889720494637},"geometry":{"type":"Point","coordinates":[4.85096108285204,52.58889720494637]}},{"type":"Feature","properties":{"highway":"bus_stop","public_transport":"platform","name":"N. Cromhoutlaan","ref:IFOPT":"NL:Q:36470370","_quaycode":"NL:Q:36470370","_town":"Middenbeemster","_status":"available","_mode":"bus","_direction":295,"_visuallyAccessible":false,"_disabledAccessible":false,"geojson_lng":4.907346434942396,"geojson_lat":52.54950423738849},"geometry":{"type":"Point","coordinates":[4.907346434942396,52.54950423738849]}},{"type":"Feature","properties":{"highway":"bus_stop","public_transport":"platform","name":"Tuyp","ref:IFOPT":"NL:Q:36470590","_quaycode":"NL:Q:36470590","_town":"Middenbeemster","_status":"available","_mode":"bus","_direction":211,"_visuallyAccessible":false,"_disabledAccessible":false,"geojson_lng":4.918666857701321,"geojson_lat":52.55806045761279},"geometry":{"type":"Point","coordinates":[4.918666857701321,52.55806045761279]}},{"type":"Feature","properties":{"highway":"bus_stop","public_transport":"platform","name":"Noordeinde nr. 90","ref:IFOPT":"NL:Q:36280070","_quaycode":"NL:Q:36280070","_town":"Grootschermer","_status":"available","_mode":"bus","_direction":189,"_visuallyAccessible":false,"_disabledAccessible":false,"geojson_lng":4.850754393893079,"geojson_lat":52.588905259235155},"geometry":{"type":"Point","coordinates":[4.850754393893079,52.588905259235155]}},{"type":"Feature","properties":{"highway":"bus_stop","public_transport":"platform","name":"Brandweer","ref:IFOPT":"NL:Q:37325050","_quaycode":"NL:Q:37325050","_town":"Krommeniedijk","_status":"available","_mode":"bus","_direction":288,"_visuallyAccessible":false,"_disabledAccessible":false,"geojson_lng":4.760198377154247,"geojson_lat":52.51697570923447},"geometry":{"type":"Point","coordinates":[4.760198377154247,52.51697570923447]}},{"type":"Feature","properties":{"highway":"bus_stop","public_transport":"platform","name":"Cor Bruijnweg","ref:IFOPT":"NL:Q:37324300","_quaycode":"NL:Q:37324300","_town":"Wormerveer","_status":"available","_mode":"bus","_direction":283,"_visuallyAccessible":false,"_disabledAccessible":true,"geojson_lng":4.786754486112334,"geojson_lat":52.50012663703558},"geometry":{"type":"Point","coordinates":[4.786754486112334,52.50012663703558]}},{"type":"Feature","properties":{"highway":"bus_stop","public_transport":"platform","name":"Jonk","ref:IFOPT":"NL:Q:36570550","_quaycode":"NL:Q:36570550","_town":"Zuidoostbeemster","_status":"available","_mode":"bus","_direction":103,"_visuallyAccessible":false,"_disabledAccessible":false,"geojson_lng":4.922463169183214,"geojson_lat":52.52803960990519},"geometry":{"type":"Point","coordinates":[4.922463169183214,52.52803960990519]}},{"type":"Feature","properties":{"highway":"bus_stop","public_transport":"platform","name":"Noordeinde nr. 66","ref:IFOPT":"NL:Q:36280090","_quaycode":"NL:Q:36280090","_town":"Grootschermer","_status":"available","_mode":"bus","_direction":193,"_visuallyAccessible":false,"_disabledAccessible":false,"geojson_lng":4.850393623453988,"geojson_lat":52.58702528155782},"geometry":{"type":"Point","coordinates":[4.850393623453988,52.58702528155782]}},{"type":"Feature","properties":{"highway":"bus_stop","public_transport":"platform","name":"Kerkplein","ref:IFOPT":"NL:Q:36470011","_quaycode":"NL:Q:36470011","_town":"Westbeemster","_status":"available","_mode":"bus","_direction":200,"_visuallyAccessible":false,"_disabledAccessible":false,"geojson_lng":4.89969133665927,"geojson_lat":52.575158860159185},"geometry":{"type":"Point","coordinates":[4.89969133665927,52.575158860159185]}},{"type":"Feature","properties":{"highway":"bus_stop","public_transport":"platform","name":"Groenveld","ref:IFOPT":"NL:Q:36470240","_quaycode":"NL:Q:36470240","_town":"Middenbeemster","_status":"available","_mode":"bus","_direction":291,"_visuallyAccessible":false,"_disabledAccessible":false,"geojson_lng":4.9209871160320615,"geojson_lat":52.54641300351134},"geometry":{"type":"Point","coordinates":[4.9209871160320615,52.54641300351134]}},{"type":"Feature","properties":{"highway":"bus_stop","public_transport":"platform","name":"Rouenweg","ref:IFOPT":"NL:Q:37420210","_quaycode":"NL:Q:37420210","_town":"Wormer","_status":"available","_mode":"bus","_direction":25,"_visuallyAccessible":true,"_disabledAccessible":true,"geojson_lng":4.803508278543981,"geojson_lat":52.49384707476705},"geometry":{"type":"Point","coordinates":[4.803508278543981,52.49384707476705]}},{"type":"Feature","properties":{"highway":"bus_stop","public_transport":"platform","name":"Raadhuis","ref:IFOPT":"NL:Q:37420170","_quaycode":"NL:Q:37420170","_town":"Wormer","_status":"available","_mode":"bus","_direction":259,"_visuallyAccessible":false,"_disabledAccessible":false,"geojson_lng":4.834618422665744,"geojson_lat":52.50117708464303},"geometry":{"type":"Point","coordinates":[4.834618422665744,52.50117708464303]}},{"type":"Feature","properties":{"highway":"bus_stop","public_transport":"platform","name":"Westerhem","ref:IFOPT":"NL:Q:36470350","_quaycode":"NL:Q:36470350","_town":"Middenbeemster","_status":"available","_mode":"bus","_direction":21,"_visuallyAccessible":false,"_disabledAccessible":false,"geojson_lng":4.906397114249327,"geojson_lat":52.5473707549126},"geometry":{"type":"Point","coordinates":[4.906397114249327,52.5473707549126]}},{"type":"Feature","properties":{"highway":"bus_stop","public_transport":"platform","name":"Insulindeweg","ref:IFOPT":"NL:Q:36470120","_quaycode":"NL:Q:36470120","_town":"Middenbeemster","_status":"available","_mode":"bus","_direction":291,"_visuallyAccessible":false,"_disabledAccessible":false,"geojson_lng":4.903503703543873,"geojson_lat":52.55036940747167},"geometry":{"type":"Point","coordinates":[4.903503703543873,52.55036940747167]}},{"type":"Feature","properties":{"highway":"bus_stop","public_transport":"platform","name":"Marktplein","ref:IFOPT":"NL:Q:37325170","_quaycode":"NL:Q:37325170","_town":"Wormerveer","_status":"available","_mode":"bus","_direction":144,"_visuallyAccessible":false,"_disabledAccessible":false,"geojson_lng":4.787528196127178,"geojson_lat":52.494117885227},"geometry":{"type":"Point","coordinates":[4.787528196127178,52.494117885227]}},{"type":"Feature","properties":{"highway":"bus_stop","public_transport":"platform","name":"Edisonstraat","ref:IFOPT":"NL:Q:37420010","_quaycode":"NL:Q:37420010","_town":"Wormerveer","_status":"available","_mode":"bus","_direction":91,"_visuallyAccessible":false,"_disabledAccessible":false,"geojson_lng":4.797055634471874,"geojson_lat":52.49077736023423},"geometry":{"type":"Point","coordinates":[4.797055634471874,52.49077736023423]}},{"type":"Feature","properties":{"highway":"bus_stop","public_transport":"platform","name":"Plein 13","ref:IFOPT":"NL:Q:37324140","_quaycode":"NL:Q:37324140","_town":"Wormerveer","_status":"available","_mode":"bus","_direction":137,"_visuallyAccessible":true,"_disabledAccessible":true,"geojson_lng":4.80614597954823,"geojson_lat":52.48473766707909},"geometry":{"type":"Point","coordinates":[4.80614597954823,52.48473766707909]}},{"type":"Feature","properties":{"highway":"bus_stop","public_transport":"platform","name":"Willis/Zonnebaars","ref:IFOPT":"NL:Q:37320200","_quaycode":"NL:Q:37320200","_town":"Krommenie","_status":"available","_mode":"bus","_direction":349,"_visuallyAccessible":true,"_disabledAccessible":true,"geojson_lng":4.77291251804177,"geojson_lat":52.50956458757249},"geometry":{"type":"Point","coordinates":[4.77291251804177,52.50956458757249]}},{"type":"Feature","properties":{"highway":"bus_stop","public_transport":"platform","name":"'t Weiver","ref:IFOPT":"NL:Q:37520160","_quaycode":"NL:Q:37520160","_town":"Jisp","_status":"available","_mode":"bus","_direction":5,"_visuallyAccessible":false,"_disabledAccessible":false,"geojson_lng":4.84756747299179,"geojson_lat":52.50568549352041},"geometry":{"type":"Point","coordinates":[4.84756747299179,52.50568549352041]}},{"type":"Feature","properties":{"highway":"bus_stop","public_transport":"platform","name":"De Knip","ref:IFOPT":"NL:Q:36470170","_quaycode":"NL:Q:36470170","_town":"Middenbeemster","_status":"available","_mode":"bus","_direction":32,"_visuallyAccessible":false,"_disabledAccessible":false,"geojson_lng":4.90811015764173,"geojson_lat":52.54026830839742},"geometry":{"type":"Point","coordinates":[4.90811015764173,52.54026830839742]}},{"type":"Feature","properties":{"highway":"bus_stop","public_transport":"platform","name":"Keerlus Wormer Oost","ref:IFOPT":"NL:Q:37520010","_quaycode":"NL:Q:37520010","_town":"Wormer","_status":"available","_mode":"bus","_direction":84,"_visuallyAccessible":false,"_disabledAccessible":false,"geojson_lng":4.845933196816643,"geojson_lat":52.50202912963329},"geometry":{"type":"Point","coordinates":[4.845933196816643,52.50202912963329]}},{"type":"Feature","properties":{"highway":"bus_stop","public_transport":"platform","name":"Rotonde Ned. Benedictweg","ref:IFOPT":"NL:Q:37420180","_quaycode":"NL:Q:37420180","_town":"Wormer","_status":"available","_mode":"bus","_direction":77,"_visuallyAccessible":false,"_disabledAccessible":false,"geojson_lng":4.803401537846954,"geojson_lat":52.49635407150124},"geometry":{"type":"Point","coordinates":[4.803401537846954,52.49635407150124]}},{"type":"Feature","properties":{"highway":"bus_stop","public_transport":"platform","name":"Jisperdijkje Nr 3","ref:IFOPT":"NL:Q:37520150","_quaycode":"NL:Q:37520150","_town":"Jisp","_status":"available","_mode":"bus","_direction":81,"_visuallyAccessible":false,"_disabledAccessible":false,"geojson_lng":4.903209898003451,"geojson_lat":52.509942887794516},"geometry":{"type":"Point","coordinates":[4.903209898003451,52.509942887794516]}},{"type":"Feature","properties":{"highway":"bus_stop","public_transport":"platform","name":"Plein 13","ref:IFOPT":"NL:Q:37324250","_quaycode":"NL:Q:37324250","_town":"Wormerveer","_status":"available","_mode":"bus","_direction":292,"_visuallyAccessible":true,"_disabledAccessible":true,"geojson_lng":4.806112403345382,"geojson_lat":52.485052066920304},"geometry":{"type":"Point","coordinates":[4.806112403345382,52.485052066920304]}},{"type":"Feature","properties":{"highway":"bus_stop","public_transport":"platform","name":"Zaanweg","ref:IFOPT":"NL:Q:37324220","_quaycode":"NL:Q:37324220","_town":"Wormerveer","_status":"available","_mode":"bus","_direction":18,"_visuallyAccessible":false,"_disabledAccessible":false,"geojson_lng":4.7909839606265985,"geojson_lat":52.49227488180964},"geometry":{"type":"Point","coordinates":[4.7909839606265985,52.49227488180964]}},{"type":"Feature","properties":{"highway":"bus_stop","public_transport":"platform","name":"Heiligeweg","ref:IFOPT":"NL:Q:37324420","_quaycode":"NL:Q:37324420","_town":"Krommenie","_status":"available","_mode":"bus","_direction":38,"_visuallyAccessible":true,"_disabledAccessible":true,"geojson_lng":4.766327662388844,"geojson_lat":52.5012168400722},"geometry":{"type":"Point","coordinates":[4.766327662388844,52.5012168400722]}},{"type":"Feature","properties":{"highway":"bus_stop","public_transport":"platform","name":"Hobrederweg","ref:IFOPT":"NL:Q:36470570","_quaycode":"NL:Q:36470570","_town":"Middenbeemster","_status":"available","_mode":"bus","_direction":211,"_visuallyAccessible":false,"_disabledAccessible":false,"geojson_lng":4.922000226202719,"geojson_lat":52.56358279227926},"geometry":{"type":"Point","coordinates":[4.922000226202719,52.56358279227926]}},{"type":"Feature","properties":{"highway":"bus_stop","public_transport":"platform","name":"Arbeid Adelt","ref:IFOPT":"NL:Q:36570530","_quaycode":"NL:Q:36570530","_town":"Zuidoostbeemster","_status":"available","_mode":"bus","_direction":103,"_visuallyAccessible":false,"_disabledAccessible":false,"geojson_lng":4.911664550674589,"geojson_lat":52.53050432438427},"geometry":{"type":"Point","coordinates":[4.911664550674589,52.53050432438427]}},{"type":"Feature","properties":{"highway":"bus_stop","public_transport":"platform","name":"Wezenland","ref:IFOPT":"NL:Q:37420100","_quaycode":"NL:Q:37420100","_town":"Wormer","_status":"available","_mode":"bus","_direction":83,"_visuallyAccessible":false,"_disabledAccessible":false,"geojson_lng":4.82164292339735,"geojson_lat":52.50009136601511},"geometry":{"type":"Point","coordinates":[4.82164292339735,52.50009136601511]}},{"type":"Feature","properties":{"highway":"bus_stop","public_transport":"platform","name":"Rosariumhorst","ref:IFOPT":"NL:Q:37325130","_quaycode":"NL:Q:37325130","_town":"Krommenie","_status":"available","_mode":"bus","_direction":52,"_visuallyAccessible":false,"_disabledAccessible":false,"geojson_lng":4.762483943160414,"geojson_lat":52.50537587228364},"geometry":{"type":"Point","coordinates":[4.762483943160414,52.50537587228364]}},{"type":"Feature","properties":{"highway":"bus_stop","public_transport":"platform","name":"School","ref:IFOPT":"NL:Q:37325070","_quaycode":"NL:Q:37325070","_town":"Krommeniedijk","_status":"available","_mode":"bus","_direction":109,"_visuallyAccessible":false,"_disabledAccessible":false,"geojson_lng":4.7671827911412805,"geojson_lat":52.51479248912298},"geometry":{"type":"Point","coordinates":[4.7671827911412805,52.51479248912298]}},{"type":"Feature","properties":{"highway":"bus_stop","public_transport":"platform","name":"Noordweg","ref:IFOPT":"NL:Q:37420340","_quaycode":"NL:Q:37420340","_town":"Wormer","_status":"available","_mode":"bus","_direction":150,"_visuallyAccessible":false,"_disabledAccessible":false,"geojson_lng":4.800942475256536,"geojson_lat":52.498472200691516},"geometry":{"type":"Point","coordinates":[4.800942475256536,52.498472200691516]}},{"type":"Feature","properties":{"highway":"bus_stop","public_transport":"platform","name":"K.Hogetoornlaan","ref:IFOPT":"NL:Q:36470330","_quaycode":"NL:Q:36470330","_town":"Middenbeemster","_status":"available","_mode":"bus","_direction":291,"_visuallyAccessible":false,"_disabledAccessible":false,"geojson_lng":4.910591690198809,"geojson_lat":52.545248311440126},"geometry":{"type":"Point","coordinates":[4.910591690198809,52.545248311440126]}},{"type":"Feature","properties":{"highway":"bus_stop","public_transport":"platform","name":"Dorpsstraat","ref:IFOPT":"NL:Q:36380570","_quaycode":"NL:Q:36380570","_town":"Graft","_status":"available","_mode":"bus","_direction":92,"_visuallyAccessible":false,"_disabledAccessible":false,"geojson_lng":4.834993853425112,"geojson_lat":52.56068467444019},"geometry":{"type":"Point","coordinates":[4.834993853425112,52.56068467444019]}},{"type":"Feature","properties":{"highway":"bus_stop","public_transport":"platform","name":"Noordeinde","ref:IFOPT":"NL:Q:36380640","_quaycode":"NL:Q:36380640","_town":"Noordeinde NH","_status":"available","_mode":"bus","_direction":18,"_visuallyAccessible":true,"_disabledAccessible":true,"geojson_lng":4.836133427163538,"geojson_lat":52.573344178320006},"geometry":{"type":"Point","coordinates":[4.836133427163538,52.573344178320006]}},{"type":"Feature","properties":{"highway":"bus_stop","public_transport":"platform","name":"Wollandje","ref:IFOPT":"NL:Q:36380611","_quaycode":"NL:Q:36380611","_town":"De Rijp","_status":"available","_mode":"bus","_direction":189,"_visuallyAccessible":false,"_disabledAccessible":false,"geojson_lng":4.8431906441020605,"geojson_lat":52.55969794427924},"geometry":{"type":"Point","coordinates":[4.8431906441020605,52.55969794427924]}},{"type":"Feature","properties":{"highway":"bus_stop","public_transport":"platform","name":"Wollandje","ref:IFOPT":"NL:Q:36380560","_quaycode":"NL:Q:36380560","_town":"De Rijp","_status":"available","_mode":"bus","_direction":9,"_visuallyAccessible":false,"_disabledAccessible":true,"geojson_lng":4.843394649196947,"geojson_lat":52.559896600884},"geometry":{"type":"Point","coordinates":[4.843394649196947,52.559896600884]}},{"type":"Feature","properties":{"highway":"bus_stop","public_transport":"platform","name":"Julianalaan","ref:IFOPT":"NL:Q:36380520","_quaycode":"NL:Q:36380520","_town":"De Rijp","_status":"available","_mode":"bus","_direction":316,"_visuallyAccessible":false,"_disabledAccessible":true,"geojson_lng":4.844343554807871,"geojson_lat":52.55468826171076},"geometry":{"type":"Point","coordinates":[4.844343554807871,52.55468826171076]}},{"type":"Feature","properties":{"highway":"bus_stop","public_transport":"platform","name":"Station ","ref:IFOPT":"NL:Q:37324190","_quaycode":"NL:Q:37324190","_town":"Wormerveer","_status":"available","_mode":"bus","_direction":104,"_visuallyAccessible":false,"_disabledAccessible":true,"geojson_lng":4.793865248165729,"geojson_lat":52.489332424637404},"geometry":{"type":"Point","coordinates":[4.793865248165729,52.489332424637404]}},{"type":"Feature","properties":{"highway":"bus_stop","public_transport":"platform","name":"Noordeinde","ref:IFOPT":"NL:Q:36380530","_quaycode":"NL:Q:36380530","_town":"Noordeinde NH","_status":"available","_mode":"bus","_direction":196,"_visuallyAccessible":false,"_disabledAccessible":false,"geojson_lng":4.836076559652522,"geojson_lat":52.573173154785806},"geometry":{"type":"Point","coordinates":[4.836076559652522,52.573173154785806]}},{"type":"Feature","properties":{"highway":"bus_stop","public_transport":"platform","name":"Viadukt","ref:IFOPT":"NL:Q:36480040","_quaycode":"NL:Q:36480040","_town":"West-Graftdijk","_status":"available","_mode":"bus","_direction":96,"_visuallyAccessible":true,"_disabledAccessible":false,"geojson_lng":4.793857945994328,"geojson_lat":52.55676548440777},"geometry":{"type":"Point","coordinates":[4.793857945994328,52.55676548440777]}},{"type":"Feature","properties":{"highway":"bus_stop","public_transport":"platform","name":"Mieuwijdt","ref:IFOPT":"NL:Q:36380590","_quaycode":"NL:Q:36380590","_town":"Graft","_status":"available","_mode":"bus","_direction":88,"_visuallyAccessible":false,"_disabledAccessible":true,"geojson_lng":4.840527250382989,"geojson_lat":52.560422678723874},"geometry":{"type":"Point","coordinates":[4.840527250382989,52.560422678723874]}},{"type":"Feature","properties":{"highway":"bus_stop","public_transport":"platform","name":"Globdijk","ref:IFOPT":"NL:Q:36380650","_quaycode":"NL:Q:36380650","_town":"Graft","_status":"available","_mode":"bus","_direction":204,"_visuallyAccessible":false,"_disabledAccessible":false,"geojson_lng":4.832608697183649,"geojson_lat":52.5650683870109},"geometry":{"type":"Point","coordinates":[4.832608697183649,52.5650683870109]}},{"type":"Feature","properties":{"highway":"bus_stop","public_transport":"platform","name":"Groenveld","ref:IFOPT":"NL:Q:36470250","_quaycode":"NL:Q:36470250","_town":"Middenbeemster","_status":"available","_mode":"bus","_direction":111,"_visuallyAccessible":false,"_disabledAccessible":false,"geojson_lng":4.921076609817706,"geojson_lat":52.54631449394685},"geometry":{"type":"Point","coordinates":[4.921076609817706,52.54631449394685]}},{"type":"Feature","properties":{"highway":"bus_stop","public_transport":"platform","name":"Oosteinde","ref:IFOPT":"NL:Q:37420040","_quaycode":"NL:Q:37420040","_town":"Wormer","_status":"available","_mode":"bus","_direction":262,"_visuallyAccessible":false,"_disabledAccessible":false,"geojson_lng":4.842474873415093,"geojson_lat":52.50181557753936},"geometry":{"type":"Point","coordinates":[4.842474873415093,52.50181557753936]}},{"type":"Feature","properties":{"highway":"bus_stop","public_transport":"platform","name":"Zandweg","ref:IFOPT":"NL:Q:37420240","_quaycode":"NL:Q:37420240","_town":"Wormer","_status":"available","_mode":"bus","_direction":330,"_visuallyAccessible":false,"_disabledAccessible":false,"geojson_lng":4.802175730232235,"geojson_lat":52.495512192348066},"geometry":{"type":"Point","coordinates":[4.802175730232235,52.495512192348066]}},{"type":"Feature","properties":{"highway":"bus_stop","public_transport":"platform","name":"Neptunuslaan","ref:IFOPT":"NL:Q:37323830","_quaycode":"NL:Q:37323830","_town":"Krommenie","_status":"available","_mode":"bus","_direction":299,"_visuallyAccessible":true,"_disabledAccessible":true,"geojson_lng":4.7533157487506035,"geojson_lat":52.49970103480372},"geometry":{"type":"Point","coordinates":[4.7533157487506035,52.49970103480372]}},{"type":"Feature","properties":{"highway":"bus_stop","public_transport":"platform","name":"Mariastraat","ref:IFOPT":"NL:Q:37420080","_quaycode":"NL:Q:37420080","_town":"Wormer","_status":"available","_mode":"bus","_direction":265,"_visuallyAccessible":false,"_disabledAccessible":false,"geojson_lng":4.825983086872804,"geojson_lat":52.500426538626726},"geometry":{"type":"Point","coordinates":[4.825983086872804,52.500426538626726]}},{"type":"Feature","properties":{"highway":"bus_stop","public_transport":"platform","name":"De Bonte Os","ref:IFOPT":"NL:Q:37520120","_quaycode":"NL:Q:37520120","_town":"Jisp","_status":"available","_mode":"bus","_direction":277,"_visuallyAccessible":false,"_disabledAccessible":false,"geojson_lng":4.852051561339957,"geojson_lat":52.507575197580856},"geometry":{"type":"Point","coordinates":[4.852051561339957,52.507575197580856]}},{"type":"Feature","properties":{"highway":"bus_stop","public_transport":"platform","name":"Glennstraat","ref:IFOPT":"NL:Q:37323891","_quaycode":"NL:Q:37323891","_town":"Krommenie","_status":"available","_mode":"bus","_direction":279,"_visuallyAccessible":true,"_disabledAccessible":true,"geojson_lng":4.75733490767049,"geojson_lat":52.50805390028099},"geometry":{"type":"Point","coordinates":[4.75733490767049,52.50805390028099]}},{"type":"Feature","properties":{"highway":"bus_stop","public_transport":"platform","name":"Arbeid Adelt","ref:IFOPT":"NL:Q:36570600","_quaycode":"NL:Q:36570600","_town":"Zuidoostbeemster","_status":"available","_mode":"bus","_direction":283,"_visuallyAccessible":false,"_disabledAccessible":false,"geojson_lng":4.911501289730449,"geojson_lat":52.53061151898286},"geometry":{"type":"Point","coordinates":[4.911501289730449,52.53061151898286]}},{"type":"Feature","properties":{"highway":"bus_stop","public_transport":"platform","name":"Brandweerkazerne","ref:IFOPT":"NL:Q:37520100","_quaycode":"NL:Q:37520100","_town":"Jisp","_status":"available","_mode":"bus","_direction":276,"_visuallyAccessible":false,"_disabledAccessible":false,"geojson_lng":4.856842645036553,"geojson_lat":52.50723720963012},"geometry":{"type":"Point","coordinates":[4.856842645036553,52.50723720963012]}},{"type":"Feature","properties":{"highway":"bus_stop","public_transport":"platform","name":"Spatterstraat","ref:IFOPT":"NL:Q:37420300","_quaycode":"NL:Q:37420300","_town":"Wormer","_status":"available","_mode":"bus","_direction":170,"_visuallyAccessible":true,"_disabledAccessible":true,"geojson_lng":4.812738502831138,"geojson_lat":52.49515038524477},"geometry":{"type":"Point","coordinates":[4.812738502831138,52.49515038524477]}},{"type":"Feature","properties":{"highway":"bus_stop","public_transport":"platform","name":"Oosteinde","ref:IFOPT":"NL:Q:37420190","_quaycode":"NL:Q:37420190","_town":"Wormer","_status":"available","_mode":"bus","_direction":82,"_visuallyAccessible":false,"_disabledAccessible":false,"geojson_lng":4.842931839907129,"geojson_lat":52.501781724687575},"geometry":{"type":"Point","coordinates":[4.842931839907129,52.501781724687575]}},{"type":"Feature","properties":{"highway":"bus_stop","public_transport":"platform","name":"Noordse Balk","ref:IFOPT":"NL:Q:37324030","_quaycode":"NL:Q:37324030","_town":"Wormerveer","_status":"available","_mode":"bus","_direction":101,"_visuallyAccessible":true,"_disabledAccessible":true,"geojson_lng":4.777871007699651,"geojson_lat":52.497151404492534},"geometry":{"type":"Point","coordinates":[4.777871007699651,52.497151404492534]}},{"type":"Feature","properties":{"highway":"bus_stop","public_transport":"platform","name":"Kaaikhof","ref:IFOPT":"NL:Q:37320330","_quaycode":"NL:Q:37320330","_town":"Assendelft","_status":"available","_mode":"bus","_direction":192,"_visuallyAccessible":true,"_disabledAccessible":false,"geojson_lng":4.753209439205852,"geojson_lat":52.489661349320485},"geometry":{"type":"Point","coordinates":[4.753209439205852,52.489661349320485]}},{"type":"Feature","properties":{"highway":"bus_stop","public_transport":"platform","name":"Blok","ref:IFOPT":"NL:Q:37323930","_quaycode":"NL:Q:37323930","_town":"Krommenie","_status":"available","_mode":"bus","_direction":179,"_visuallyAccessible":false,"_disabledAccessible":false,"geojson_lng":4.7686004266213065,"geojson_lat":52.50508436818014},"geometry":{"type":"Point","coordinates":[4.7686004266213065,52.50508436818014]}},{"type":"Feature","properties":{"highway":"bus_stop","public_transport":"platform","name":"K. Hogetoornlaan","ref:IFOPT":"NL:Q:36470150","_quaycode":"NL:Q:36470150","_town":"Middenbeemster","_status":"available","_mode":"bus","_direction":201,"_visuallyAccessible":false,"_disabledAccessible":false,"geojson_lng":4.91069846890608,"geojson_lat":52.54491620751335},"geometry":{"type":"Point","coordinates":[4.91069846890608,52.54491620751335]}},{"type":"Feature","properties":{"highway":"bus_stop","public_transport":"platform","name":"Neckerbrug","ref:IFOPT":"NL:Q:37520020","_quaycode":"NL:Q:37520020","_town":"Neck","_status":"available","_mode":"bus","_direction":249,"_visuallyAccessible":false,"_disabledAccessible":false,"geojson_lng":4.919577532764183,"geojson_lat":52.508309890093074},"geometry":{"type":"Point","coordinates":[4.919577532764183,52.508309890093074]}},{"type":"Feature","properties":{"highway":"bus_stop","public_transport":"platform","name":"Westerhem","ref:IFOPT":"NL:Q:36470360","_quaycode":"NL:Q:36470360","_town":"Middenbeemster","_status":"available","_mode":"bus","_direction":201,"_visuallyAccessible":false,"_disabledAccessible":false,"geojson_lng":4.906307508064751,"geojson_lat":52.54740058854828},"geometry":{"type":"Point","coordinates":[4.906307508064751,52.54740058854828]}},{"type":"Feature","properties":{"highway":"bus_stop","public_transport":"platform","name":"K.Hogetoornlaan","ref:IFOPT":"NL:Q:36470340","_quaycode":"NL:Q:36470340","_town":"Middenbeemster","_status":"available","_mode":"bus","_direction":111,"_visuallyAccessible":false,"_disabledAccessible":false,"geojson_lng":4.9106516254336405,"geojson_lat":52.545158678363016},"geometry":{"type":"Point","coordinates":[4.9106516254336405,52.545158678363016]}},{"type":"Feature","properties":{"highway":"bus_stop","public_transport":"platform","name":"Dorpstraat Nr 137","ref:IFOPT":"NL:Q:37520080","_quaycode":"NL:Q:37520080","_town":"Jisp","_status":"available","_mode":"bus","_direction":267,"_visuallyAccessible":false,"_disabledAccessible":false,"geojson_lng":4.866307086679028,"geojson_lat":52.50653317465713},"geometry":{"type":"Point","coordinates":[4.866307086679028,52.50653317465713]}},{"type":"Feature","properties":{"highway":"bus_stop","public_transport":"platform","name":"Marktplein","ref:IFOPT":"NL:Q:37325180","_quaycode":"NL:Q:37325180","_town":"Wormerveer","_status":"available","_mode":"bus","_direction":324,"_visuallyAccessible":false,"_disabledAccessible":false,"geojson_lng":4.78752490362641,"geojson_lat":52.494360532351635},"geometry":{"type":"Point","coordinates":[4.78752490362641,52.494360532351635]}},{"type":"Feature","properties":{"highway":"bus_stop","public_transport":"platform","name":"De Lepelaar","ref:IFOPT":"NL:Q:37520140","_quaycode":"NL:Q:37520140","_town":"Jisp","_status":"available","_mode":"bus","_direction":296,"_visuallyAccessible":false,"_disabledAccessible":false,"geojson_lng":4.848454409167086,"geojson_lat":52.50783753173521},"geometry":{"type":"Point","coordinates":[4.848454409167086,52.50783753173521]}},{"type":"Feature","properties":{"highway":"bus_stop","public_transport":"platform","name":"Badhuislaan","ref:IFOPT":"NL:Q:37324400","_quaycode":"NL:Q:37324400","_town":"Krommenie","_status":"available","_mode":"bus","_direction":285,"_visuallyAccessible":true,"_disabledAccessible":true,"geojson_lng":4.767400326911975,"geojson_lat":52.49929012551444},"geometry":{"type":"Point","coordinates":[4.767400326911975,52.49929012551444]}},{"type":"Feature","properties":{"highway":"bus_stop","public_transport":"platform","name":"Woudpolderweg","ref:IFOPT":"NL:Q:37325030","_quaycode":"NL:Q:37325030","_town":"Krommeniedijk","_status":"available","_mode":"bus","_direction":108,"_visuallyAccessible":false,"_disabledAccessible":false,"geojson_lng":4.7540398211528085,"geojson_lat":52.51905507845934},"geometry":{"type":"Point","coordinates":[4.7540398211528085,52.51905507845934]}},{"type":"Feature","properties":{"highway":"bus_stop","public_transport":"platform","name":"Klaterbuurt","ref:IFOPT":"NL:Q:36470290","_quaycode":"NL:Q:36470290","_town":"Westbeemster","_status":"available","_mode":"bus","_direction":110,"_visuallyAccessible":false,"_disabledAccessible":false,"geojson_lng":4.861223414602968,"geojson_lat":52.559905003083486},"geometry":{"type":"Point","coordinates":[4.861223414602968,52.559905003083486]}},{"type":"Feature","properties":{"highway":"bus_stop","public_transport":"platform","name":"Station","ref:IFOPT":"NL:Q:37324200","_quaycode":"NL:Q:37324200","_town":"Wormerveer","_status":"available","_mode":"bus","_direction":21,"_visuallyAccessible":true,"_disabledAccessible":true,"geojson_lng":4.794439177208853,"geojson_lat":52.48935326914555},"geometry":{"type":"Point","coordinates":[4.794439177208853,52.48935326914555]}},{"type":"Feature","properties":{"highway":"bus_stop","public_transport":"platform","name":"De Balk","ref:IFOPT":"NL:Q:37420320","_quaycode":"NL:Q:37420320","_town":"Wormer","_status":"available","_mode":"bus","_direction":283,"_visuallyAccessible":true,"_disabledAccessible":true,"geojson_lng":4.807320385247271,"geojson_lat":52.49060329439125},"geometry":{"type":"Point","coordinates":[4.807320385247271,52.49060329439125]}},{"type":"Feature","properties":{"highway":"bus_stop","public_transport":"platform","name":"Brandweer","ref:IFOPT":"NL:Q:37325060","_quaycode":"NL:Q:37325060","_town":"Krommeniedijk","_status":"available","_mode":"bus","_direction":111,"_visuallyAccessible":false,"_disabledAccessible":false,"geojson_lng":4.75985942616322,"geojson_lat":52.51698290540265},"geometry":{"type":"Point","coordinates":[4.75985942616322,52.51698290540265]}},{"type":"Feature","properties":{"highway":"bus_stop","public_transport":"platform","name":"Nieuweweg","ref:IFOPT":"NL:Q:37420030","_quaycode":"NL:Q:37420030","_town":"Wormer","_status":"available","_mode":"bus","_direction":17,"_visuallyAccessible":true,"_disabledAccessible":true,"geojson_lng":4.799161848157729,"geojson_lat":52.49183037506108},"geometry":{"type":"Point","coordinates":[4.799161848157729,52.49183037506108]}},{"type":"Feature","properties":{"highway":"bus_stop","public_transport":"platform","name":"Station/Provincialeweg","ref:IFOPT":"NL:Q:37320470","_quaycode":"NL:Q:37320470","_town":"Krommenie","_status":"available","_mode":"bus","_direction":275,"_visuallyAccessible":false,"_disabledAccessible":true,"geojson_lng":4.755124668014768,"geojson_lat":52.49575615800852},"geometry":{"type":"Point","coordinates":[4.755124668014768,52.49575615800852]}},{"type":"Feature","properties":{"highway":"bus_stop","public_transport":"platform","name":"Blikken Schel","ref:IFOPT":"NL:Q:36470190","_quaycode":"NL:Q:36470190","_town":"Westbeemster","_status":"available","_mode":"bus","_direction":111,"_visuallyAccessible":false,"_disabledAccessible":false,"geojson_lng":4.888029082919368,"geojson_lat":52.55373853702763},"geometry":{"type":"Point","coordinates":[4.888029082919368,52.55373853702763]}},{"type":"Feature","properties":{"highway":"bus_stop","public_transport":"platform","name":"Rosariumhorst","ref:IFOPT":"NL:Q:37324600","_quaycode":"NL:Q:37324600","_town":"Krommenie","_status":"available","_mode":"bus","_direction":270,"_visuallyAccessible":false,"_disabledAccessible":false,"geojson_lng":4.761764169210688,"geojson_lat":52.50627982211921},"geometry":{"type":"Point","coordinates":[4.761764169210688,52.50627982211921]}},{"type":"Feature","properties":{"highway":"bus_stop","public_transport":"platform","name":"Noorderveenweg","ref:IFOPT":"NL:Q:37320420","_quaycode":"NL:Q:37320420","_town":"Assendelft","_status":"available","_mode":"bus","_direction":213,"_visuallyAccessible":false,"_disabledAccessible":false,"geojson_lng":4.754373830799862,"geojson_lat":52.48546137741803},"geometry":{"type":"Point","coordinates":[4.754373830799862,52.48546137741803]}},{"type":"Feature","properties":{"highway":"bus_stop","public_transport":"platform","name":"Ambachtslaan","ref:IFOPT":"NL:Q:37320390","_quaycode":"NL:Q:37320390","_town":"Assendelft","_status":"available","_mode":"bus","_direction":121,"_visuallyAccessible":false,"_disabledAccessible":true,"geojson_lng":4.7580126206644175,"geojson_lat":52.48839271282295},"geometry":{"type":"Point","coordinates":[4.7580126206644175,52.48839271282295]}},{"type":"Feature","properties":{"highway":"bus_stop","public_transport":"platform","name":"School","ref:IFOPT":"NL:Q:37325080","_quaycode":"NL:Q:37325080","_town":"Krommeniedijk","_status":"available","_mode":"bus","_direction":289,"_visuallyAccessible":false,"_disabledAccessible":false,"geojson_lng":4.767373912374987,"geojson_lat":52.51482045011562},"geometry":{"type":"Point","coordinates":[4.767373912374987,52.51482045011562]}},{"type":"Feature","properties":{"highway":"bus_stop","public_transport":"platform","name":"C.ten Hoopestraat","ref:IFOPT":"NL:Q:36470610","_quaycode":"NL:Q:36470610","_town":"Middenbeemster","_status":"available","_mode":"bus","_direction":212,"_visuallyAccessible":false,"_disabledAccessible":false,"geojson_lng":4.914102891111664,"geojson_lat":52.55050198272017},"geometry":{"type":"Point","coordinates":[4.914102891111664,52.55050198272017]}},{"type":"Feature","properties":{"highway":"bus_stop","public_transport":"platform","name":"Armstrongbrug","ref:IFOPT":"NL:Q:37323870","_quaycode":"NL:Q:37323870","_town":"Krommenie","_status":"available","_mode":"bus","_direction":32,"_visuallyAccessible":true,"_disabledAccessible":false,"geojson_lng":4.75450141609611,"geojson_lat":52.50431798020319},"geometry":{"type":"Point","coordinates":[4.75450141609611,52.50431798020319]}},{"type":"Feature","properties":{"highway":"bus_stop","public_transport":"platform","name":"De Buurt","ref:IFOPT":"NL:Q:36470100","_quaycode":"NL:Q:36470100","_town":"Middenbeemster","_status":"available","_mode":"bus","_direction":20,"_visuallyAccessible":false,"_disabledAccessible":true,"geojson_lng":4.9127585633510575,"geojson_lat":52.548007121831255},"geometry":{"type":"Point","coordinates":[4.9127585633510575,52.548007121831255]}},{"type":"Feature","properties":{"highway":"bus_stop","public_transport":"platform","name":"Schildersbuurt","ref:IFOPT":"NL:Q:37324270","_quaycode":"NL:Q:37324270","_town":"Wormerveer","_status":"available","_mode":"bus","_direction":162,"_visuallyAccessible":true,"_disabledAccessible":true,"geojson_lng":4.807097566008744,"geojson_lat":52.48289987638581},"geometry":{"type":"Point","coordinates":[4.807097566008744,52.48289987638581]}},{"type":"Feature","properties":{"highway":"bus_stop","public_transport":"platform","name":"Kervelstraat","ref:IFOPT":"NL:Q:37323910","_quaycode":"NL:Q:37323910","_town":"Krommenie","_status":"available","_mode":"bus","_direction":117,"_visuallyAccessible":true,"_disabledAccessible":true,"geojson_lng":4.760032331369333,"geojson_lat":52.50688183338737},"geometry":{"type":"Point","coordinates":[4.760032331369333,52.50688183338737]}},{"type":"Feature","properties":{"highway":"bus_stop","public_transport":"platform","name":"Vlusch","ref:IFOPT":"NL:Q:37325090","_quaycode":"NL:Q:37325090","_town":"Krommeniedijk","_status":"available","_mode":"bus","_direction":145,"_visuallyAccessible":false,"_disabledAccessible":false,"geojson_lng":4.770973619418251,"geojson_lat":52.508116529225305},"geometry":{"type":"Point","coordinates":[4.770973619418251,52.508116529225305]}},{"type":"Feature","properties":{"highway":"bus_stop","public_transport":"platform","name":"Spatterstraat/Sporthal","ref:IFOPT":"NL:Q:37424090","_quaycode":"NL:Q:37424090","_town":"Wormer","_status":"available","_mode":"bus","_direction":86,"_visuallyAccessible":false,"_disabledAccessible":false,"geojson_lng":4.80880782571148,"geojson_lat":52.49507736105121},"geometry":{"type":"Point","coordinates":[4.80880782571148,52.49507736105121]}},{"type":"Feature","properties":{"highway":"bus_stop","public_transport":"platform","name":"De Buurt","ref:IFOPT":"NL:Q:36470080","_quaycode":"NL:Q:36470080","_town":"Middenbeemster","_status":"available","_mode":"bus","_direction":200,"_visuallyAccessible":true,"_disabledAccessible":true,"geojson_lng":4.912406879839357,"geojson_lat":52.54780799424776},"geometry":{"type":"Point","coordinates":[4.912406879839357,52.54780799424776]}},{"type":"Feature","properties":{"highway":"bus_stop","public_transport":"platform","name":"Raadhuis","ref:IFOPT":"NL:Q:37420060","_quaycode":"NL:Q:37420060","_town":"Wormer","_status":"available","_mode":"bus","_direction":82,"_visuallyAccessible":false,"_disabledAccessible":false,"geojson_lng":4.834207434798462,"geojson_lat":52.50106731976705},"geometry":{"type":"Point","coordinates":[4.834207434798462,52.50106731976705]}},{"type":"Feature","properties":{"highway":"bus_stop","public_transport":"platform","name":"Jisperdijkje Nr 6","ref:IFOPT":"NL:Q:37520130","_quaycode":"NL:Q:37520130","_town":"Jisp","_status":"available","_mode":"bus","_direction":54,"_visuallyAccessible":false,"_disabledAccessible":false,"geojson_lng":4.883598117054442,"geojson_lat":52.50659883254666},"geometry":{"type":"Point","coordinates":[4.883598117054442,52.50659883254666]}},{"type":"Feature","properties":{"highway":"bus_stop","public_transport":"platform","name":"Bruggeman","ref:IFOPT":"NL:Q:37320030","_quaycode":"NL:Q:37320030","_town":"Assendelft","_status":"available","_mode":"bus","_direction":38,"_visuallyAccessible":false,"_disabledAccessible":false,"geojson_lng":4.751372890498659,"geojson_lat":52.48120318330491},"geometry":{"type":"Point","coordinates":[4.751372890498659,52.48120318330491]}},{"type":"Feature","properties":{"highway":"bus_stop","public_transport":"platform","name":"Kleine Bijenkorf","ref:IFOPT":"NL:Q:36470020","_quaycode":"NL:Q:36470020","_town":"Zuidoostbeemster","_status":"available","_mode":"bus","_direction":31,"_visuallyAccessible":false,"_disabledAccessible":false,"geojson_lng":4.905791336614033,"geojson_lat":52.536637014090175},"geometry":{"type":"Point","coordinates":[4.905791336614033,52.536637014090175]}},{"type":"Feature","properties":{"highway":"bus_stop","public_transport":"platform","name":"Prinses Beatrixpark","ref:IFOPT":"NL:Q:36470420","_quaycode":"NL:Q:36470420","_town":"Middenbeemster","_status":"available","_mode":"bus","_direction":20,"_visuallyAccessible":false,"_disabledAccessible":false,"geojson_lng":4.914157135874464,"geojson_lat":52.54681738313613},"geometry":{"type":"Point","coordinates":[4.914157135874464,52.54681738313613]}},{"type":"Feature","properties":{"highway":"bus_stop","public_transport":"platform","name":"Ambachtslaan","ref:IFOPT":"NL:Q:37320380","_quaycode":"NL:Q:37320380","_town":"Assendelft","_status":"available","_mode":"bus","_direction":301,"_visuallyAccessible":false,"_disabledAccessible":true,"geojson_lng":4.757922370011522,"geojson_lat":52.488527047764634},"geometry":{"type":"Point","coordinates":[4.757922370011522,52.488527047764634]}},{"type":"Feature","properties":{"highway":"bus_stop","public_transport":"platform","name":"Jisperdijkje Nr 6","ref:IFOPT":"NL:Q:37520060","_quaycode":"NL:Q:37520060","_town":"Jisp","_status":"available","_mode":"bus","_direction":269,"_visuallyAccessible":false,"_disabledAccessible":false,"geojson_lng":4.883362260187832,"geojson_lat":52.506615806227174},"geometry":{"type":"Point","coordinates":[4.883362260187832,52.506615806227174]}},{"type":"Feature","properties":{"highway":"bus_stop","public_transport":"platform","name":"Hobrederweg","ref:IFOPT":"NL:Q:36470560","_quaycode":"NL:Q:36470560","_town":"Middenbeemster","_status":"available","_mode":"bus","_direction":31,"_visuallyAccessible":false,"_disabledAccessible":false,"geojson_lng":4.9226985396596525,"geojson_lat":52.56449324454277},"geometry":{"type":"Point","coordinates":[4.9226985396596525,52.56449324454277]}},{"type":"Feature","properties":{"highway":"bus_stop","public_transport":"platform","name":"Zuiderweg","ref:IFOPT":"NL:Q:36570060","_quaycode":"NL:Q:36570060","_town":"Zuidoostbeemster","_status":"available","_mode":"bus","_direction":31,"_visuallyAccessible":false,"_disabledAccessible":false,"geojson_lng":4.924170079576182,"geojson_lat":52.518438748081955},"geometry":{"type":"Point","coordinates":[4.924170079576182,52.518438748081955]}},{"type":"Feature","properties":{"highway":"bus_stop","public_transport":"platform","name":"Heiligeweg","ref:IFOPT":"NL:Q:37323970","_quaycode":"NL:Q:37323970","_town":"Krommenie","_status":"available","_mode":"bus","_direction":218,"_visuallyAccessible":true,"_disabledAccessible":true,"geojson_lng":4.766456158069008,"geojson_lat":52.50150511399485},"geometry":{"type":"Point","coordinates":[4.766456158069008,52.50150511399485]}},{"type":"Feature","properties":{"highway":"bus_stop","public_transport":"platform","name":"Waterzolder","ref:IFOPT":"NL:Q:37420280","_quaycode":"NL:Q:37420280","_town":"Wormer","_status":"available","_mode":"bus","_direction":175,"_visuallyAccessible":true,"_disabledAccessible":true,"geojson_lng":4.813427908919137,"geojson_lat":52.49195416090782},"geometry":{"type":"Point","coordinates":[4.813427908919137,52.49195416090782]}},{"type":"Feature","properties":{"highway":"bus_stop","public_transport":"platform","name":"Kervelstraat","ref:IFOPT":"NL:Q:37324580","_quaycode":"NL:Q:37324580","_town":"Krommenie","_status":"available","_mode":"bus","_direction":294,"_visuallyAccessible":true,"_disabledAccessible":true,"geojson_lng":4.761112958230754,"geojson_lat":52.506501076176534},"geometry":{"type":"Point","coordinates":[4.761112958230754,52.506501076176534]}},{"type":"Feature","properties":{"highway":"bus_stop","public_transport":"platform","name":"Jupiterstraat","ref:IFOPT":"NL:Q:37324620","_quaycode":"NL:Q:37324620","_town":"Krommenie","_status":"available","_mode":"bus","_direction":194,"_visuallyAccessible":true,"_disabledAccessible":true,"geojson_lng":4.7550647520413705,"geojson_lat":52.497885891868876},"geometry":{"type":"Point","coordinates":[4.7550647520413705,52.497885891868876]}},{"type":"Feature","properties":{"highway":"bus_stop","public_transport":"platform","name":"Grote Beer","ref:IFOPT":"NL:Q:37324540","_quaycode":"NL:Q:37324540","_town":"Krommenie","_status":"available","_mode":"bus","_direction":35,"_visuallyAccessible":true,"_disabledAccessible":true,"geojson_lng":4.7529056606157605,"geojson_lat":52.50159521811221},"geometry":{"type":"Point","coordinates":[4.7529056606157605,52.50159521811221]}},{"type":"Feature","properties":{"highway":"bus_stop","public_transport":"platform","name":"Noorderveenweg","ref:IFOPT":"NL:Q:37320430","_quaycode":"NL:Q:37320430","_town":"Assendelft","_status":"available","_mode":"bus","_direction":33,"_visuallyAccessible":false,"_disabledAccessible":false,"geojson_lng":4.754406360207841,"geojson_lat":52.48524584883221},"geometry":{"type":"Point","coordinates":[4.754406360207841,52.48524584883221]}},{"type":"Feature","properties":{"highway":"bus_stop","public_transport":"platform","name":"Neptunuslaan","ref:IFOPT":"NL:Q:37324560","_quaycode":"NL:Q:37324560","_town":"Krommenie","_status":"available","_mode":"bus","_direction":125,"_visuallyAccessible":true,"_disabledAccessible":true,"geojson_lng":4.752633463468126,"geojson_lat":52.5000389146894},"geometry":{"type":"Point","coordinates":[4.752633463468126,52.5000389146894]}},{"type":"Feature","properties":{"highway":"bus_stop","public_transport":"platform","name":"De Bonte Os","ref:IFOPT":"NL:Q:37520070","_quaycode":"NL:Q:37520070","_town":"Jisp","_status":"available","_mode":"bus","_direction":97,"_visuallyAccessible":false,"_disabledAccessible":false,"geojson_lng":4.851934386587405,"geojson_lat":52.50752074420641},"geometry":{"type":"Point","coordinates":[4.851934386587405,52.50752074420641]}},{"type":"Feature","properties":{"highway":"bus_stop","public_transport":"platform","name":"Kanaaldijk","ref:IFOPT":"NL:Q:36210010","_quaycode":"NL:Q:36210010","_town":"Akersloot","_status":"available","_mode":"bus","_direction":199,"_visuallyAccessible":false,"_disabledAccessible":false,"geojson_lng":4.748919355851153,"geojson_lat":52.576682251730126},"geometry":{"type":"Point","coordinates":[4.748919355851153,52.576682251730126]}},{"type":"Feature","properties":{"highway":"bus_stop","public_transport":"platform","name":"Cor Bruijnweg","ref:IFOPT":"NL:Q:37324090","_quaycode":"NL:Q:37324090","_town":"Wormerveer","_status":"available","_mode":"bus","_direction":103,"_visuallyAccessible":false,"_disabledAccessible":false,"geojson_lng":4.7874057190804375,"geojson_lat":52.4998872677331},"geometry":{"type":"Point","coordinates":[4.7874057190804375,52.4998872677331]}},{"type":"Feature","properties":{"highway":"bus_stop","public_transport":"platform","name":"Stat. Krommenie-A'delft","ref:IFOPT":"NL:Q:37320410","_quaycode":"NL:Q:37320410","_town":"Assendelft","_status":"available","_mode":"bus","_direction":0,"_visuallyAccessible":false,"_disabledAccessible":false,"geojson_lng":4.755215383215638,"geojson_lat":52.49456129463103},"geometry":{"type":"Point","coordinates":[4.755215383215638,52.49456129463103]}},{"type":"Feature","properties":{"highway":"bus_stop","public_transport":"platform","name":"Insulindeweg","ref:IFOPT":"NL:Q:36470090","_quaycode":"NL:Q:36470090","_town":"Middenbeemster","_status":"available","_mode":"bus","_direction":111,"_visuallyAccessible":false,"_disabledAccessible":false,"geojson_lng":4.903785098477175,"geojson_lat":52.550253717725546},"geometry":{"type":"Point","coordinates":[4.903785098477175,52.550253717725546]}},{"type":"Feature","properties":{"highway":"bus_stop","public_transport":"platform","name":"Schildersbuurt","ref:IFOPT":"NL:Q:37324120","_quaycode":"NL:Q:37324120","_town":"Wormerveer","_status":"available","_mode":"bus","_direction":339,"_visuallyAccessible":true,"_disabledAccessible":true,"geojson_lng":4.8072723221222615,"geojson_lat":52.483044531858674},"geometry":{"type":"Point","coordinates":[4.8072723221222615,52.483044531858674]}},{"type":"Feature","properties":{"highway":"bus_stop","public_transport":"platform","name":"C.ten Hoopestraat","ref:IFOPT":"NL:Q:36470520","_quaycode":"NL:Q:36470520","_town":"Middenbeemster","_status":"available","_mode":"bus","_direction":32,"_visuallyAccessible":false,"_disabledAccessible":false,"geojson_lng":4.914220834751403,"geojson_lat":52.550502452563215},"geometry":{"type":"Point","coordinates":[4.914220834751403,52.550502452563215]}},{"type":"Feature","properties":{"highway":"bus_stop","public_transport":"platform","name":"Badhuislaan","ref:IFOPT":"NL:Q:37323990","_quaycode":"NL:Q:37323990","_town":"Krommenie","_status":"available","_mode":"bus","_direction":107,"_visuallyAccessible":true,"_disabledAccessible":true,"geojson_lng":4.766425661903451,"geojson_lat":52.499482755672915},"geometry":{"type":"Point","coordinates":[4.766425661903451,52.499482755672915]}},{"type":"Feature","properties":{"highway":"bus_stop","public_transport":"platform","name":"Lijsterstraat","ref:IFOPT":"NL:Q:37324110","_quaycode":"NL:Q:37324110","_town":"Wormerveer","_status":"available","_mode":"bus","_direction":204,"_visuallyAccessible":false,"_disabledAccessible":true,"geojson_lng":4.789007538777719,"geojson_lat":52.49796303473125},"geometry":{"type":"Point","coordinates":[4.789007538777719,52.49796303473125]}},{"type":"Feature","properties":{"highway":"bus_stop","public_transport":"platform","name":"De Buurt","ref:IFOPT":"NL:Q:36470200","_quaycode":"NL:Q:36470200","_town":"Middenbeemster","_status":"available","_mode":"bus","_direction":31,"_visuallyAccessible":false,"_disabledAccessible":false,"geojson_lng":4.913062257495462,"geojson_lat":52.54855656364625},"geometry":{"type":"Point","coordinates":[4.913062257495462,52.54855656364625]}},{"type":"Feature","properties":{"highway":"bus_stop","public_transport":"platform","name":"De Lepelaar","ref:IFOPT":"NL:Q:37520050","_quaycode":"NL:Q:37520050","_town":"Jisp","_status":"available","_mode":"bus","_direction":117,"_visuallyAccessible":false,"_disabledAccessible":false,"geojson_lng":4.848543766902411,"geojson_lat":52.50775705010854},"geometry":{"type":"Point","coordinates":[4.848543766902411,52.50775705010854]}},{"type":"Feature","properties":{"highway":"bus_stop","public_transport":"platform","name":"Stat. Krommenie-A'delft","ref:IFOPT":"NL:Q:37320411","_quaycode":"NL:Q:37320411","_town":"Assendelft","_status":"available","_mode":"bus","_direction":0,"_visuallyAccessible":false,"_disabledAccessible":false,"geojson_lng":4.755289260044955,"geojson_lat":52.494543713045616},"geometry":{"type":"Point","coordinates":[4.755289260044955,52.494543713045616]}},{"type":"Feature","properties":{"highway":"bus_stop","public_transport":"platform","name":"Zaandammerstraat","ref:IFOPT":"NL:Q:37420140","_quaycode":"NL:Q:37420140","_town":"Wormer","_status":"available","_mode":"bus","_direction":246,"_visuallyAccessible":true,"_disabledAccessible":false,"geojson_lng":4.812548372523765,"geojson_lat":52.498447885804126},"geometry":{"type":"Point","coordinates":[4.812548372523765,52.498447885804126]}},{"type":"Feature","properties":{"highway":"bus_stop","public_transport":"platform","name":"Jisperdijkje Nr 3","ref:IFOPT":"NL:Q:37520040","_quaycode":"NL:Q:37520040","_town":"Jisp","_status":"available","_mode":"bus","_direction":261,"_visuallyAccessible":false,"_disabledAccessible":false,"geojson_lng":4.903209898003451,"geojson_lat":52.509942887794516},"geometry":{"type":"Point","coordinates":[4.903209898003451,52.509942887794516]}},{"type":"Feature","properties":{"highway":"bus_stop","public_transport":"platform","name":"Blok","ref:IFOPT":"NL:Q:37324460","_quaycode":"NL:Q:37324460","_town":"Krommenie","_status":"available","_mode":"bus","_direction":0,"_visuallyAccessible":false,"_disabledAccessible":false,"geojson_lng":4.7687174917846145,"geojson_lat":52.505138903704335},"geometry":{"type":"Point","coordinates":[4.7687174917846145,52.505138903704335]}},{"type":"Feature","properties":{"highway":"bus_stop","public_transport":"platform","name":"Mariastraat","ref:IFOPT":"NL:Q:37420150","_quaycode":"NL:Q:37420150","_town":"Wormer","_status":"available","_mode":"bus","_direction":84,"_visuallyAccessible":false,"_disabledAccessible":false,"geojson_lng":4.826719276626234,"geojson_lat":52.500439006252826},"geometry":{"type":"Point","coordinates":[4.826719276626234,52.500439006252826]}},{"type":"Feature","properties":{"highway":"bus_stop","public_transport":"platform","name":"Volgerweg","ref:IFOPT":"NL:Q:36570120","_quaycode":"NL:Q:36570120","_town":"Zuidoostbeemster","_status":"available","_mode":"bus","_direction":31,"_visuallyAccessible":false,"_disabledAccessible":false,"geojson_lng":4.903678625058598,"geojson_lat":52.53306043443639},"geometry":{"type":"Point","coordinates":[4.903678625058598,52.53306043443639]}},{"type":"Feature","properties":{"highway":"bus_stop","public_transport":"platform","name":"Talingstraat","ref:IFOPT":"NL:Q:37424130","_quaycode":"NL:Q:37424130","_town":"Wormer","_status":"available","_mode":"bus","_direction":254,"_visuallyAccessible":false,"_disabledAccessible":false,"geojson_lng":4.810793355741359,"geojson_lat":52.498646084986476},"geometry":{"type":"Point","coordinates":[4.810793355741359,52.498646084986476]}},{"type":"Feature","properties":{"highway":"bus_stop","public_transport":"platform","name":"Spatterstraat","ref:IFOPT":"NL:Q:37420290","_quaycode":"NL:Q:37420290","_town":"Wormer","_status":"available","_mode":"bus","_direction":354,"_visuallyAccessible":true,"_disabledAccessible":true,"geojson_lng":4.812760475228663,"geojson_lat":52.49572569335669},"geometry":{"type":"Point","coordinates":[4.812760475228663,52.49572569335669]}},{"type":"Feature","properties":{"highway":"bus_stop","public_transport":"platform","name":"Kleine Bijenkorf","ref:IFOPT":"NL:Q:36570010","_quaycode":"NL:Q:36570010","_town":"Zuidoostbeemster","_status":"available","_mode":"bus","_direction":211,"_visuallyAccessible":false,"_disabledAccessible":false,"geojson_lng":4.905600915218589,"geojson_lat":52.53652839314939},"geometry":{"type":"Point","coordinates":[4.905600915218589,52.53652839314939]}},{"type":"Feature","properties":{"highway":"bus_stop","public_transport":"platform","name":"Noordweg","ref:IFOPT":"NL:Q:37420330","_quaycode":"NL:Q:37420330","_town":"Wormer","_status":"available","_mode":"bus","_direction":150,"_visuallyAccessible":false,"_disabledAccessible":false,"geojson_lng":4.800894510053139,"geojson_lat":52.498520560725915},"geometry":{"type":"Point","coordinates":[4.800894510053139,52.498520560725915]}},{"type":"Feature","properties":{"highway":"bus_stop","public_transport":"platform","name":"Padlaan","ref:IFOPT":"NL:Q:37324380","_quaycode":"NL:Q:37324380","_town":"Krommenie","_status":"available","_mode":"bus","_direction":281,"_visuallyAccessible":true,"_disabledAccessible":true,"geojson_lng":4.77215722385839,"geojson_lat":52.49821840077641},"geometry":{"type":"Point","coordinates":[4.77215722385839,52.49821840077641]}},{"type":"Feature","properties":{"highway":"bus_stop","public_transport":"platform","name":"Waterzolder","ref:IFOPT":"NL:Q:37420270","_quaycode":"NL:Q:37420270","_town":"Wormer","_status":"available","_mode":"bus","_direction":355,"_visuallyAccessible":true,"_disabledAccessible":true,"geojson_lng":4.8135463945776875,"geojson_lat":52.491900808743715},"geometry":{"type":"Point","coordinates":[4.8135463945776875,52.491900808743715]}},{"type":"Feature","properties":{"highway":"bus_stop","public_transport":"platform","name":"N. Cromhoutlaan","ref:IFOPT":"NL:Q:36470380","_quaycode":"NL:Q:36470380","_town":"Middenbeemster","_status":"available","_mode":"bus","_direction":200,"_visuallyAccessible":false,"_disabledAccessible":false,"geojson_lng":4.9073506373679985,"geojson_lat":52.54911779798104},"geometry":{"type":"Point","coordinates":[4.9073506373679985,52.54911779798104]}},{"type":"Feature","properties":{"highway":"bus_stop","public_transport":"platform","name":"Grote Beer","ref:IFOPT":"NL:Q:37323850","_quaycode":"NL:Q:37323850","_town":"Krommenie","_status":"available","_mode":"bus","_direction":222,"_visuallyAccessible":true,"_disabledAccessible":true,"geojson_lng":4.752729719274667,"geojson_lat":52.50154035198626},"geometry":{"type":"Point","coordinates":[4.752729719274667,52.50154035198626]}},{"type":"Feature","properties":{"highway":"bus_stop","public_transport":"platform","name":"Prins van Oranjestraat","ref:IFOPT":"NL:Q:37420120","_quaycode":"NL:Q:37420120","_town":"Wormer","_status":"available","_mode":"bus","_direction":248,"_visuallyAccessible":true,"_disabledAccessible":true,"geojson_lng":4.816246398631507,"geojson_lat":52.49945436732305},"geometry":{"type":"Point","coordinates":[4.816246398631507,52.49945436732305]}},{"type":"Feature","properties":{"highway":"bus_stop","public_transport":"platform","name":"Volgerweg","ref:IFOPT":"NL:Q:36570510","_quaycode":"NL:Q:36570510","_town":"Zuidoostbeemster","_status":"available","_mode":"bus","_direction":103,"_visuallyAccessible":false,"_disabledAccessible":false,"geojson_lng":4.9042185998720615,"geojson_lat":52.5321998427595},"geometry":{"type":"Point","coordinates":[4.9042185998720615,52.5321998427595]}},{"type":"Feature","properties":{"highway":"bus_stop","public_transport":"platform","name":"Mieuwijdt","ref:IFOPT":"NL:Q:36380580","_quaycode":"NL:Q:36380580","_town":"Graft","_status":"available","_mode":"bus","_direction":273,"_visuallyAccessible":false,"_disabledAccessible":false,"geojson_lng":4.840025435914311,"geojson_lat":52.56045631720432},"geometry":{"type":"Point","coordinates":[4.840025435914311,52.56045631720432]}},{"type":"Feature","properties":{"highway":"bus_stop","public_transport":"platform","name":"Dorpsstraat","ref:IFOPT":"NL:Q:36380600","_quaycode":"NL:Q:36380600","_town":"Graft","_status":"available","_mode":"bus","_direction":272,"_visuallyAccessible":false,"_disabledAccessible":false,"geojson_lng":4.8356414505994545,"geojson_lat":52.560786545047996},"geometry":{"type":"Point","coordinates":[4.8356414505994545,52.560786545047996]}},{"type":"Feature","properties":{"highway":"bus_stop","public_transport":"platform","name":"Raadhuisstraat","ref:IFOPT":"NL:Q:36380550","_quaycode":"NL:Q:36380550","_town":"Graft","_status":"available","_mode":"bus","_direction":196,"_visuallyAccessible":false,"_disabledAccessible":false,"geojson_lng":4.831625410391696,"geojson_lat":52.562340616676956},"geometry":{"type":"Point","coordinates":[4.831625410391696,52.562340616676956]}},{"type":"Feature","properties":{"highway":"bus_stop","public_transport":"platform","name":"Pontveer","ref:IFOPT":"NL:Q:36210030","_quaycode":"NL:Q:36210030","_town":"Akersloot","_status":"available","_mode":"bus","_direction":249,"_visuallyAccessible":false,"_disabledAccessible":false,"geojson_lng":4.745055784998958,"geojson_lat":52.570496059906716},"geometry":{"type":"Point","coordinates":[4.745055784998958,52.570496059906716]}},{"type":"Feature","properties":{"highway":"bus_stop","public_transport":"platform","name":"Voetpad Urk","ref:IFOPT":"NL:Q:36280130","_quaycode":"NL:Q:36280130","_town":"Grootschermer","_status":"available","_mode":"bus","_direction":247,"_visuallyAccessible":false,"_disabledAccessible":false,"geojson_lng":4.848128221311192,"geojson_lat":52.57921402733284},"geometry":{"type":"Point","coordinates":[4.848128221311192,52.57921402733284]}},{"type":"Feature","properties":{"highway":"bus_stop","public_transport":"platform","name":"Lassiestraat","ref:IFOPT":"NL:Q:37420001","_quaycode":"NL:Q:37420001","_town":"Wormer","_status":"available","_mode":"bus","_direction":193,"_visuallyAccessible":null,"_disabledAccessible":null,"geojson_lng":4.802307463804483,"geojson_lat":52.491619101575466},"geometry":{"type":"Point","coordinates":[4.802307463804483,52.491619101575466]}},{"type":"Feature","properties":{"highway":"bus_stop","public_transport":"platform","name":"Lassiestraat","ref:IFOPT":"NL:Q:37420002","_quaycode":"NL:Q:37420002","_town":"Wormer","_status":"available","_mode":"bus","_direction":13,"_visuallyAccessible":null,"_disabledAccessible":null,"geojson_lng":4.802459511528016,"geojson_lat":52.491586438830595},"geometry":{"type":"Point","coordinates":[4.802459511528016,52.491586438830595]}},{"type":"Feature","properties":{"highway":"bus_stop","public_transport":"platform","name":"Blikken Schel","ref:IFOPT":"NL:Q:36470400","_quaycode":"NL:Q:36470400","_town":"Westbeemster","_status":"available","_mode":"bus","_direction":295,"_visuallyAccessible":false,"_disabledAccessible":false,"geojson_lng":4.8862531716889785,"geojson_lat":52.55431523703537},"geometry":{"type":"Point","coordinates":[4.8862531716889785,52.55431523703537]}},{"type":"Feature","properties":{"highway":"bus_stop","public_transport":"platform","name":"Blikken Schel","ref:IFOPT":"NL:Q:36470180","_quaycode":"NL:Q:36470180","_town":"Westbeemster","_status":"available","_mode":"bus","_direction":291,"_visuallyAccessible":false,"_disabledAccessible":false,"geojson_lng":4.887584829589384,"geojson_lat":52.55390742859567},"geometry":{"type":"Point","coordinates":[4.887584829589384,52.55390742859567]}},{"type":"Feature","properties":{"highway":"bus_stop","public_transport":"platform","name":"Raadhuisstraat","ref:IFOPT":"NL:Q:36380620","_quaycode":"NL:Q:36380620","_town":"Graft","_status":"available","_mode":"bus","_direction":18,"_visuallyAccessible":false,"_disabledAccessible":false,"geojson_lng":4.831718191868564,"geojson_lat":52.56199953029655},"geometry":{"type":"Point","coordinates":[4.831718191868564,52.56199953029655]}},{"type":"Feature","properties":{"highway":"bus_stop","public_transport":"platform","name":"Station/Provincialeweg","ref:IFOPT":"NL:Q:37320460","_quaycode":"NL:Q:37320460","_town":"Krommenie","_status":"available","_mode":"bus","_direction":96,"_visuallyAccessible":false,"_disabledAccessible":false,"geojson_lng":4.755477335683936,"geojson_lat":52.495473752972785},"geometry":{"type":"Point","coordinates":[4.755477335683936,52.495473752972785]}},{"type":"Feature","properties":{"highway":"bus_stop","public_transport":"platform","name":"Kanaaldijk","ref:IFOPT":"NL:Q:36110020","_quaycode":"NL:Q:36110020","_town":"Akersloot","_status":"available","_mode":"bus","_direction":21,"_visuallyAccessible":false,"_disabledAccessible":false,"geojson_lng":4.749150435379137,"geojson_lat":52.57702501467671},"geometry":{"type":"Point","coordinates":[4.749150435379137,52.57702501467671]}},{"type":"Feature","properties":{"highway":"bus_stop","public_transport":"platform","name":"Kanaalweg","ref:IFOPT":"NL:Q:36110061","_quaycode":"NL:Q:36110061","_town":"Akersloot","_status":"available","_mode":"bus","_direction":21,"_visuallyAccessible":false,"_disabledAccessible":false,"geojson_lng":4.753618759990221,"geojson_lat":52.58843595710427},"geometry":{"type":"Point","coordinates":[4.753618759990221,52.58843595710427]}},{"type":"Feature","properties":{"highway":"bus_stop","public_transport":"platform","name":"Boekel","ref:IFOPT":"NL:Q:36110070","_quaycode":"NL:Q:36110070","_town":"Akersloot","_status":"available","_mode":"bus","_direction":210,"_visuallyAccessible":false,"_disabledAccessible":false,"geojson_lng":4.7509281867706115,"geojson_lat":52.582642687887294},"geometry":{"type":"Point","coordinates":[4.7509281867706115,52.582642687887294]}},{"type":"Feature","properties":{"highway":"bus_stop","public_transport":"platform","name":"Boekel","ref:IFOPT":"NL:Q:36110040","_quaycode":"NL:Q:36110040","_town":"Akersloot","_status":"available","_mode":"bus","_direction":31,"_visuallyAccessible":false,"_disabledAccessible":false,"geojson_lng":4.751104189759346,"geojson_lat":52.58271552958198},"geometry":{"type":"Point","coordinates":[4.751104189759346,52.58271552958198]}},{"type":"Feature","properties":{"highway":"bus_stop","public_transport":"platform","name":"Kanaalweg","ref:IFOPT":"NL:Q:36110051","_quaycode":"NL:Q:36110051","_town":"Akersloot","_status":"available","_mode":"bus","_direction":201,"_visuallyAccessible":false,"_disabledAccessible":false,"geojson_lng":4.753487125133382,"geojson_lat":52.58835436862235},"geometry":{"type":"Point","coordinates":[4.753487125133382,52.58835436862235]}},{"type":"Feature","properties":{"highway":"bus_stop","public_transport":"platform","name":"Rosariumplein","ref:IFOPT":"NL:Q:37323985","_quaycode":"NL:Q:37323985","_town":"Krommenie","_status":"available","_mode":"bus","_direction":112,"_visuallyAccessible":false,"_disabledAccessible":false,"geojson_lng":4.759240569162707,"geojson_lat":52.50248273510388},"geometry":{"type":"Point","coordinates":[4.759240569162707,52.50248273510388]}},{"type":"Feature","properties":{"highway":"bus_stop","public_transport":"platform","name":"Rosariumplein","ref:IFOPT":"NL:Q:37323980","_quaycode":"NL:Q:37323980","_town":"Krommenie","_status":"available","_mode":"bus","_direction":292,"_visuallyAccessible":false,"_disabledAccessible":false,"geojson_lng":4.7591214787207505,"geojson_lat":52.50257198022811},"geometry":{"type":"Point","coordinates":[4.7591214787207505,52.50257198022811]}},{"type":"Feature","properties":{"highway":"bus_stop","public_transport":"platform","name":"Krokusstraat","ref:IFOPT":"NL:Q:37324050","_quaycode":"NL:Q:37324050","_town":"Wormerveer","_status":"available","_mode":"bus","_direction":100,"_visuallyAccessible":false,"_disabledAccessible":true,"geojson_lng":4.782492318553788,"geojson_lat":52.49626730847271},"geometry":{"type":"Point","coordinates":[4.782492318553788,52.49626730847271]}},{"type":"Feature","properties":{"highway":"bus_stop","public_transport":"platform","name":"Woudpolderweg","ref:IFOPT":"NL:Q:37325040","_quaycode":"NL:Q:37325040","_town":"Krommeniedijk","_status":"available","_mode":"bus","_direction":0,"_visuallyAccessible":false,"_disabledAccessible":false,"geojson_lng":4.753848045695781,"geojson_lat":52.51907203016962},"geometry":{"type":"Point","coordinates":[4.753848045695781,52.51907203016962]}},{"type":"Feature","properties":{"highway":"bus_stop","public_transport":"platform","name":"Westerstraat","ref:IFOPT":"NL:Q:37324320","_quaycode":"NL:Q:37324320","_town":"Wormerveer","_status":"available","_mode":"bus","_direction":210,"_visuallyAccessible":true,"_disabledAccessible":true,"geojson_lng":4.785171281871441,"geojson_lat":52.498509844322506},"geometry":{"type":"Point","coordinates":[4.785171281871441,52.498509844322506]}},{"type":"Feature","properties":{"highway":"bus_stop","public_transport":"platform","name":"Krokusstraat","ref:IFOPT":"NL:Q:37324340","_quaycode":"NL:Q:37324340","_town":"Wormerveer","_status":"available","_mode":"bus","_direction":280,"_visuallyAccessible":false,"_disabledAccessible":true,"geojson_lng":4.782520046160993,"geojson_lat":52.496393275457024},"geometry":{"type":"Point","coordinates":[4.782520046160993,52.496393275457024]}},{"type":"Feature","properties":{"highway":"bus_stop","public_transport":"platform","name":"Westerstraat","ref:IFOPT":"NL:Q:37324070","_quaycode":"NL:Q:37324070","_town":"Wormerveer","_status":"available","_mode":"bus","_direction":30,"_visuallyAccessible":false,"_disabledAccessible":true,"geojson_lng":4.7854487382269175,"geojson_lat":52.49868201522598},"geometry":{"type":"Point","coordinates":[4.7854487382269175,52.49868201522598]}},{"type":"Feature","properties":{"highway":"bus_stop","public_transport":"platform","name":"Zaanweg","ref:IFOPT":"NL:Q:37324170","_quaycode":"NL:Q:37324170","_town":"Wormerveer","_status":"available","_mode":"bus","_direction":155,"_visuallyAccessible":true,"_disabledAccessible":true,"geojson_lng":4.79097760257787,"geojson_lat":52.491654708972106},"geometry":{"type":"Point","coordinates":[4.79097760257787,52.491654708972106]}},{"type":"Feature","properties":{"highway":"bus_stop","public_transport":"platform","name":"Vlusch","ref:IFOPT":"NL:Q:37325100","_quaycode":"NL:Q:37325100","_town":"Krommeniedijk","_status":"available","_mode":"bus","_direction":325,"_visuallyAccessible":false,"_disabledAccessible":false,"geojson_lng":4.771165716791771,"geojson_lat":52.5080725890665},"geometry":{"type":"Point","coordinates":[4.771165716791771,52.5080725890665]}},{"type":"Feature","properties":{"highway":"bus_stop","public_transport":"platform","name":"Lijsterstraat","ref:IFOPT":"NL:Q:37324280","_quaycode":"NL:Q:37324280","_town":"Wormerveer","_status":"available","_mode":"bus","_direction":29,"_visuallyAccessible":false,"_disabledAccessible":true,"geojson_lng":4.789355350019992,"geojson_lat":52.498378214719615},"geometry":{"type":"Point","coordinates":[4.789355350019992,52.498378214719615]}},{"type":"Feature","properties":{"highway":"bus_stop","public_transport":"platform","name":"Blikken Schel","ref:IFOPT":"NL:Q:36470390","_quaycode":"NL:Q:36470390","_town":"Westbeemster","_status":"available","_mode":"bus","_direction":285,"_visuallyAccessible":null,"_disabledAccessible":null,"geojson_lng":4.886311675102034,"geojson_lat":52.55435142919603},"geometry":{"type":"Point","coordinates":[4.886311675102034,52.55435142919603]}},{"type":"Feature","properties":{"highway":"bus_stop","public_transport":"platform","name":"Julianalaan","ref:IFOPT":"NL:Q:36380010","_quaycode":"NL:Q:36380010","_town":"De Rijp","_status":"available","_mode":"bus","_direction":148,"_visuallyAccessible":false,"_disabledAccessible":false,"geojson_lng":4.844523515944095,"geojson_lat":52.554437433547164},"geometry":{"type":"Point","coordinates":[4.844523515944095,52.554437433547164]}},{"type":"Feature","properties":{"highway":"bus_stop","public_transport":"platform","name":"Voetbalveld","ref:IFOPT":"NL:Q:37424030","_quaycode":"NL:Q:37424030","_town":"Oostknollendam","_status":"available","_mode":"bus","_direction":352,"_visuallyAccessible":false,"_disabledAccessible":false,"geojson_lng":4.790391546893352,"geojson_lat":52.51433628128513},"geometry":{"type":"Point","coordinates":[4.790391546893352,52.51433628128513]}},{"type":"Feature","properties":{"highway":"bus_stop","public_transport":"platform","name":"Pleintje","ref:IFOPT":"NL:Q:37424060","_quaycode":"NL:Q:37424060","_town":"Oostknollendam","_status":"available","_mode":"bus","_direction":119,"_visuallyAccessible":false,"_disabledAccessible":false,"geojson_lng":4.7903648664321965,"geojson_lat":52.5174008851947},"geometry":{"type":"Point","coordinates":[4.7903648664321965,52.5174008851947]}},{"type":"Feature","properties":{"highway":"bus_stop","public_transport":"platform","name":"Voetbalveld","ref:IFOPT":"NL:Q:37424040","_quaycode":"NL:Q:37424040","_town":"Oostknollendam","_status":"available","_mode":"bus","_direction":172,"_visuallyAccessible":false,"_disabledAccessible":false,"geojson_lng":4.790391546893352,"geojson_lat":52.51433628128513},"geometry":{"type":"Point","coordinates":[4.790391546893352,52.51433628128513]}},{"type":"Feature","properties":{"highway":"bus_stop","public_transport":"platform","name":"Weromerie","ref:IFOPT":"NL:Q:37424020","_quaycode":"NL:Q:37424020","_town":"Oostknollendam","_status":"available","_mode":"bus","_direction":132,"_visuallyAccessible":false,"_disabledAccessible":false,"geojson_lng":4.794409869917265,"geojson_lat":52.50580930000697},"geometry":{"type":"Point","coordinates":[4.794409869917265,52.50580930000697]}},{"type":"Feature","properties":{"highway":"bus_stop","public_transport":"platform","name":"Pleintje","ref:IFOPT":"NL:Q:37424050","_quaycode":"NL:Q:37424050","_town":"Oostknollendam","_status":"available","_mode":"bus","_direction":339,"_visuallyAccessible":false,"_disabledAccessible":false,"geojson_lng":4.790335403113817,"geojson_lat":52.51740073701268},"geometry":{"type":"Point","coordinates":[4.790335403113817,52.51740073701268]}},{"type":"Feature","properties":{"highway":"bus_stop","public_transport":"platform","name":"Toldeurkering","ref:IFOPT":"NL:Q:37424070","_quaycode":"NL:Q:37424070","_town":"Oostknollendam","_status":"available","_mode":"bus","_direction":239,"_visuallyAccessible":false,"_disabledAccessible":false,"geojson_lng":4.794047439094124,"geojson_lat":52.52073573339304},"geometry":{"type":"Point","coordinates":[4.794047439094124,52.52073573339304]}},{"type":"Feature","properties":{"highway":"bus_stop","public_transport":"platform","name":"Weromerie","ref:IFOPT":"NL:Q:37424010","_quaycode":"NL:Q:37424010","_town":"Oostknollendam","_status":"available","_mode":"bus","_direction":312,"_visuallyAccessible":false,"_disabledAccessible":false,"geojson_lng":4.794395021527121,"geojson_lat":52.505818213341236},"geometry":{"type":"Point","coordinates":[4.794395021527121,52.505818213341236]}},{"type":"Feature","properties":{"highway":"bus_stop","public_transport":"platform","name":"Edisonstraat","ref:IFOPT":"NL:Q:37320020","_quaycode":"NL:Q:37320020","_town":"Wormerveer","_status":"available","_mode":"bus","_direction":273,"_visuallyAccessible":false,"_disabledAccessible":false,"geojson_lng":4.797937684435509,"geojson_lat":52.4908806081445},"geometry":{"type":"Point","coordinates":[4.797937684435509,52.4908806081445]}},{"type":"Feature","properties":{"highway":"bus_stop","public_transport":"platform","name":"Kopdammerdijk","ref:IFOPT":"NL:Q:36280060","_quaycode":"NL:Q:36280060","_town":"Grootschermer","_status":"available","_mode":"bus","_direction":96,"_visuallyAccessible":false,"_disabledAccessible":false,"geojson_lng":4.849324004712799,"geojson_lat":52.5827784292794},"geometry":{"type":"Point","coordinates":[4.849324004712799,52.5827784292794]}},{"type":"Feature","properties":{"highway":"bus_stop","public_transport":"platform","name":"Viadukt","ref:IFOPT":"NL:Q:36480170","_quaycode":"NL:Q:36480170","_town":"West-Graftdijk","_status":"available","_mode":"bus","_direction":276,"_visuallyAccessible":false,"_disabledAccessible":true,"geojson_lng":4.793428169009587,"geojson_lat":52.55692510968058},"geometry":{"type":"Point","coordinates":[4.793428169009587,52.55692510968058]}},{"type":"Feature","properties":{"highway":"bus_stop","public_transport":"platform","name":"Noordeinde","ref:IFOPT":"NL:Q:37324240","_quaycode":"NL:Q:37324240","_town":"Wormerveer","_status":"available","_mode":"bus","_direction":293,"_visuallyAccessible":true,"_disabledAccessible":true,"geojson_lng":4.792117454019992,"geojson_lat":52.49448252201858},"geometry":{"type":"Point","coordinates":[4.792117454019992,52.49448252201858]}},{"type":"Feature","properties":{"highway":"bus_stop","public_transport":"platform","name":"Noordeinde","ref:IFOPT":"NL:Q:37324150","_quaycode":"NL:Q:37324150","_town":"Wormerveer","_status":"available","_mode":"bus","_direction":113,"_visuallyAccessible":true,"_disabledAccessible":false,"geojson_lng":4.792192405084756,"geojson_lat":52.494384034998056},"geometry":{"type":"Point","coordinates":[4.792192405084756,52.494384034998056]}},{"type":"Feature","properties":{"highway":"bus_stop","public_transport":"platform","name":"Glennstraat","ref:IFOPT":"NL:Q:37323890","_quaycode":"NL:Q:37323890","_town":"Krommenie","_status":"available","_mode":"bus","_direction":36,"_visuallyAccessible":true,"_disabledAccessible":true,"geojson_lng":4.756690959746345,"geojson_lat":52.507762878795816},"geometry":{"type":"Point","coordinates":[4.756690959746345,52.507762878795816]}},{"type":"Feature","properties":{"highway":"bus_stop","public_transport":"platform","name":"Noorderstraat","ref:IFOPT":"NL:Q:37324130","_quaycode":"NL:Q:37324130","_town":"Wormerveer","_status":"available","_mode":"bus","_direction":34,"_visuallyAccessible":true,"_disabledAccessible":true,"geojson_lng":4.7882088763919635,"geojson_lat":52.496044658738704},"geometry":{"type":"Point","coordinates":[4.7882088763919635,52.496044658738704]}}]}