{"type":"FeatureCollection","features":[{"type":"Feature","properties":{"SeqNo":"693052","Type":"S","DHID":"de:05970:34260","Parent":"de:05970:34260","Name":"Eiserfeld Hundsbergstraße","MunicipalityCode":"05970040","Municipality":"Siegen","DistrictCode":"-","District":"-","Description":"","Authority":"VRR","DelfiName":"-","THID":"D917520085D4","LastOperationDate":"2025-01-06T00:00:00","SEV":"nein","longitude":"7,992284","latitude":"50,832102","geojson_lng":7.992284,"geojson_lat":50.832102},"geometry":{"type":"Point","coordinates":[7.992284,50.832102]}},{"type":"Feature","properties":{"SeqNo":"693053","Type":"A","DHID":"de:05970:34260:1","Parent":"de:05970:34260","Name":"1","MunicipalityCode":"00000000","Municipality":"-","DistrictCode":"-","District":"-","Description":"ÖV","Authority":"VRR","DelfiName":"-","THID":"-","LastOperationDate":"","SEV":"nein","longitude":"7,992284","latitude":"50,832102","geojson_lng":7.992284,"geojson_lat":50.832102},"geometry":{"type":"Point","coordinates":[7.992284,50.832102]}},{"type":"Feature","properties":{"SeqNo":"693054","Type":"Q","DHID":"de:05970:34260:1:1","Parent":"de:05970:34260:1","Name":"1","MunicipalityCode":"00000000","Municipality":"-","DistrictCode":"-","District":"-","Description":"Ri. Neunkirchen","Authority":"VRR","DelfiName":"-","THID":"-","LastOperationDate":"","SEV":"nein","longitude":"7,992122","latitude":"50,83213","geojson_lng":7.992122,"geojson_lat":50.83213},"geometry":{"type":"Point","coordinates":[7.992122,50.83213]}},{"type":"Feature","properties":{"SeqNo":"693055","Type":"Q","DHID":"de:05970:34260:1:2","Parent":"de:05970:34260:1","Name":"2","MunicipalityCode":"00000000","Municipality":"-","DistrictCode":"-","District":"-","Description":"Ri. Siegen","Authority":"VRR","DelfiName":"-","THID":"-","LastOperationDate":"","SEV":"nein","longitude":"7,992473","latitude":"50,832068","geojson_lng":7.992473,"geojson_lat":50.832068},"geometry":{"type":"Point","coordinates":[7.992473,50.832068]}},{"type":"Feature","properties":{"SeqNo":"693729","Type":"S","DHID":"de:05970:54925","Parent":"de:05970:54925","Name":"Eiserfeld Wiedthalstraße","MunicipalityCode":"05970040","Municipality":"Siegen","DistrictCode":"-","District":"-","Description":"","Authority":"VRR","DelfiName":"-","THID":"D9175200D68D","LastOperationDate":"2025-01-06T00:00:00","SEV":"nein","longitude":"7,997674","latitude":"50,828567","geojson_lng":7.997674,"geojson_lat":50.828567},"geometry":{"type":"Point","coordinates":[7.997674,50.828567]}},{"type":"Feature","properties":{"SeqNo":"693730","Type":"A","DHID":"de:05970:54925:1","Parent":"de:05970:54925","Name":"1","MunicipalityCode":"00000000","Municipality":"-","DistrictCode":"-","District":"-","Description":"ÖV","Authority":"VRR","DelfiName":"-","THID":"-","LastOperationDate":"","SEV":"nein","longitude":"7,997674","latitude":"50,828567","geojson_lng":7.997674,"geojson_lat":50.828567},"geometry":{"type":"Point","coordinates":[7.997674,50.828567]}},{"type":"Feature","properties":{"SeqNo":"693731","Type":"Q","DHID":"de:05970:54925:1:1","Parent":"de:05970:54925:1","Name":"1","MunicipalityCode":"00000000","Municipality":"-","DistrictCode":"-","District":"-","Description":"Ri. Neunkirchen","Authority":"VRR","DelfiName":"-","THID":"-","LastOperationDate":"","SEV":"nein","longitude":"7,997737","latitude":"50,828516","geojson_lng":7.997737,"geojson_lat":50.828516},"geometry":{"type":"Point","coordinates":[7.997737,50.828516]}},{"type":"Feature","properties":{"SeqNo":"693732","Type":"Q","DHID":"de:05970:54925:1:2","Parent":"de:05970:54925:1","Name":"2","MunicipalityCode":"00000000","Municipality":"-","DistrictCode":"-","District":"-","Description":"Ri. Siegen","Authority":"VRR","DelfiName":"-","THID":"-","LastOperationDate":"","SEV":"nein","longitude":"7,997548","latitude":"50,828646","geojson_lng":7.997548,"geojson_lat":50.828646},"geometry":{"type":"Point","coordinates":[7.997548,50.828646]}},{"type":"Feature","properties":{"SeqNo":"695279","Type":"S","DHID":"de:05970:61628","Parent":"de:05970:61628","Name":"Eiserfeld Echostraße","MunicipalityCode":"05970040","Municipality":"Siegen","DistrictCode":"-","District":"-","Description":"","Authority":"VRR","DelfiName":"-","THID":"D9175200F0BC","LastOperationDate":"2025-01-06T00:00:00","SEV":"nein","longitude":"7,992042","latitude":"50,827653","geojson_lng":7.992042,"geojson_lat":50.827653},"geometry":{"type":"Point","coordinates":[7.992042,50.827653]}},{"type":"Feature","properties":{"SeqNo":"695280","Type":"A","DHID":"de:05970:61628:1","Parent":"de:05970:61628","Name":"1","MunicipalityCode":"00000000","Municipality":"-","DistrictCode":"-","District":"-","Description":"ÖV","Authority":"VRR","DelfiName":"-","THID":"-","LastOperationDate":"","SEV":"nein","longitude":"7,992042","latitude":"50,827653","geojson_lng":7.992042,"geojson_lat":50.827653},"geometry":{"type":"Point","coordinates":[7.992042,50.827653]}},{"type":"Feature","properties":{"SeqNo":"695281","Type":"Q","DHID":"de:05970:61628:1:1","Parent":"de:05970:61628:1","Name":"1","MunicipalityCode":"00000000","Municipality":"-","DistrictCode":"-","District":"-","Description":"Ri. Niederschelden","Authority":"VRR","DelfiName":"-","THID":"-","LastOperationDate":"","SEV":"nein","longitude":"7,992437","latitude":"50,8275","geojson_lng":7.992437,"geojson_lat":50.8275},"geometry":{"type":"Point","coordinates":[7.992437,50.8275]}},{"type":"Feature","properties":{"SeqNo":"695282","Type":"Q","DHID":"de:05970:61628:1:2","Parent":"de:05970:61628:1","Name":"2","MunicipalityCode":"00000000","Municipality":"-","DistrictCode":"-","District":"-","Description":"Ri. Eiserfeld","Authority":"VRR","DelfiName":"-","THID":"-","LastOperationDate":"","SEV":"nein","longitude":"7,991583","latitude":"50,827835","geojson_lng":7.991583,"geojson_lat":50.827835},"geometry":{"type":"Point","coordinates":[7.991583,50.827835]}},{"type":"Feature","properties":{"SeqNo":"695291","Type":"S","DHID":"de:05970:61631","Parent":"de:05970:61631","Name":"Eiserfeld Freiengründer Straße","MunicipalityCode":"05970040","Municipality":"Siegen","DistrictCode":"-","District":"-","Description":"","Authority":"VRR","DelfiName":"-","THID":"D9175200F0BF","LastOperationDate":"2024-12-20T00:00:00","SEV":"nein","longitude":"7,989598","latitude":"50,833378","geojson_lng":7.989598,"geojson_lat":50.833378},"geometry":{"type":"Point","coordinates":[7.989598,50.833378]}},{"type":"Feature","properties":{"SeqNo":"695292","Type":"A","DHID":"de:05970:61631:1","Parent":"de:05970:61631","Name":"1","MunicipalityCode":"00000000","Municipality":"-","DistrictCode":"-","District":"-","Description":"ÖV","Authority":"VRR","DelfiName":"-","THID":"-","LastOperationDate":"","SEV":"nein","longitude":"7,989598","latitude":"50,833378","geojson_lng":7.989598,"geojson_lat":50.833378},"geometry":{"type":"Point","coordinates":[7.989598,50.833378]}},{"type":"Feature","properties":{"SeqNo":"695293","Type":"Q","DHID":"de:05970:61631:1:1","Parent":"de:05970:61631:1","Name":"1","MunicipalityCode":"00000000","Municipality":"-","DistrictCode":"-","District":"-","Description":"Eiserfeld Freiengründer Str","Authority":"VRR","DelfiName":"-","THID":"-","LastOperationDate":"","SEV":"nein","longitude":"7,989598","latitude":"50,833378","geojson_lng":7.989598,"geojson_lat":50.833378},"geometry":{"type":"Point","coordinates":[7.989598,50.833378]}},{"type":"Feature","properties":{"SeqNo":"695298","Type":"S","DHID":"de:05970:61633","Parent":"de:05970:61633","Name":"Eiserfeld Wilhelmstraße","MunicipalityCode":"05970040","Municipality":"Siegen","DistrictCode":"","District":"","Description":"","Authority":"VRR","DelfiName":"-","THID":"D9175200F0C1","LastOperationDate":"2025-01-06T00:00:00","SEV":"nein","longitude":"7,996794","latitude":"50,832136","geojson_lng":7.996794,"geojson_lat":50.832136},"geometry":{"type":"Point","coordinates":[7.996794,50.832136]}},{"type":"Feature","properties":{"SeqNo":"695299","Type":"A","DHID":"de:05970:61633:1","Parent":"de:05970:61633","Name":"ÖV","MunicipalityCode":"00000000","Municipality":"-","DistrictCode":"-","District":"-","Description":"","Authority":"VRR","DelfiName":"-","THID":"-","LastOperationDate":"","SEV":"nein","longitude":"7,996794","latitude":"50,832136","geojson_lng":7.996794,"geojson_lat":50.832136},"geometry":{"type":"Point","coordinates":[7.996794,50.832136]}},{"type":"Feature","properties":{"SeqNo":"695300","Type":"Q","DHID":"de:05970:61633:1:1","Parent":"de:05970:61633:1","Name":"Ri. Hubach","MunicipalityCode":"00000000","Municipality":"-","DistrictCode":"-","District":"-","Description":"","Authority":"VRR","DelfiName":"-","THID":"-","LastOperationDate":"","SEV":"nein","longitude":"7,996812","latitude":"50,832119","geojson_lng":7.996812,"geojson_lat":50.832119},"geometry":{"type":"Point","coordinates":[7.996812,50.832119]}},{"type":"Feature","properties":{"SeqNo":"695301","Type":"Q","DHID":"de:05970:61633:1:2","Parent":"de:05970:61633:1","Name":"Ri. Eiserfeld","MunicipalityCode":"00000000","Municipality":"-","DistrictCode":"-","District":"-","Description":"","Authority":"VRR","DelfiName":"-","THID":"-","LastOperationDate":"","SEV":"nein","longitude":"7,996776","latitude":"50,832147","geojson_lng":7.996776,"geojson_lat":50.832147},"geometry":{"type":"Point","coordinates":[7.996776,50.832147]}},{"type":"Feature","properties":{"SeqNo":"695326","Type":"S","DHID":"de:05970:61641","Parent":"de:05970:61641","Name":"Eiserfeld Jugendheim","MunicipalityCode":"05970040","Municipality":"Siegen","DistrictCode":"","District":"","Description":"","Authority":"VRR","DelfiName":"-","THID":"D9175200F0C9","LastOperationDate":"2025-01-06T00:00:00","SEV":"nein","longitude":"7,987739","latitude":"50,833605","geojson_lng":7.987739,"geojson_lat":50.833605},"geometry":{"type":"Point","coordinates":[7.987739,50.833605]}},{"type":"Feature","properties":{"SeqNo":"695327","Type":"A","DHID":"de:05970:61641:1","Parent":"de:05970:61641","Name":"ÖV","MunicipalityCode":"00000000","Municipality":"-","DistrictCode":"-","District":"-","Description":"","Authority":"VRR","DelfiName":"-","THID":"-","LastOperationDate":"","SEV":"nein","longitude":"7,98773","latitude":"50,833605","geojson_lng":7.98773,"geojson_lat":50.833605},"geometry":{"type":"Point","coordinates":[7.98773,50.833605]}},{"type":"Feature","properties":{"SeqNo":"695328","Type":"Q","DHID":"de:05970:61641:1:1","Parent":"de:05970:61641:1","Name":"Ri. Kaiserschacht","MunicipalityCode":"00000000","Municipality":"-","DistrictCode":"-","District":"-","Description":"","Authority":"VRR","DelfiName":"-","THID":"-","LastOperationDate":"","SEV":"nein","longitude":"7,987748","latitude":"50,833702","geojson_lng":7.987748,"geojson_lat":50.833702},"geometry":{"type":"Point","coordinates":[7.987748,50.833702]}},{"type":"Feature","properties":{"SeqNo":"695329","Type":"Q","DHID":"de:05970:61641:1:2","Parent":"de:05970:61641:1","Name":"Ri. Eiserfeld","MunicipalityCode":"00000000","Municipality":"-","DistrictCode":"-","District":"-","Description":"","Authority":"VRR","DelfiName":"-","THID":"-","LastOperationDate":"","SEV":"nein","longitude":"7,987712","latitude":"50,833492","geojson_lng":7.987712,"geojson_lat":50.833492},"geometry":{"type":"Point","coordinates":[7.987712,50.833492]}},{"type":"Feature","properties":{"SeqNo":"695336","Type":"Q","DHID":"de:05970:61643:1:2","Parent":"de:05970:61643:1","Name":"Ri. Eiserfeld","MunicipalityCode":"00000000","Municipality":"-","DistrictCode":"-","District":"-","Description":"","Authority":"VRR","DelfiName":"-","THID":"-","LastOperationDate":"","SEV":"nein","longitude":"7,990479","latitude":"50,833775","geojson_lng":7.990479,"geojson_lat":50.833775},"geometry":{"type":"Point","coordinates":[7.990479,50.833775]}},{"type":"Feature","properties":{"SeqNo":"695341","Type":"S","DHID":"de:05970:61645","Parent":"de:05970:61645","Name":"Eiserfeld Talsbachstraße","MunicipalityCode":"05970040","Municipality":"Siegen","DistrictCode":"","District":"","Description":"","Authority":"VRR","DelfiName":"-","THID":"D9175200F0CD","LastOperationDate":"2025-01-06T00:00:00","SEV":"nein","longitude":"7,995572","latitude":"50,831194","geojson_lng":7.995572,"geojson_lat":50.831194},"geometry":{"type":"Point","coordinates":[7.995572,50.831194]}},{"type":"Feature","properties":{"SeqNo":"695342","Type":"A","DHID":"de:05970:61645:1","Parent":"de:05970:61645","Name":"ÖV","MunicipalityCode":"00000000","Municipality":"-","DistrictCode":"-","District":"-","Description":"","Authority":"VRR","DelfiName":"-","THID":"-","LastOperationDate":"","SEV":"nein","longitude":"7,995572","latitude":"50,831194","geojson_lng":7.995572,"geojson_lat":50.831194},"geometry":{"type":"Point","coordinates":[7.995572,50.831194]}},{"type":"Feature","properties":{"SeqNo":"695343","Type":"Q","DHID":"de:05970:61645:1:1","Parent":"de:05970:61645:1","Name":"Ri. Eisern","MunicipalityCode":"00000000","Municipality":"-","DistrictCode":"-","District":"-","Description":"","Authority":"VRR","DelfiName":"-","THID":"-","LastOperationDate":"","SEV":"nein","longitude":"7,99559","latitude":"50,83112","geojson_lng":7.99559,"geojson_lat":50.83112},"geometry":{"type":"Point","coordinates":[7.99559,50.83112]}},{"type":"Feature","properties":{"SeqNo":"695344","Type":"Q","DHID":"de:05970:61645:1:2","Parent":"de:05970:61645:1","Name":"Ri. Eiserfeld","MunicipalityCode":"00000000","Municipality":"-","DistrictCode":"-","District":"-","Description":"","Authority":"VRR","DelfiName":"-","THID":"-","LastOperationDate":"","SEV":"nein","longitude":"7,995572","latitude":"50,831251","geojson_lng":7.995572,"geojson_lat":50.831251},"geometry":{"type":"Point","coordinates":[7.995572,50.831251]}},{"type":"Feature","properties":{"SeqNo":"695352","Type":"S","DHID":"de:05970:61648","Parent":"de:05970:61648","Name":"Eiserfeld Stollenweg","MunicipalityCode":"05970040","Municipality":"Siegen","DistrictCode":"","District":"","Description":"","Authority":"VRR","DelfiName":"-","THID":"D9175200F0D0","LastOperationDate":"2025-01-06T00:00:00","SEV":"nein","longitude":"7,988215","latitude":"50,829855","geojson_lng":7.988215,"geojson_lat":50.829855},"geometry":{"type":"Point","coordinates":[7.988215,50.829855]}},{"type":"Feature","properties":{"SeqNo":"695353","Type":"A","DHID":"de:05970:61648:1","Parent":"de:05970:61648","Name":"ÖV","MunicipalityCode":"00000000","Municipality":"-","DistrictCode":"-","District":"-","Description":"","Authority":"VRR","DelfiName":"-","THID":"-","LastOperationDate":"","SEV":"nein","longitude":"7,988215","latitude":"50,829855","geojson_lng":7.988215,"geojson_lat":50.829855},"geometry":{"type":"Point","coordinates":[7.988215,50.829855]}},{"type":"Feature","properties":{"SeqNo":"695354","Type":"Q","DHID":"de:05970:61648:1:1","Parent":"de:05970:61648:1","Name":"Ri. Kaiserschacht","MunicipalityCode":"00000000","Municipality":"-","DistrictCode":"-","District":"-","Description":"","Authority":"VRR","DelfiName":"-","THID":"-","LastOperationDate":"","SEV":"nein","longitude":"7,988107","latitude":"50,829906","geojson_lng":7.988107,"geojson_lat":50.829906},"geometry":{"type":"Point","coordinates":[7.988107,50.829906]}},{"type":"Feature","properties":{"SeqNo":"695355","Type":"Q","DHID":"de:05970:61648:1:2","Parent":"de:05970:61648:1","Name":"Ri. Eiserfeld","MunicipalityCode":"00000000","Municipality":"-","DistrictCode":"-","District":"-","Description":"","Authority":"VRR","DelfiName":"-","THID":"-","LastOperationDate":"","SEV":"nein","longitude":"7,988305","latitude":"50,829809","geojson_lng":7.988305,"geojson_lat":50.829809},"geometry":{"type":"Point","coordinates":[7.988305,50.829809]}},{"type":"Feature","properties":{"SeqNo":"695356","Type":"S","DHID":"de:05970:61649","Parent":"de:05970:61649","Name":"Eiserfeld Kindergarten","MunicipalityCode":"05970040","Municipality":"Siegen","DistrictCode":"","District":"","Description":"","Authority":"VRR","DelfiName":"-","THID":"D9175200F0D1","LastOperationDate":"2024-12-20T00:00:00","SEV":"nein","longitude":"7,997342","latitude":"50,827914","geojson_lng":7.997342,"geojson_lat":50.827914},"geometry":{"type":"Point","coordinates":[7.997342,50.827914]}},{"type":"Feature","properties":{"SeqNo":"695357","Type":"A","DHID":"de:05970:61649:1","Parent":"de:05970:61649","Name":"ÖV","MunicipalityCode":"00000000","Municipality":"-","DistrictCode":"-","District":"-","Description":"","Authority":"VRR","DelfiName":"-","THID":"-","LastOperationDate":"","SEV":"nein","longitude":"7,997342","latitude":"50,827914","geojson_lng":7.997342,"geojson_lat":50.827914},"geometry":{"type":"Point","coordinates":[7.997342,50.827914]}},{"type":"Feature","properties":{"SeqNo":"695358","Type":"Q","DHID":"de:05970:61649:1:1","Parent":"de:05970:61649:1","Name":"Ri. Eiserfeld","MunicipalityCode":"00000000","Municipality":"-","DistrictCode":"-","District":"-","Description":"","Authority":"VRR","DelfiName":"-","THID":"-","LastOperationDate":"","SEV":"nein","longitude":"7,997342","latitude":"50,827937","geojson_lng":7.997342,"geojson_lat":50.827937},"geometry":{"type":"Point","coordinates":[7.997342,50.827937]}},{"type":"Feature","properties":{"SeqNo":"695359","Type":"Q","DHID":"de:05970:61649:1:2","Parent":"de:05970:61649:1","Name":"Ri. Hengsbach","MunicipalityCode":"00000000","Municipality":"-","DistrictCode":"-","District":"-","Description":"","Authority":"VRR","DelfiName":"-","THID":"-","LastOperationDate":"","SEV":"nein","longitude":"7,997333","latitude":"50,827897","geojson_lng":7.997333,"geojson_lat":50.827897},"geometry":{"type":"Point","coordinates":[7.997333,50.827897]}}]}