{"type":"FeatureCollection","features":[{"type":"Feature","properties":{"highway":"bus_stop","public_transport":"platform","name":"Kaj Munkweg","ref:IFOPT":"NL:Q:56333020","_quaycode":"NL:Q:56333020","_town":"Hoofddorp","_status":"available","_mode":"bus","_direction":54,"_visuallyAccessible":true,"_disabledAccessible":true,"geojson_lng":4.681848450720519,"geojson_lat":52.309403400059495},"geometry":{"type":"Point","coordinates":[4.681848450720519,52.309403400059495]}},{"type":"Feature","properties":{"highway":"bus_stop","public_transport":"platform","name":"Geniedijk","ref:IFOPT":"NL:Q:56330040","_quaycode":"NL:Q:56330040","_town":"Hoofddorp","_status":"available","_mode":"bus","_direction":131,"_visuallyAccessible":false,"_disabledAccessible":false,"geojson_lng":4.683782897950133,"geojson_lat":52.31040359763025},"geometry":{"type":"Point","coordinates":[4.683782897950133,52.31040359763025]}},{"type":"Feature","properties":{"highway":"bus_stop","public_transport":"platform","name":"De Meerstede","ref:IFOPT":"NL:Q:56332960","_quaycode":"NL:Q:56332960","_town":"Hoofddorp","_status":"available","_mode":"bus","_direction":299,"_visuallyAccessible":true,"_disabledAccessible":true,"geojson_lng":4.689371655692686,"geojson_lat":52.31029289640753},"geometry":{"type":"Point","coordinates":[4.689371655692686,52.31029289640753]}},{"type":"Feature","properties":{"highway":"bus_stop","public_transport":"platform","name":"Kaj Munkweg","ref:IFOPT":"NL:Q:56333010","_quaycode":"NL:Q:56333010","_town":"Hoofddorp","_status":"available","_mode":"bus","_direction":234,"_visuallyAccessible":false,"_disabledAccessible":true,"geojson_lng":4.681571149976427,"geojson_lat":52.3093208542088},"geometry":{"type":"Point","coordinates":[4.681571149976427,52.3093208542088]}},{"type":"Feature","properties":{"highway":"bus_stop","public_transport":"platform","name":"RK Kerk","ref:IFOPT":"NL:Q:56332040","_quaycode":"NL:Q:56332040","_town":"Hoofddorp","_status":"available","_mode":"bus","_direction":298,"_visuallyAccessible":true,"_disabledAccessible":true,"geojson_lng":4.687079449144842,"geojson_lat":52.30872443145559},"geometry":{"type":"Point","coordinates":[4.687079449144842,52.30872443145559]}},{"type":"Feature","properties":{"highway":"bus_stop","public_transport":"platform","name":"De Meerstede","ref:IFOPT":"NL:Q:56332950","_quaycode":"NL:Q:56332950","_town":"Hoofddorp","_status":"available","_mode":"bus","_direction":97,"_visuallyAccessible":true,"_disabledAccessible":true,"geojson_lng":4.689402533604474,"geojson_lat":52.310194210971495},"geometry":{"type":"Point","coordinates":[4.689402533604474,52.310194210971495]}},{"type":"Feature","properties":{"highway":"bus_stop","public_transport":"platform","name":"Oranjestraat","ref:IFOPT":"NL:Q:56332980","_quaycode":"NL:Q:56332980","_town":"Hoofddorp","_status":"available","_mode":"bus","_direction":261,"_visuallyAccessible":false,"_disabledAccessible":false,"geojson_lng":4.6864518606065175,"geojson_lat":52.31132722536321},"geometry":{"type":"Point","coordinates":[4.6864518606065175,52.31132722536321]}},{"type":"Feature","properties":{"highway":"bus_stop","public_transport":"platform","name":"Geniedijk","ref:IFOPT":"NL:Q:56330050","_quaycode":"NL:Q:56330050","_town":"Hoofddorp","_status":"available","_mode":"bus","_direction":301,"_visuallyAccessible":false,"_disabledAccessible":false,"geojson_lng":4.683306857206132,"geojson_lat":52.31083218802286},"geometry":{"type":"Point","coordinates":[4.683306857206132,52.31083218802286]}},{"type":"Feature","properties":{"highway":"bus_stop","public_transport":"platform","name":"Oranjestraat","ref:IFOPT":"NL:Q:56332970","_quaycode":"NL:Q:56332970","_town":"Hoofddorp","_status":"available","_mode":"bus","_direction":83,"_visuallyAccessible":false,"_disabledAccessible":false,"geojson_lng":4.686995100808157,"geojson_lat":52.31128550281994},"geometry":{"type":"Point","coordinates":[4.686995100808157,52.31128550281994]}}]}