{"type":"FeatureCollection","features":[{"type":"Feature","properties":{"SeqNo":"529766","Type":"S","DHID":"de:05122:13049","Parent":"de:05122:13049","Name":"Solingen Schulte vom Br체hl","MunicipalityCode":"05122000","Municipality":"Solingen","DistrictCode":"","District":"","Description":"","Authority":"VRR","DelfiName":"-","THID":"D914020032F9","LastOperationDate":"2025-01-06T00:00:00","SEV":"nein","longitude":"7,072122","latitude":"51,20121","geojson_lng":7.072122,"geojson_lat":51.20121},"geometry":{"type":"Point","coordinates":[7.072122,51.20121]}},{"type":"Feature","properties":{"SeqNo":"529767","Type":"Q","DHID":"de:05122:13049:0:1","Parent":"de:05122:13049","Name":"Ri. Gr채frath","MunicipalityCode":"00000000","Municipality":"-","DistrictCode":"-","District":"-","Description":"","Authority":"VRR","DelfiName":"-","THID":"-","LastOperationDate":"","SEV":"nein","longitude":"7,072068","latitude":"51,201075","geojson_lng":7.072068,"geojson_lat":51.201075},"geometry":{"type":"Point","coordinates":[7.072068,51.201075]}},{"type":"Feature","properties":{"SeqNo":"529768","Type":"Q","DHID":"de:05122:13049:0:2","Parent":"de:05122:13049","Name":"Ri. Bechstein.","MunicipalityCode":"00000000","Municipality":"-","DistrictCode":"-","District":"-","Description":"","Authority":"VRR","DelfiName":"-","THID":"-","LastOperationDate":"","SEV":"nein","longitude":"7,072005","latitude":"51,201109","geojson_lng":7.072005,"geojson_lat":51.201109},"geometry":{"type":"Point","coordinates":[7.072005,51.201109]}},{"type":"Feature","properties":{"SeqNo":"530092","Type":"S","DHID":"de:05122:13750","Parent":"de:05122:13750","Name":"Solingen Gr채frath","MunicipalityCode":"05122000","Municipality":"Solingen","DistrictCode":"","District":"","Description":"","Authority":"VRR","DelfiName":"-","THID":"D914020035B6","LastOperationDate":"2025-01-06T00:00:00","SEV":"nein","longitude":"7,072769","latitude":"51,205454","geojson_lng":7.072769,"geojson_lat":51.205454},"geometry":{"type":"Point","coordinates":[7.072769,51.205454]}},{"type":"Feature","properties":{"SeqNo":"530093","Type":"Q","DHID":"de:05122:13750:0:1","Parent":"de:05122:13750","Name":"Ri. W-Vohwinkel","MunicipalityCode":"00000000","Municipality":"-","DistrictCode":"-","District":"-","Description":"","Authority":"VRR","DelfiName":"-","THID":"-","LastOperationDate":"","SEV":"nein","longitude":"7,073568","latitude":"51,204526","geojson_lng":7.073568,"geojson_lat":51.204526},"geometry":{"type":"Point","coordinates":[7.073568,51.204526]}},{"type":"Feature","properties":{"SeqNo":"530094","Type":"Q","DHID":"de:05122:13750:0:2","Parent":"de:05122:13750","Name":"Ri. Central/GWP","MunicipalityCode":"00000000","Municipality":"-","DistrictCode":"-","District":"-","Description":"","Authority":"VRR","DelfiName":"-","THID":"-","LastOperationDate":"","SEV":"nein","longitude":"7,072481","latitude":"51,205544","geojson_lng":7.072481,"geojson_lat":51.205544},"geometry":{"type":"Point","coordinates":[7.072481,51.205544]}},{"type":"Feature","properties":{"SeqNo":"530095","Type":"S","DHID":"de:05122:13752","Parent":"de:05122:13752","Name":"Solingen Bergerbr체hl","MunicipalityCode":"05122000","Municipality":"Solingen","DistrictCode":"","District":"","Description":"","Authority":"VRR","DelfiName":"-","THID":"D914020035B8","LastOperationDate":"2025-01-06T00:00:00","SEV":"nein","longitude":"7,073496","latitude":"51,201644","geojson_lng":7.073496,"geojson_lat":51.201644},"geometry":{"type":"Point","coordinates":[7.073496,51.201644]}},{"type":"Feature","properties":{"SeqNo":"530096","Type":"Q","DHID":"de:05122:13752:0:1","Parent":"de:05122:13752","Name":"Ri. W.tal","MunicipalityCode":"00000000","Municipality":"-","DistrictCode":"-","District":"-","Description":"","Authority":"VRR","DelfiName":"-","THID":"-","LastOperationDate":"","SEV":"nein","longitude":"7,073469","latitude":"51,201835","geojson_lng":7.073469,"geojson_lat":51.201835},"geometry":{"type":"Point","coordinates":[7.073469,51.201835]}},{"type":"Feature","properties":{"SeqNo":"530097","Type":"Q","DHID":"de:05122:13752:0:2","Parent":"de:05122:13752","Name":"Ri. GWP","MunicipalityCode":"00000000","Municipality":"-","DistrictCode":"-","District":"-","Description":"","Authority":"VRR","DelfiName":"-","THID":"-","LastOperationDate":"","SEV":"nein","longitude":"7,073541","latitude":"51,201453","geojson_lng":7.073541,"geojson_lat":51.201453},"geometry":{"type":"Point","coordinates":[7.073541,51.201453]}}]}