{"type":"FeatureCollection","features":[{"type":"Feature","properties":{"SeqNo":"561806","Type":"S","DHID":"de:05316:23166","Parent":"de:05316:23166","Name":"Leverkusen Edelrath Edelrather Weg","MunicipalityCode":"05316000","Municipality":"Leverkusen","DistrictCode":"","District":"","Description":"","Authority":"VRR","DelfiName":"-","THID":"D914C4005A7E","LastOperationDate":"2025-01-06T00:00:00","SEV":"nein","longitude":"7,066355","latitude":"51,031999","geojson_lng":7.066355,"geojson_lat":51.031999},"geometry":{"type":"Point","coordinates":[7.066355,51.031999]}},{"type":"Feature","properties":{"SeqNo":"561807","Type":"A","DHID":"de:05316:23166:2","Parent":"de:05316:23166","Name":"Edelrather Weg","MunicipalityCode":"00000000","Municipality":"-","DistrictCode":"-","District":"-","Description":"","Authority":"VRR","DelfiName":"-","THID":"-","LastOperationDate":"","SEV":"nein","longitude":"7,066355","latitude":"51,031999","geojson_lng":7.066355,"geojson_lat":51.031999},"geometry":{"type":"Point","coordinates":[7.066355,51.031999]}},{"type":"Feature","properties":{"SeqNo":"561808","Type":"Q","DHID":"de:05316:23166:2:21","Parent":"de:05316:23166:2","Name":"","MunicipalityCode":"00000000","Municipality":"-","DistrictCode":"-","District":"-","Description":"","Authority":"VRR","DelfiName":"-","THID":"-","LastOperationDate":"","SEV":"nein","longitude":"7,067918","latitude":"51,031994","geojson_lng":7.067918,"geojson_lat":51.031994},"geometry":{"type":"Point","coordinates":[7.067918,51.031994]}},{"type":"Feature","properties":{"SeqNo":"561809","Type":"Q","DHID":"de:05316:23166:2:22","Parent":"de:05316:23166:2","Name":"","MunicipalityCode":"00000000","Municipality":"-","DistrictCode":"-","District":"-","Description":"","Authority":"VRR","DelfiName":"-","THID":"-","LastOperationDate":"","SEV":"nein","longitude":"7,065762","latitude":"51,032338","geojson_lng":7.065762,"geojson_lat":51.032338},"geometry":{"type":"Point","coordinates":[7.065762,51.032338]}},{"type":"Feature","properties":{"SeqNo":"561810","Type":"Q","DHID":"de:05316:23166:2:23","Parent":"de:05316:23166:2","Name":"","MunicipalityCode":"00000000","Municipality":"-","DistrictCode":"-","District":"-","Description":"","Authority":"VRR","DelfiName":"-","THID":"-","LastOperationDate":"","SEV":"nein","longitude":"7,066166","latitude":"51,031982","geojson_lng":7.066166,"geojson_lat":51.031982},"geometry":{"type":"Point","coordinates":[7.066166,51.031982]}},{"type":"Feature","properties":{"SeqNo":"561838","Type":"S","DHID":"de:05316:23181","Parent":"de:05316:23181","Name":"Leverkusen Hummelsheim","MunicipalityCode":"05316000","Municipality":"Leverkusen","DistrictCode":"","District":"","Description":"","Authority":"VRR","DelfiName":"-","THID":"D914C4005A8D","LastOperationDate":"2025-01-06T00:00:00","SEV":"nein","longitude":"7,074628","latitude":"51,028079","geojson_lng":7.074628,"geojson_lat":51.028079},"geometry":{"type":"Point","coordinates":[7.074628,51.028079]}},{"type":"Feature","properties":{"SeqNo":"561839","Type":"A","DHID":"de:05316:23181:2","Parent":"de:05316:23181","Name":"Hummelsheim","MunicipalityCode":"00000000","Municipality":"-","DistrictCode":"-","District":"-","Description":"","Authority":"VRR","DelfiName":"-","THID":"-","LastOperationDate":"","SEV":"nein","longitude":"7,074628","latitude":"51,028079","geojson_lng":7.074628,"geojson_lat":51.028079},"geometry":{"type":"Point","coordinates":[7.074628,51.028079]}},{"type":"Feature","properties":{"SeqNo":"561840","Type":"Q","DHID":"de:05316:23181:2:21","Parent":"de:05316:23181:2","Name":"","MunicipalityCode":"00000000","Municipality":"-","DistrictCode":"-","District":"-","Description":"","Authority":"VRR","DelfiName":"-","THID":"-","LastOperationDate":"","SEV":"nein","longitude":"7,074475","latitude":"51,028242","geojson_lng":7.074475,"geojson_lat":51.028242},"geometry":{"type":"Point","coordinates":[7.074475,51.028242]}},{"type":"Feature","properties":{"SeqNo":"561841","Type":"Q","DHID":"de:05316:23181:2:22","Parent":"de:05316:23181:2","Name":"","MunicipalityCode":"00000000","Municipality":"-","DistrictCode":"-","District":"-","Description":"","Authority":"VRR","DelfiName":"-","THID":"-","LastOperationDate":"","SEV":"nein","longitude":"7,074978","latitude":"51,027841","geojson_lng":7.074978,"geojson_lat":51.027841},"geometry":{"type":"Point","coordinates":[7.074978,51.027841]}},{"type":"Feature","properties":{"SeqNo":"561842","Type":"S","DHID":"de:05316:23182","Parent":"de:05316:23182","Name":"Leverkusen Edelrath Neuenhausgasse","MunicipalityCode":"05316000","Municipality":"Leverkusen","DistrictCode":"","District":"","Description":"","Authority":"VRR","DelfiName":"-","THID":"D914C4005A8E","LastOperationDate":"2025-01-06T00:00:00","SEV":"nein","longitude":"7,072823","latitude":"51,031869","geojson_lng":7.072823,"geojson_lat":51.031869},"geometry":{"type":"Point","coordinates":[7.072823,51.031869]}},{"type":"Feature","properties":{"SeqNo":"561843","Type":"A","DHID":"de:05316:23182:2","Parent":"de:05316:23182","Name":"Neuenhausgasse","MunicipalityCode":"00000000","Municipality":"-","DistrictCode":"-","District":"-","Description":"","Authority":"VRR","DelfiName":"-","THID":"-","LastOperationDate":"","SEV":"nein","longitude":"7,072823","latitude":"51,031869","geojson_lng":7.072823,"geojson_lat":51.031869},"geometry":{"type":"Point","coordinates":[7.072823,51.031869]}},{"type":"Feature","properties":{"SeqNo":"561844","Type":"Q","DHID":"de:05316:23182:2:21","Parent":"de:05316:23182:2","Name":"","MunicipalityCode":"00000000","Municipality":"-","DistrictCode":"-","District":"-","Description":"","Authority":"VRR","DelfiName":"-","THID":"-","LastOperationDate":"","SEV":"nein","longitude":"7,072903","latitude":"51,031813","geojson_lng":7.072903,"geojson_lat":51.031813},"geometry":{"type":"Point","coordinates":[7.072903,51.031813]}},{"type":"Feature","properties":{"SeqNo":"561845","Type":"Q","DHID":"de:05316:23182:2:22","Parent":"de:05316:23182:2","Name":"","MunicipalityCode":"00000000","Municipality":"-","DistrictCode":"-","District":"-","Description":"","Authority":"VRR","DelfiName":"-","THID":"-","LastOperationDate":"","SEV":"nein","longitude":"7,072849","latitude":"51,031915","geojson_lng":7.072849,"geojson_lat":51.031915},"geometry":{"type":"Point","coordinates":[7.072849,51.031915]}}]}