{"type":"FeatureCollection","features":[{"type":"Feature","properties":{"SeqNo":"509644","Type":"S","DHID":"de:05111:18030","Parent":"de:05111:18030","Name":"D-Nordpark/Aquazoo","MunicipalityCode":"05111000","Municipality":"Düsseldorf","DistrictCode":"","District":"","Description":"","Authority":"VRR","DelfiName":"-","THID":"D913F700466E","LastOperationDate":"2025-06-14T00:00:00","SEV":"nein","longitude":"6,755564","latitude":"51,256541","geojson_lng":6.755564,"geojson_lat":51.256541},"geometry":{"type":"Point","coordinates":[6.755564,51.256541]}},{"type":"Feature","properties":{"SeqNo":"509645","Type":"A","DHID":"de:05111:18030:1","Parent":"de:05111:18030","Name":"für Steig 1","MunicipalityCode":"00000000","Municipality":"-","DistrictCode":"-","District":"-","Description":"","Authority":"VRR","DelfiName":"-","THID":"-","LastOperationDate":"","SEV":"nein","longitude":"6,755645","latitude":"51,256277","geojson_lng":6.755645,"geojson_lat":51.256277},"geometry":{"type":"Point","coordinates":[6.755645,51.256277]}},{"type":"Feature","properties":{"SeqNo":"509646","Type":"A","DHID":"de:05111:18030:2","Parent":"de:05111:18030","Name":"für Steig 2","MunicipalityCode":"00000000","Municipality":"-","DistrictCode":"-","District":"-","Description":"","Authority":"VRR","DelfiName":"-","THID":"-","LastOperationDate":"","SEV":"nein","longitude":"6,755609","latitude":"51,256378","geojson_lng":6.755609,"geojson_lat":51.256378},"geometry":{"type":"Point","coordinates":[6.755609,51.256378]}},{"type":"Feature","properties":{"SeqNo":"509647","Type":"A","DHID":"de:05111:18030:3","Parent":"de:05111:18030","Name":"für Steig 3","MunicipalityCode":"00000000","Municipality":"-","DistrictCode":"-","District":"-","Description":"","Authority":"VRR","DelfiName":"-","THID":"-","LastOperationDate":"","SEV":"nein","longitude":"6,755241","latitude":"51,25843","geojson_lng":6.755241,"geojson_lat":51.25843},"geometry":{"type":"Point","coordinates":[6.755241,51.25843]}},{"type":"Feature","properties":{"SeqNo":"509648","Type":"A","DHID":"de:05111:18030:4","Parent":"de:05111:18030","Name":"für Steig 4","MunicipalityCode":"00000000","Municipality":"-","DistrictCode":"-","District":"-","Description":"","Authority":"VRR","DelfiName":"-","THID":"-","LastOperationDate":"","SEV":"nein","longitude":"6,755618","latitude":"51,257194","geojson_lng":6.755618,"geojson_lat":51.257194},"geometry":{"type":"Point","coordinates":[6.755618,51.257194]}},{"type":"Feature","properties":{"SeqNo":"509649","Type":"A","DHID":"de:05111:18030:5","Parent":"de:05111:18030","Name":"für Steig 5","MunicipalityCode":"00000000","Municipality":"-","DistrictCode":"-","District":"-","Description":"","Authority":"VRR","DelfiName":"-","THID":"-","LastOperationDate":"","SEV":"nein","longitude":"6,755079","latitude":"51,257143","geojson_lng":6.755079,"geojson_lat":51.257143},"geometry":{"type":"Point","coordinates":[6.755079,51.257143]}},{"type":"Feature","properties":{"SeqNo":"509650","Type":"Q","DHID":"de:05111:18030:0:1","Parent":"de:05111:18030:1","Name":"U78-U79 Ri. DHB","MunicipalityCode":"00000000","Municipality":"-","DistrictCode":"-","District":"-","Description":"","Authority":"VRR","DelfiName":"-","THID":"-","LastOperationDate":"","SEV":"nein","longitude":"6,755618","latitude":"51,256277","geojson_lng":6.755618,"geojson_lat":51.256277},"geometry":{"type":"Point","coordinates":[6.755618,51.256277]}},{"type":"Feature","properties":{"SeqNo":"509651","Type":"Q","DHID":"de:05111:18030:0:2","Parent":"de:05111:18030:2","Name":"U78-U79 Ri. FGP","MunicipalityCode":"00000000","Municipality":"-","DistrictCode":"-","District":"-","Description":"","Authority":"VRR","DelfiName":"-","THID":"-","LastOperationDate":"","SEV":"nein","longitude":"6,755645","latitude":"51,256384","geojson_lng":6.755645,"geojson_lat":51.256384},"geometry":{"type":"Point","coordinates":[6.755645,51.256384]}},{"type":"Feature","properties":{"SeqNo":"509652","Type":"Q","DHID":"de:05111:18030:0:3","Parent":"de:05111:18030:3","Name":"Busse","MunicipalityCode":"00000000","Municipality":"-","DistrictCode":"-","District":"-","Description":"","Authority":"VRR","DelfiName":"-","THID":"-","LastOperationDate":"","SEV":"nein","longitude":"6,755187","latitude":"51,258425","geojson_lng":6.755187,"geojson_lat":51.258425},"geometry":{"type":"Point","coordinates":[6.755187,51.258425]}},{"type":"Feature","properties":{"SeqNo":"509653","Type":"Q","DHID":"de:05111:18030:4:4","Parent":"de:05111:18030:4","Name":"SEV","MunicipalityCode":"00000000","Municipality":"-","DistrictCode":"-","District":"-","Description":"","Authority":"VRR","DelfiName":"-","THID":"-","LastOperationDate":"","SEV":"nein","longitude":"6,755582","latitude":"51,257188","geojson_lng":6.755582,"geojson_lat":51.257188},"geometry":{"type":"Point","coordinates":[6.755582,51.257188]}},{"type":"Feature","properties":{"SeqNo":"509654","Type":"Q","DHID":"de:05111:18030:5:5","Parent":"de:05111:18030:5","Name":"SEV","MunicipalityCode":"00000000","Municipality":"-","DistrictCode":"-","District":"-","Description":"","Authority":"VRR","DelfiName":"-","THID":"-","LastOperationDate":"","SEV":"nein","longitude":"6,755115","latitude":"51,257143","geojson_lng":6.755115,"geojson_lat":51.257143},"geometry":{"type":"Point","coordinates":[6.755115,51.257143]}},{"type":"Feature","properties":{"SeqNo":"512001","Type":"S","DHID":"de:05111:18281","Parent":"de:05111:18281","Name":"D-Messe Ost/Stockum. Kirchstr.","MunicipalityCode":"05111000","Municipality":"Düsseldorf","DistrictCode":"","District":"","Description":"","Authority":"VRR","DelfiName":"-","THID":"D913F7004769","LastOperationDate":"2025-06-14T00:00:00","SEV":"nein","longitude":"6,754424","latitude":"51,259971","geojson_lng":6.754424,"geojson_lat":51.259971},"geometry":{"type":"Point","coordinates":[6.754424,51.259971]}},{"type":"Feature","properties":{"SeqNo":"512002","Type":"A","DHID":"de:05111:18281:1","Parent":"de:05111:18281","Name":"Steig 1+2","MunicipalityCode":"00000000","Municipality":"-","DistrictCode":"-","District":"-","Description":"","Authority":"VRR","DelfiName":"-","THID":"-","LastOperationDate":"","SEV":"nein","longitude":"6,754289","latitude":"51,260561","geojson_lng":6.754289,"geojson_lat":51.260561},"geometry":{"type":"Point","coordinates":[6.754289,51.260561]}},{"type":"Feature","properties":{"SeqNo":"512003","Type":"A","DHID":"de:05111:18281:3","Parent":"de:05111:18281","Name":"Steig 3","MunicipalityCode":"00000000","Municipality":"-","DistrictCode":"-","District":"-","Description":"","Authority":"VRR","DelfiName":"-","THID":"-","LastOperationDate":"","SEV":"nein","longitude":"6,7541","latitude":"51,259993","geojson_lng":6.7541,"geojson_lat":51.259993},"geometry":{"type":"Point","coordinates":[6.7541,51.259993]}},{"type":"Feature","properties":{"SeqNo":"512004","Type":"A","DHID":"de:05111:18281:4","Parent":"de:05111:18281","Name":"Steig 4","MunicipalityCode":"00000000","Municipality":"-","DistrictCode":"-","District":"-","Description":"","Authority":"VRR","DelfiName":"-","THID":"-","LastOperationDate":"","SEV":"nein","longitude":"6,754657","latitude":"51,260291","geojson_lng":6.754657,"geojson_lat":51.260291},"geometry":{"type":"Point","coordinates":[6.754657,51.260291]}},{"type":"Feature","properties":{"SeqNo":"512005","Type":"A","DHID":"de:05111:18281:5","Parent":"de:05111:18281","Name":"Steig 5","MunicipalityCode":"00000000","Municipality":"-","DistrictCode":"-","District":"-","Description":"","Authority":"VRR","DelfiName":"-","THID":"-","LastOperationDate":"","SEV":"nein","longitude":"6,753903","latitude":"51,259751","geojson_lng":6.753903,"geojson_lat":51.259751},"geometry":{"type":"Point","coordinates":[6.753903,51.259751]}},{"type":"Feature","properties":{"SeqNo":"512006","Type":"A","DHID":"de:05111:18281:6","Parent":"de:05111:18281","Name":"Steig 6","MunicipalityCode":"00000000","Municipality":"-","DistrictCode":"-","District":"-","Description":"","Authority":"VRR","DelfiName":"-","THID":"-","LastOperationDate":"","SEV":"nein","longitude":"6,753471","latitude":"51,25983","geojson_lng":6.753471,"geojson_lat":51.25983},"geometry":{"type":"Point","coordinates":[6.753471,51.25983]}},{"type":"Feature","properties":{"SeqNo":"512007","Type":"Q","DHID":"de:05111:18281:0:1","Parent":"de:05111:18281:1","Name":"U78-U79-DHB","MunicipalityCode":"00000000","Municipality":"-","DistrictCode":"-","District":"-","Description":"","Authority":"VRR","DelfiName":"-","THID":"-","LastOperationDate":"","SEV":"nein","longitude":"6,754244","latitude":"51,260544","geojson_lng":6.754244,"geojson_lat":51.260544},"geometry":{"type":"Point","coordinates":[6.754244,51.260544]}},{"type":"Feature","properties":{"SeqNo":"512008","Type":"Q","DHID":"de:05111:18281:0:2","Parent":"de:05111:18281:1","Name":"U78-AMN/U79-MDR","MunicipalityCode":"00000000","Municipality":"-","DistrictCode":"-","District":"-","Description":"","Authority":"VRR","DelfiName":"-","THID":"-","LastOperationDate":"","SEV":"nein","longitude":"6,754334","latitude":"51,260583","geojson_lng":6.754334,"geojson_lat":51.260583},"geometry":{"type":"Point","coordinates":[6.754334,51.260583]}},{"type":"Feature","properties":{"SeqNo":"512009","Type":"Q","DHID":"de:05111:18281:0:3","Parent":"de:05111:18281:3","Name":"SB52-760-NRD","MunicipalityCode":"00000000","Municipality":"-","DistrictCode":"-","District":"-","Description":"","Authority":"VRR","DelfiName":"-","THID":"-","LastOperationDate":"","SEV":"nein","longitude":"6,754217","latitude":"51,26001","geojson_lng":6.754217,"geojson_lat":51.26001},"geometry":{"type":"Point","coordinates":[6.754217,51.26001]}},{"type":"Feature","properties":{"SeqNo":"512010","Type":"Q","DHID":"de:05111:18281:0:4","Parent":"de:05111:18281:4","Name":"SB52-MOB/760-RPF","MunicipalityCode":"00000000","Municipality":"-","DistrictCode":"-","District":"-","Description":"","Authority":"VRR","DelfiName":"-","THID":"-","LastOperationDate":"","SEV":"nein","longitude":"6,754612","latitude":"51,260285","geojson_lng":6.754612,"geojson_lat":51.260285},"geometry":{"type":"Point","coordinates":[6.754612,51.260285]}},{"type":"Feature","properties":{"SeqNo":"512011","Type":"Q","DHID":"de:05111:18281:0:5","Parent":"de:05111:18281:5","Name":"722-VNA","MunicipalityCode":"00000000","Municipality":"-","DistrictCode":"-","District":"-","Description":"","Authority":"VRR","DelfiName":"-","THID":"-","LastOperationDate":"","SEV":"nein","longitude":"6,753732","latitude":"51,259763","geojson_lng":6.753732,"geojson_lat":51.259763},"geometry":{"type":"Point","coordinates":[6.753732,51.259763]}},{"type":"Feature","properties":{"SeqNo":"512012","Type":"Q","DHID":"de:05111:18281:0:6","Parent":"de:05111:18281:6","Name":"Ri. Messe","MunicipalityCode":"00000000","Municipality":"-","DistrictCode":"-","District":"-","Description":"","Authority":"VRR","DelfiName":"-","THID":"-","LastOperationDate":"","SEV":"nein","longitude":"6,75348","latitude":"51,259808","geojson_lng":6.75348,"geojson_lat":51.259808},"geometry":{"type":"Point","coordinates":[6.75348,51.259808]}},{"type":"Feature","properties":{"SeqNo":"512124","Type":"S","DHID":"de:05111:18294","Parent":"de:05111:18294","Name":"D-Messe, Osteingang","MunicipalityCode":"05111000","Municipality":"Düsseldorf","DistrictCode":"","District":"","Description":"","Authority":"VRR","DelfiName":"-","THID":"D913F7004776","LastOperationDate":"2025-05-22T00:00:00","SEV":"nein","longitude":"6,747767","latitude":"51,25924","geojson_lng":6.747767,"geojson_lat":51.25924},"geometry":{"type":"Point","coordinates":[6.747767,51.25924]}},{"type":"Feature","properties":{"SeqNo":"512125","Type":"A","DHID":"de:05111:18294:1","Parent":"de:05111:18294","Name":"für Steig 1","MunicipalityCode":"00000000","Municipality":"-","DistrictCode":"-","District":"-","Description":"","Authority":"VRR","DelfiName":"-","THID":"-","LastOperationDate":"","SEV":"nein","longitude":"6,746644","latitude":"51,259015","geojson_lng":6.746644,"geojson_lat":51.259015},"geometry":{"type":"Point","coordinates":[6.746644,51.259015]}},{"type":"Feature","properties":{"SeqNo":"512126","Type":"A","DHID":"de:05111:18294:2","Parent":"de:05111:18294","Name":"für Steig 2","MunicipalityCode":"00000000","Municipality":"-","DistrictCode":"-","District":"-","Description":"","Authority":"VRR","DelfiName":"-","THID":"-","LastOperationDate":"","SEV":"nein","longitude":"6,748261","latitude":"51,259364","geojson_lng":6.748261,"geojson_lat":51.259364},"geometry":{"type":"Point","coordinates":[6.748261,51.259364]}},{"type":"Feature","properties":{"SeqNo":"512127","Type":"A","DHID":"de:05111:18294:3","Parent":"de:05111:18294","Name":"für Steig 3","MunicipalityCode":"00000000","Municipality":"-","DistrictCode":"-","District":"-","Description":"","Authority":"VRR","DelfiName":"-","THID":"-","LastOperationDate":"","SEV":"nein","longitude":"6,747381","latitude":"51,259982","geojson_lng":6.747381,"geojson_lat":51.259982},"geometry":{"type":"Point","coordinates":[6.747381,51.259982]}},{"type":"Feature","properties":{"SeqNo":"512128","Type":"Q","DHID":"de:05111:18294:1:1","Parent":"de:05111:18294:1","Name":"722 Ri. Stockumer Kirchstr.","MunicipalityCode":"00000000","Municipality":"-","DistrictCode":"-","District":"-","Description":"","Authority":"VRR","DelfiName":"-","THID":"-","LastOperationDate":"","SEV":"nein","longitude":"6,746626","latitude":"51,259077","geojson_lng":6.746626,"geojson_lat":51.259077},"geometry":{"type":"Point","coordinates":[6.746626,51.259077]}},{"type":"Feature","properties":{"SeqNo":"512129","Type":"Q","DHID":"de:05111:18294:2:2","Parent":"de:05111:18294:2","Name":"722 Ri. Stadthalle","MunicipalityCode":"00000000","Municipality":"-","DistrictCode":"-","District":"-","Description":"","Authority":"VRR","DelfiName":"-","THID":"-","LastOperationDate":"","SEV":"nein","longitude":"6,748297","latitude":"51,259319","geojson_lng":6.748297,"geojson_lat":51.259319},"geometry":{"type":"Point","coordinates":[6.748297,51.259319]}},{"type":"Feature","properties":{"SeqNo":"512130","Type":"Q","DHID":"de:05111:18294:3:3","Parent":"de:05111:18294:3","Name":"Auf Messegelände","MunicipalityCode":"00000000","Municipality":"-","DistrictCode":"-","District":"-","Description":"","Authority":"VRR","DelfiName":"-","THID":"-","LastOperationDate":"","SEV":"nein","longitude":"6,747354","latitude":"51,259954","geojson_lng":6.747354,"geojson_lat":51.259954},"geometry":{"type":"Point","coordinates":[6.747354,51.259954]}},{"type":"Feature","properties":{"SeqNo":"512284","Type":"S","DHID":"de:05111:18480","Parent":"de:05111:18480","Name":"D-Christuskirche","MunicipalityCode":"05111000","Municipality":"Düsseldorf","DistrictCode":"-","District":"-","Description":"","Authority":"VRR","DelfiName":"-","THID":"D913F7004830","LastOperationDate":"1999-12-31T00:00:00","SEV":"nein","longitude":"6,754918","latitude":"51,257851","geojson_lng":6.754918,"geojson_lat":51.257851},"geometry":{"type":"Point","coordinates":[6.754918,51.257851]}},{"type":"Feature","properties":{"SeqNo":"512285","Type":"Q","DHID":"de:05111:18480:0:1","Parent":"de:05111:18480","Name":"Ri. Golzheim","MunicipalityCode":"00000000","Municipality":"-","DistrictCode":"-","District":"-","Description":"","Authority":"VRR","DelfiName":"-","THID":"-","LastOperationDate":"","SEV":"nein","longitude":"6,754918","latitude":"51,257851","geojson_lng":6.754918,"geojson_lat":51.257851},"geometry":{"type":"Point","coordinates":[6.754918,51.257851]}}]}