{"type":"FeatureCollection","features":[{"type":"Feature","properties":{"SeqNo":"306357","Type":"Q","DHID":"de:01003:57754::1","Parent":"de:01003:57754","Name":"Lübeck Ehrenfriedhof","MunicipalityCode":"00000000","Municipality":"-","DistrictCode":"-","District":"-","Description":"","Authority":"VBN","DelfiName":"-","THID":"-","LastOperationDate":"","SEV":"nein","longitude":"10,708355","latitude":"53,88524","geojson_lng":10.708355,"geojson_lat":53.88524},"geometry":{"type":"Point","coordinates":[10.708355,53.88524]}},{"type":"Feature","properties":{"SeqNo":"306543","Type":"S","DHID":"de:01003:57814","Parent":"de:01003:57814","Name":"Lübeck Hanse Residenz","MunicipalityCode":"01003000","Municipality":"Lübeck","DistrictCode":"","District":"","Description":"","Authority":"VBN","DelfiName":"-","THID":"D903EB00E1D6","LastOperationDate":"2025-06-14T00:00:00","SEV":"nein","longitude":"10,70667","latitude":"53,886352","geojson_lng":10.70667,"geojson_lat":53.886352},"geometry":{"type":"Point","coordinates":[10.70667,53.886352]}},{"type":"Feature","properties":{"SeqNo":"306544","Type":"Q","DHID":"de:01003:57814::1","Parent":"de:01003:57814","Name":"Lübeck Hanse Residenz","MunicipalityCode":"00000000","Municipality":"-","DistrictCode":"-","District":"-","Description":"","Authority":"VBN","DelfiName":"-","THID":"-","LastOperationDate":"","SEV":"nein","longitude":"10,706653","latitude":"53,886379","geojson_lng":10.706653,"geojson_lat":53.886379},"geometry":{"type":"Point","coordinates":[10.706653,53.886379]}},{"type":"Feature","properties":{"SeqNo":"306545","Type":"Q","DHID":"de:01003:57814::2","Parent":"de:01003:57814","Name":"Lübeck Hanse Residenz","MunicipalityCode":"00000000","Municipality":"-","DistrictCode":"-","District":"-","Description":"","Authority":"VBN","DelfiName":"-","THID":"-","LastOperationDate":"","SEV":"nein","longitude":"10,706686","latitude":"53,886325","geojson_lng":10.706686,"geojson_lat":53.886325},"geometry":{"type":"Point","coordinates":[10.706686,53.886325]}},{"type":"Feature","properties":{"SeqNo":"306793","Type":"S","DHID":"de:01003:57898","Parent":"de:01003:57898","Name":"Lübeck Luisenstraße","MunicipalityCode":"01003000","Municipality":"Lübeck","DistrictCode":"","District":"","Description":"","Authority":"VBN","DelfiName":"-","THID":"D903EB00E22A","LastOperationDate":"2025-06-14T00:00:00","SEV":"nein","longitude":"10,707648","latitude":"53,887592","geojson_lng":10.707648,"geojson_lat":53.887592},"geometry":{"type":"Point","coordinates":[10.707648,53.887592]}},{"type":"Feature","properties":{"SeqNo":"306794","Type":"Q","DHID":"de:01003:57898::1","Parent":"de:01003:57898","Name":"Lübeck Luisenstraße","MunicipalityCode":"00000000","Municipality":"-","DistrictCode":"-","District":"-","Description":"","Authority":"VBN","DelfiName":"-","THID":"-","LastOperationDate":"","SEV":"nein","longitude":"10,707878","latitude":"53,8877","geojson_lng":10.707878,"geojson_lat":53.8877},"geometry":{"type":"Point","coordinates":[10.707878,53.8877]}},{"type":"Feature","properties":{"SeqNo":"306795","Type":"Q","DHID":"de:01003:57898::2","Parent":"de:01003:57898","Name":"Lübeck Luisenstraße","MunicipalityCode":"00000000","Municipality":"-","DistrictCode":"-","District":"-","Description":"","Authority":"VBN","DelfiName":"-","THID":"-","LastOperationDate":"","SEV":"nein","longitude":"10,707418","latitude":"53,887483","geojson_lng":10.707418,"geojson_lat":53.887483},"geometry":{"type":"Point","coordinates":[10.707418,53.887483]}},{"type":"Feature","properties":{"SeqNo":"307211","Type":"S","DHID":"de:01003:58037","Parent":"de:01003:58037","Name":"Lübeck Torneiweg","MunicipalityCode":"01003000","Municipality":"Lübeck","DistrictCode":"","District":"","Description":"","Authority":"VBN","DelfiName":"-","THID":"D903EB00E2B5","LastOperationDate":"2025-06-14T00:00:00","SEV":"nein","longitude":"10,711471","latitude":"53,890301","geojson_lng":10.711471,"geojson_lat":53.890301},"geometry":{"type":"Point","coordinates":[10.711471,53.890301]}},{"type":"Feature","properties":{"SeqNo":"307212","Type":"Q","DHID":"de:01003:58037::1","Parent":"de:01003:58037","Name":"Lübeck Torneiweg","MunicipalityCode":"00000000","Municipality":"-","DistrictCode":"-","District":"-","Description":"","Authority":"VBN","DelfiName":"-","THID":"-","LastOperationDate":"","SEV":"nein","longitude":"10,711465","latitude":"53,890255","geojson_lng":10.711465,"geojson_lat":53.890255},"geometry":{"type":"Point","coordinates":[10.711465,53.890255]}},{"type":"Feature","properties":{"SeqNo":"307213","Type":"Q","DHID":"de:01003:58037::2","Parent":"de:01003:58037","Name":"Lübeck Torneiweg","MunicipalityCode":"00000000","Municipality":"-","DistrictCode":"-","District":"-","Description":"","Authority":"VBN","DelfiName":"-","THID":"-","LastOperationDate":"","SEV":"nein","longitude":"10,711476","latitude":"53,890346","geojson_lng":10.711476,"geojson_lat":53.890346},"geometry":{"type":"Point","coordinates":[10.711476,53.890346]}}]}