{"type":"FeatureCollection","features":[{"type":"Feature","properties":{"SeqNo":"535765","Type":"S","DHID":"de:05154:35630","Parent":"de:05154:35630","Name":"Kalkar Lärchenstraße","MunicipalityCode":"05154024","Municipality":"Kalkar","DistrictCode":"","District":"","Description":"","Authority":"VRR","DelfiName":"-","THID":"D91422008B2E","LastOperationDate":"2025-06-14T00:00:00","SEV":"nein","longitude":"6,284802","latitude":"51,735483","geojson_lng":6.284802,"geojson_lat":51.735483},"geometry":{"type":"Point","coordinates":[6.284802,51.735483]}},{"type":"Feature","properties":{"SeqNo":"535766","Type":"Q","DHID":"de:05154:35630:0:1","Parent":"de:05154:35630","Name":"Bahnhofstraße","MunicipalityCode":"00000000","Municipality":"-","DistrictCode":"-","District":"-","Description":"","Authority":"VRR","DelfiName":"-","THID":"-","LastOperationDate":"","SEV":"nein","longitude":"6,28544","latitude":"51,735739","geojson_lng":6.28544,"geojson_lat":51.735739},"geometry":{"type":"Point","coordinates":[6.28544,51.735739]}},{"type":"Feature","properties":{"SeqNo":"535767","Type":"Q","DHID":"de:05154:35630:0:2","Parent":"de:05154:35630","Name":"Kalkar Berg","MunicipalityCode":"00000000","Municipality":"-","DistrictCode":"-","District":"-","Description":"","Authority":"VRR","DelfiName":"-","THID":"-","LastOperationDate":"","SEV":"nein","longitude":"6,284344","latitude":"51,735361","geojson_lng":6.284344,"geojson_lat":51.735361},"geometry":{"type":"Point","coordinates":[6.284344,51.735361]}},{"type":"Feature","properties":{"SeqNo":"535817","Type":"S","DHID":"de:05154:35646","Parent":"de:05154:35646","Name":"Kalkar Altkalkarer Str.","MunicipalityCode":"05154024","Municipality":"Kalkar","DistrictCode":"","District":"","Description":"","Authority":"VRR","DelfiName":"-","THID":"D91422008B3E","LastOperationDate":"2025-06-14T00:00:00","SEV":"nein","longitude":"6,28898","latitude":"51,737414","geojson_lng":6.28898,"geojson_lat":51.737414},"geometry":{"type":"Point","coordinates":[6.28898,51.737414]}},{"type":"Feature","properties":{"SeqNo":"535818","Type":"A","DHID":"de:05154:35646:0","Parent":"de:05154:35646","Name":"Bus","MunicipalityCode":"00000000","Municipality":"-","DistrictCode":"-","District":"-","Description":"","Authority":"VRR","DelfiName":"-","THID":"-","LastOperationDate":"","SEV":"nein","longitude":"6,28906","latitude":"51,737464","geojson_lng":6.28906,"geojson_lat":51.737464},"geometry":{"type":"Point","coordinates":[6.28906,51.737464]}},{"type":"Feature","properties":{"SeqNo":"535819","Type":"Q","DHID":"de:05154:35646:0:1","Parent":"de:05154:35646:0","Name":"Kalkar Markt","MunicipalityCode":"00000000","Municipality":"-","DistrictCode":"-","District":"-","Description":"","Authority":"VRR","DelfiName":"-","THID":"-","LastOperationDate":"","SEV":"nein","longitude":"6,28889","latitude":"51,73733","geojson_lng":6.28889,"geojson_lat":51.73733},"geometry":{"type":"Point","coordinates":[6.28889,51.73733]}},{"type":"Feature","properties":{"SeqNo":"535820","Type":"Q","DHID":"de:05154:35646:0:2","Parent":"de:05154:35646:0","Name":"Lärchenstraße/ Hagedorn","MunicipalityCode":"00000000","Municipality":"-","DistrictCode":"-","District":"-","Description":"","Authority":"VRR","DelfiName":"-","THID":"-","LastOperationDate":"","SEV":"nein","longitude":"6,289168","latitude":"51,737514","geojson_lng":6.289168,"geojson_lat":51.737514},"geometry":{"type":"Point","coordinates":[6.289168,51.737514]}},{"type":"Feature","properties":{"SeqNo":"535827","Type":"S","DHID":"de:05154:35649","Parent":"de:05154:35649","Name":"Kalkar Markt","MunicipalityCode":"05154024","Municipality":"Kalkar","DistrictCode":"","District":"","Description":"","Authority":"VRR","DelfiName":"-","THID":"D91422008B41","LastOperationDate":"2025-06-14T00:00:00","SEV":"nein","longitude":"6,29224","latitude":"51,738426","geojson_lng":6.29224,"geojson_lat":51.738426},"geometry":{"type":"Point","coordinates":[6.29224,51.738426]}},{"type":"Feature","properties":{"SeqNo":"535828","Type":"Q","DHID":"de:05154:35649:0:1","Parent":"de:05154:35649","Name":"Schulzentrum/Am Bollwerk","MunicipalityCode":"00000000","Municipality":"-","DistrictCode":"-","District":"-","Description":"","Authority":"VRR","DelfiName":"-","THID":"-","LastOperationDate":"","SEV":"nein","longitude":"6,292249","latitude":"51,738354","geojson_lng":6.292249,"geojson_lat":51.738354},"geometry":{"type":"Point","coordinates":[6.292249,51.738354]}},{"type":"Feature","properties":{"SeqNo":"535829","Type":"Q","DHID":"de:05154:35649:0:2","Parent":"de:05154:35649","Name":"Bahnhofstraße","MunicipalityCode":"00000000","Municipality":"-","DistrictCode":"-","District":"-","Description":"","Authority":"VRR","DelfiName":"-","THID":"-","LastOperationDate":"","SEV":"nein","longitude":"6,292115","latitude":"51,738437","geojson_lng":6.292115,"geojson_lat":51.738437},"geometry":{"type":"Point","coordinates":[6.292115,51.738437]}},{"type":"Feature","properties":{"SeqNo":"536506","Type":"Q","DHID":"de:05154:35874:0:1","Parent":"de:05154:35874","Name":"Bahnhofstraße","MunicipalityCode":"00000000","Municipality":"-","DistrictCode":"-","District":"-","Description":"","Authority":"VRR","DelfiName":"-","THID":"-","LastOperationDate":"","SEV":"nein","longitude":"6,28553","latitude":"51,740707","geojson_lng":6.28553,"geojson_lat":51.740707},"geometry":{"type":"Point","coordinates":[6.28553,51.740707]}},{"type":"Feature","properties":{"SeqNo":"537487","Type":"S","DHID":"de:05154:37332","Parent":"de:05154:37332","Name":"Kalkar Fachmarktzentrum","MunicipalityCode":"05154024","Municipality":"Kalkar","DistrictCode":"-","District":"-","Description":"","Authority":"VRR","DelfiName":"-","THID":"D914220091D4","LastOperationDate":"2025-06-13T00:00:00","SEV":"nein","longitude":"6,288935","latitude":"51,73595","geojson_lng":6.288935,"geojson_lat":51.73595},"geometry":{"type":"Point","coordinates":[6.288935,51.73595]}},{"type":"Feature","properties":{"SeqNo":"537488","Type":"Q","DHID":"de:05154:37332:0:1","Parent":"de:05154:37332","Name":"1","MunicipalityCode":"00000000","Municipality":"-","DistrictCode":"-","District":"-","Description":"Am Bollwerk","Authority":"VRR","DelfiName":"-","THID":"-","LastOperationDate":"","SEV":"nein","longitude":"6,288683","latitude":"51,736045","geojson_lng":6.288683,"geojson_lat":51.736045},"geometry":{"type":"Point","coordinates":[6.288683,51.736045]}},{"type":"Feature","properties":{"SeqNo":"537489","Type":"Q","DHID":"de:05154:37332:0:2","Parent":"de:05154:37332","Name":"2","MunicipalityCode":"00000000","Municipality":"-","DistrictCode":"-","District":"-","Description":"Bahnhofstr.","Authority":"VRR","DelfiName":"-","THID":"-","LastOperationDate":"","SEV":"nein","longitude":"6,289096","latitude":"51,735923","geojson_lng":6.289096,"geojson_lat":51.735923},"geometry":{"type":"Point","coordinates":[6.289096,51.735923]}}]}