{"type":"FeatureCollection","features":[{"type":"Feature","properties":{"SeqNo":"20865","Type":"A","DHID":"de:08121:149:2","Parent":"de:08121:149","Name":"StadtAuswärts","MunicipalityCode":"00000000","Municipality":"-","DistrictCode":"-","District":"-","Description":"","Authority":"NVBW","DelfiName":"-","THID":"-","LastOperationDate":"","SEV":"nein","longitude":"9,21755","latitude":"49,123819","geojson_lng":9.21755,"geojson_lat":49.123819},"geometry":{"type":"Point","coordinates":[9.21755,49.123819]}},{"type":"Feature","properties":{"SeqNo":"20867","Type":"Q","DHID":"de:08121:149:2:2","Parent":"de:08121:149:2","Name":"Stadtauswärts","MunicipalityCode":"00000000","Municipality":"-","DistrictCode":"-","District":"-","Description":"","Authority":"NVBW","DelfiName":"-","THID":"-","LastOperationDate":"","SEV":"nein","longitude":"9,217362","latitude":"49,123554","geojson_lng":9.217362,"geojson_lat":49.123554},"geometry":{"type":"Point","coordinates":[9.217362,49.123554]}},{"type":"Feature","properties":{"SeqNo":"20969","Type":"S","DHID":"de:08121:1711","Parent":"de:08121:1711","Name":"Heilbronn IHK","MunicipalityCode":"08121000","Municipality":"Heilbronn","DistrictCode":"","District":"","Description":"","Authority":"NVBW","DelfiName":"-","THID":"D91FB90006AF","LastOperationDate":"2025-02-28T00:00:00","SEV":"nein","longitude":"9,219706","latitude":"49,121044","geojson_lng":9.219706,"geojson_lat":49.121044},"geometry":{"type":"Point","coordinates":[9.219706,49.121044]}},{"type":"Feature","properties":{"SeqNo":"20970","Type":"Q","DHID":"de:08121:1711:0:1","Parent":"de:08121:1711","Name":"Bus Ri. Donnbronn","MunicipalityCode":"00000000","Municipality":"-","DistrictCode":"-","District":"-","Description":"","Authority":"NVBW","DelfiName":"-","THID":"-","LastOperationDate":"","SEV":"nein","longitude":"9,220596","latitude":"49,12095","geojson_lng":9.220596,"geojson_lat":49.12095},"geometry":{"type":"Point","coordinates":[9.220596,49.12095]}},{"type":"Feature","properties":{"SeqNo":"20971","Type":"Q","DHID":"de:08121:1711:0:2","Parent":"de:08121:1711","Name":"Bus Ri. Schwabenhof","MunicipalityCode":"00000000","Municipality":"-","DistrictCode":"-","District":"-","Description":"","Authority":"NVBW","DelfiName":"-","THID":"-","LastOperationDate":"","SEV":"nein","longitude":"9,220605","latitude":"49,121061","geojson_lng":9.220605,"geojson_lat":49.121061},"geometry":{"type":"Point","coordinates":[9.220605,49.121061]}},{"type":"Feature","properties":{"SeqNo":"21129","Type":"S","DHID":"de:08121:203","Parent":"de:08121:203","Name":"Heilbronn H.-Hoover-Siedlung","MunicipalityCode":"08121000","Municipality":"Heilbronn","DistrictCode":"","District":"","Description":"","Authority":"NVBW","DelfiName":"-","THID":"D91FB90000CB","LastOperationDate":"2025-02-28T00:00:00","SEV":"nein","longitude":"9,227468","latitude":"49,123566","geojson_lng":9.227468,"geojson_lat":49.123566},"geometry":{"type":"Point","coordinates":[9.227468,49.123566]}},{"type":"Feature","properties":{"SeqNo":"21130","Type":"Q","DHID":"de:08121:203:0:3","Parent":"de:08121:203","Name":"Wender","MunicipalityCode":"00000000","Municipality":"-","DistrictCode":"-","District":"-","Description":"","Authority":"NVBW","DelfiName":"-","THID":"-","LastOperationDate":"","SEV":"nein","longitude":"9,227468","latitude":"49,123566","geojson_lng":9.227468,"geojson_lat":49.123566},"geometry":{"type":"Point","coordinates":[9.227468,49.123566]}},{"type":"Feature","properties":{"SeqNo":"21131","Type":"S","DHID":"de:08121:204","Parent":"de:08121:204","Name":"Heilbronn Hooverstraße","MunicipalityCode":"08121000","Municipality":"Heilbronn","DistrictCode":"","District":"","Description":"","Authority":"NVBW","DelfiName":"-","THID":"D91FB90000CC","LastOperationDate":"2025-02-28T00:00:00","SEV":"nein","longitude":"9,224647","latitude":"49,123936","geojson_lng":9.224647,"geojson_lat":49.123936},"geometry":{"type":"Point","coordinates":[9.224647,49.123936]}},{"type":"Feature","properties":{"SeqNo":"21132","Type":"Q","DHID":"de:08121:204:0:0","Parent":"de:08121:204","Name":"Stadtauswärts","MunicipalityCode":"00000000","Municipality":"-","DistrictCode":"-","District":"-","Description":"","Authority":"NVBW","DelfiName":"-","THID":"-","LastOperationDate":"","SEV":"nein","longitude":"9,224755","latitude":"49,123913","geojson_lng":9.224755,"geojson_lat":49.123913},"geometry":{"type":"Point","coordinates":[9.224755,49.123913]}},{"type":"Feature","properties":{"SeqNo":"21133","Type":"Q","DHID":"de:08121:204:0:1","Parent":"de:08121:204","Name":"Stadteinwärts","MunicipalityCode":"00000000","Municipality":"-","DistrictCode":"-","District":"-","Description":"","Authority":"NVBW","DelfiName":"-","THID":"-","LastOperationDate":"","SEV":"nein","longitude":"9,224647","latitude":"49,123936","geojson_lng":9.224647,"geojson_lat":49.123936},"geometry":{"type":"Point","coordinates":[9.224647,49.123936]}},{"type":"Feature","properties":{"SeqNo":"21134","Type":"Q","DHID":"de:08121:204:0:9","Parent":"de:08121:204","Name":"ohne Angabe","MunicipalityCode":"00000000","Municipality":"-","DistrictCode":"-","District":"-","Description":"","Authority":"NVBW","DelfiName":"-","THID":"-","LastOperationDate":"","SEV":"nein","longitude":"9,224934","latitude":"49,123883","geojson_lng":9.224934,"geojson_lat":49.123883},"geometry":{"type":"Point","coordinates":[9.224934,49.123883]}}]}