{"type":"FeatureCollection","features":[{"type":"Feature","properties":{"SeqNo":"174981","Type":"S","DHID":"de:09371:19000","Parent":"de:09371:19000","Name":"Neukirchen (b Sulzbach-Rosenberg)","MunicipalityCode":"09371141","Municipality":"Neukirchen b. Sulzbach-Rosenberg","DistrictCode":"","District":"","Description":"","Authority":"BEG","DelfiName":"-","THID":"D9249B004A38","LastOperationDate":"2025-06-14T00:00:00","SEV":"nein","longitude":"11,619538","latitude":"49,524324","geojson_lng":11.619538,"geojson_lat":49.524324},"geometry":{"type":"Point","coordinates":[11.619538,49.524324]}},{"type":"Feature","properties":{"SeqNo":"174982","Type":"A","DHID":"de:09371:19000:1","Parent":"de:09371:19000","Name":"Gleis 1","MunicipalityCode":"00000000","Municipality":"-","DistrictCode":"-","District":"-","Description":"","Authority":"BEG","DelfiName":"-","THID":"-","LastOperationDate":"","SEV":"nein","longitude":"11,620355","latitude":"49,524312","geojson_lng":11.620355,"geojson_lat":49.524312},"geometry":{"type":"Point","coordinates":[11.620355,49.524312]}},{"type":"Feature","properties":{"SeqNo":"174983","Type":"A","DHID":"de:09371:19000:2","Parent":"de:09371:19000","Name":"Gleis 2+3","MunicipalityCode":"00000000","Municipality":"-","DistrictCode":"-","District":"-","Description":"","Authority":"BEG","DelfiName":"-","THID":"-","LastOperationDate":"","SEV":"nein","longitude":"11,620337","latitude":"49,524341","geojson_lng":11.620337,"geojson_lat":49.524341},"geometry":{"type":"Point","coordinates":[11.620337,49.524341]}},{"type":"Feature","properties":{"SeqNo":"174984","Type":"A","DHID":"de:09371:19000:3","Parent":"de:09371:19000","Name":"Bus","MunicipalityCode":"00000000","Municipality":"-","DistrictCode":"-","District":"-","Description":"","Authority":"BEG","DelfiName":"-","THID":"-","LastOperationDate":"","SEV":"nein","longitude":"11,619214","latitude":"49,524563","geojson_lng":11.619214,"geojson_lat":49.524563},"geometry":{"type":"Point","coordinates":[11.619214,49.524563]}},{"type":"Feature","properties":{"SeqNo":"174985","Type":"A","DHID":"de:09371:19000:90","Parent":"de:09371:19000","Name":"Eingang Ost","MunicipalityCode":"00000000","Municipality":"-","DistrictCode":"-","District":"-","Description":"","Authority":"BEG","DelfiName":"-","THID":"-","LastOperationDate":"","SEV":"nein","longitude":"11,620562","latitude":"49,524411","geojson_lng":11.620562,"geojson_lat":49.524411},"geometry":{"type":"Point","coordinates":[11.620562,49.524411]}},{"type":"Feature","properties":{"SeqNo":"174986","Type":"Q","DHID":"de:09371:19000:1:1","Parent":"de:09371:19000:1","Name":"Gleis 1","MunicipalityCode":"00000000","Municipality":"-","DistrictCode":"-","District":"-","Description":"","Authority":"BEG","DelfiName":"-","THID":"-","LastOperationDate":"","SEV":"nein","longitude":"11,619735","latitude":"49,524394","geojson_lng":11.619735,"geojson_lat":49.524394},"geometry":{"type":"Point","coordinates":[11.619735,49.524394]}},{"type":"Feature","properties":{"SeqNo":"174987","Type":"Q","DHID":"de:09371:19000:2:2","Parent":"de:09371:19000:2","Name":"Gleis 2","MunicipalityCode":"00000000","Municipality":"-","DistrictCode":"-","District":"-","Description":"","Authority":"BEG","DelfiName":"-","THID":"-","LastOperationDate":"","SEV":"nein","longitude":"11,619726","latitude":"49,524335","geojson_lng":11.619726,"geojson_lat":49.524335},"geometry":{"type":"Point","coordinates":[11.619726,49.524335]}},{"type":"Feature","properties":{"SeqNo":"174988","Type":"Q","DHID":"de:09371:19000:2:3","Parent":"de:09371:19000:2","Name":"Gleis 3","MunicipalityCode":"00000000","Municipality":"-","DistrictCode":"-","District":"-","Description":"","Authority":"BEG","DelfiName":"-","THID":"-","LastOperationDate":"","SEV":"nein","longitude":"11,619699","latitude":"49,524259","geojson_lng":11.619699,"geojson_lat":49.524259},"geometry":{"type":"Point","coordinates":[11.619699,49.524259]}},{"type":"Feature","properties":{"SeqNo":"174989","Type":"Q","DHID":"de:09371:19000:3:1","Parent":"de:09371:19000:3","Name":"Bus 1","MunicipalityCode":"00000000","Municipality":"-","DistrictCode":"-","District":"-","Description":"","Authority":"BEG","DelfiName":"-","THID":"-","LastOperationDate":"","SEV":"nein","longitude":"11,619232","latitude":"49,524551","geojson_lng":11.619232,"geojson_lat":49.524551},"geometry":{"type":"Point","coordinates":[11.619232,49.524551]}},{"type":"Feature","properties":{"SeqNo":"174990","Type":"Q","DHID":"de:09371:19000:3:2","Parent":"de:09371:19000:3","Name":"Bus 2","MunicipalityCode":"00000000","Municipality":"-","DistrictCode":"-","District":"-","Description":"","Authority":"BEG","DelfiName":"-","THID":"-","LastOperationDate":"","SEV":"nein","longitude":"11,619214","latitude":"49,524551","geojson_lng":11.619214,"geojson_lat":49.524551},"geometry":{"type":"Point","coordinates":[11.619214,49.524551]}}]}