{"type":"FeatureCollection","features":[{"type":"Feature","properties":{"SeqNo":"99473","Type":"S","DHID":"de:09162:10010","Parent":"de:09162:10010","Name":"Münchner Linien Ost","MunicipalityCode":"09162000","Municipality":"München","DistrictCode":"","District":"","Description":"","Authority":"BEG","DelfiName":"-","THID":"D923CA00271A","LastOperationDate":"1999-12-31T00:00:00","SEV":"nein","longitude":"11,619942","latitude":"48,136808","geojson_lng":11.619942,"geojson_lat":48.136808},"geometry":{"type":"Point","coordinates":[11.619942,48.136808]}},{"type":"Feature","properties":{"SeqNo":"104864","Type":"S","DHID":"de:09162:20001","Parent":"de:09162:20001","Name":"Betriebshof Ost","MunicipalityCode":"09162000","Municipality":"München","DistrictCode":"","District":"","Description":"","Authority":"BEG","DelfiName":"-","THID":"D923CA004E21","LastOperationDate":"1999-12-31T00:00:00","SEV":"nein","longitude":"11,620696","latitude":"48,13676","geojson_lng":11.620696,"geojson_lat":48.13676},"geometry":{"type":"Point","coordinates":[11.620696,48.13676]}},{"type":"Feature","properties":{"SeqNo":"104865","Type":"Q","DHID":"de:09162:20001:0:(O) 1","Parent":"de:09162:20001","Name":"(O) 1","MunicipalityCode":"00000000","Municipality":"-","DistrictCode":"-","District":"-","Description":"","Authority":"BEG","DelfiName":"-","THID":"-","LastOperationDate":"","SEV":"nein","longitude":"11,620481","latitude":"48,13688","geojson_lng":11.620481,"geojson_lat":48.13688},"geometry":{"type":"Point","coordinates":[11.620481,48.13688]}},{"type":"Feature","properties":{"SeqNo":"104866","Type":"Q","DHID":"de:09162:20001:0:(O) 2","Parent":"de:09162:20001","Name":"(O) 2","MunicipalityCode":"00000000","Municipality":"-","DistrictCode":"-","District":"-","Description":"","Authority":"BEG","DelfiName":"-","THID":"-","LastOperationDate":"","SEV":"nein","longitude":"11,620553","latitude":"48,136856","geojson_lng":11.620553,"geojson_lat":48.136856},"geometry":{"type":"Point","coordinates":[11.620553,48.136856]}},{"type":"Feature","properties":{"SeqNo":"108172","Type":"A","DHID":"de:09162:612:90","Parent":"de:09162:612","Name":"Vw O Fahrerraum","MunicipalityCode":"00000000","Municipality":"-","DistrictCode":"-","District":"-","Description":"","Authority":"BEG","DelfiName":"-","THID":"-","LastOperationDate":"","SEV":"nein","longitude":"11,62075","latitude":"48,136784","geojson_lng":11.62075,"geojson_lat":48.136784},"geometry":{"type":"Point","coordinates":[11.62075,48.136784]}},{"type":"Feature","properties":{"SeqNo":"108173","Type":"A","DHID":"de:09162:612:91","Parent":"de:09162:612","Name":"KT Fahrerraum","MunicipalityCode":"00000000","Municipality":"-","DistrictCode":"-","District":"-","Description":"","Authority":"BEG","DelfiName":"-","THID":"-","LastOperationDate":"","SEV":"nein","longitude":"11,62075","latitude":"48,136784","geojson_lng":11.62075,"geojson_lat":48.136784},"geometry":{"type":"Point","coordinates":[11.62075,48.136784]}},{"type":"Feature","properties":{"SeqNo":"108384","Type":"S","DHID":"de:09162:646","Parent":"de:09162:646","Name":"Riedenburger Straße","MunicipalityCode":"09162000","Municipality":"München","DistrictCode":"","District":"","Description":"","Authority":"BEG","DelfiName":"-","THID":"D923CA000286","LastOperationDate":"2025-06-14T00:00:00","SEV":"nein","longitude":"11,623706","latitude":"48,13598","geojson_lng":11.623706,"geojson_lat":48.13598},"geometry":{"type":"Point","coordinates":[11.623706,48.13598]}},{"type":"Feature","properties":{"SeqNo":"108508","Type":"S","DHID":"de:09162:662","Parent":"de:09162:662","Name":"Einsteinstraße","MunicipalityCode":"09162000","Municipality":"München","DistrictCode":"","District":"","Description":"","Authority":"BEG","DelfiName":"-","THID":"D923CA000296","LastOperationDate":"2025-06-14T00:00:00","SEV":"nein","longitude":"11,614678","latitude":"48,136874","geojson_lng":11.614678,"geojson_lat":48.136874},"geometry":{"type":"Point","coordinates":[11.614678,48.136874]}},{"type":"Feature","properties":{"SeqNo":"108509","Type":"A","DHID":"de:09162:662:2","Parent":"de:09162:662","Name":"Steig 1+2","MunicipalityCode":"00000000","Municipality":"-","DistrictCode":"-","District":"-","Description":"","Authority":"BEG","DelfiName":"-","THID":"-","LastOperationDate":"","SEV":"nein","longitude":"11,614193","latitude":"48,136832","geojson_lng":11.614193,"geojson_lat":48.136832},"geometry":{"type":"Point","coordinates":[11.614193,48.136832]}},{"type":"Feature","properties":{"SeqNo":"108511","Type":"A","DHID":"de:09162:662:22","Parent":"de:09162:662","Name":"102 Leuchtenb Süd","MunicipalityCode":"00000000","Municipality":"-","DistrictCode":"-","District":"-","Description":"","Authority":"BEG","DelfiName":"-","THID":"-","LastOperationDate":"","SEV":"nein","longitude":"11,614633","latitude":"48,136676","geojson_lng":11.614633,"geojson_lat":48.136676},"geometry":{"type":"Point","coordinates":[11.614633,48.136676]}},{"type":"Feature","properties":{"SeqNo":"108512","Type":"A","DHID":"de:09162:662:3","Parent":"de:09162:662","Name":"Steig 3","MunicipalityCode":"00000000","Municipality":"-","DistrictCode":"-","District":"-","Description":"","Authority":"BEG","DelfiName":"-","THID":"-","LastOperationDate":"","SEV":"nein","longitude":"11,614767","latitude":"48,13646","geojson_lng":11.614767,"geojson_lat":48.13646},"geometry":{"type":"Point","coordinates":[11.614767,48.13646]}},{"type":"Feature","properties":{"SeqNo":"108514","Type":"A","DHID":"de:09162:662:32","Parent":"de:09162:662","Name":"Steig 72","MunicipalityCode":"00000000","Municipality":"-","DistrictCode":"-","District":"-","Description":"","Authority":"BEG","DelfiName":"-","THID":"-","LastOperationDate":"","SEV":"nein","longitude":"11,61563","latitude":"48,13679","geojson_lng":11.61563,"geojson_lat":48.13679},"geometry":{"type":"Point","coordinates":[11.61563,48.13679]}},{"type":"Feature","properties":{"SeqNo":"108516","Type":"A","DHID":"de:09162:662:99","Parent":"de:09162:662","Name":"Veraltet","MunicipalityCode":"00000000","Municipality":"-","DistrictCode":"-","District":"-","Description":"","Authority":"BEG","DelfiName":"-","THID":"-","LastOperationDate":"","SEV":"nein","longitude":"11,61536","latitude":"48,135992","geojson_lng":11.61536,"geojson_lat":48.135992},"geometry":{"type":"Point","coordinates":[11.61536,48.135992]}},{"type":"Feature","properties":{"SeqNo":"108517","Type":"Q","DHID":"de:09162:662:2:1","Parent":"de:09162:662:2","Name":"1","MunicipalityCode":"00000000","Municipality":"-","DistrictCode":"-","District":"-","Description":"","Authority":"BEG","DelfiName":"-","THID":"-","LastOperationDate":"","SEV":"nein","longitude":"11,614004","latitude":"48,136856","geojson_lng":11.614004,"geojson_lat":48.136856},"geometry":{"type":"Point","coordinates":[11.614004,48.136856]}},{"type":"Feature","properties":{"SeqNo":"108518","Type":"Q","DHID":"de:09162:662:2:2","Parent":"de:09162:662:2","Name":"2","MunicipalityCode":"00000000","Municipality":"-","DistrictCode":"-","District":"-","Description":"","Authority":"BEG","DelfiName":"-","THID":"-","LastOperationDate":"","SEV":"nein","longitude":"11,61439","latitude":"48,136808","geojson_lng":11.61439,"geojson_lat":48.136808},"geometry":{"type":"Point","coordinates":[11.61439,48.136808]}},{"type":"Feature","properties":{"SeqNo":"108519","Type":"Q","DHID":"de:09162:662:3:3","Parent":"de:09162:662:3","Name":"3","MunicipalityCode":"00000000","Municipality":"-","DistrictCode":"-","District":"-","Description":"","Authority":"BEG","DelfiName":"-","THID":"-","LastOperationDate":"","SEV":"nein","longitude":"11,614767","latitude":"48,13646","geojson_lng":11.614767,"geojson_lat":48.13646},"geometry":{"type":"Point","coordinates":[11.614767,48.13646]}},{"type":"Feature","properties":{"SeqNo":"108521","Type":"Q","DHID":"de:09162:662:32:72","Parent":"de:09162:662:32","Name":"72","MunicipalityCode":"00000000","Municipality":"-","DistrictCode":"-","District":"-","Description":"","Authority":"BEG","DelfiName":"-","THID":"-","LastOperationDate":"","SEV":"nein","longitude":"11,61563","latitude":"48,136808","geojson_lng":11.61563,"geojson_lat":48.136808},"geometry":{"type":"Point","coordinates":[11.61563,48.136808]}},{"type":"Feature","properties":{"SeqNo":"108523","Type":"Q","DHID":"de:09162:662:99:4","Parent":"de:09162:662:99","Name":"Veraltet, ungültig gesetzt","MunicipalityCode":"00000000","Municipality":"-","DistrictCode":"-","District":"-","Description":"","Authority":"BEG","DelfiName":"-","THID":"-","LastOperationDate":"","SEV":"nein","longitude":"11,61536","latitude":"48,135992","geojson_lng":11.61536,"geojson_lat":48.135992},"geometry":{"type":"Point","coordinates":[11.61536,48.135992]}},{"type":"Feature","properties":{"SeqNo":"108524","Type":"Q","DHID":"de:09162:662:99:5","Parent":"de:09162:662:99","Name":"5","MunicipalityCode":"00000000","Municipality":"-","DistrictCode":"-","District":"-","Description":"","Authority":"BEG","DelfiName":"-","THID":"-","LastOperationDate":"","SEV":"nein","longitude":"11,614678","latitude":"48,136874","geojson_lng":11.614678,"geojson_lat":48.136874},"geometry":{"type":"Point","coordinates":[11.614678,48.136874]}},{"type":"Feature","properties":{"SeqNo":"109648","Type":"S","DHID":"de:09162:900","Parent":"de:09162:900","Name":"Leuchtenbergring","MunicipalityCode":"09162000","Municipality":"München","DistrictCode":"","District":"","Description":"","Authority":"BEG","DelfiName":"-","THID":"D923CA000384","LastOperationDate":"2025-02-28T00:00:00","SEV":"nein","longitude":"11,615944","latitude":"48,134266","geojson_lng":11.615944,"geojson_lat":48.134266},"geometry":{"type":"Point","coordinates":[11.615944,48.134266]}},{"type":"Feature","properties":{"SeqNo":"109649","Type":"A","DHID":"de:09162:900:41","Parent":"de:09162:900","Name":"Gleis 1+2","MunicipalityCode":"00000000","Municipality":"-","DistrictCode":"-","District":"-","Description":"","Authority":"BEG","DelfiName":"-","THID":"-","LastOperationDate":"","SEV":"nein","longitude":"11,616609","latitude":"48,13447","geojson_lng":11.616609,"geojson_lat":48.13447},"geometry":{"type":"Point","coordinates":[11.616609,48.13447]}},{"type":"Feature","properties":{"SeqNo":"109650","Type":"A","DHID":"de:09162:900:43","Parent":"de:09162:900","Name":"Gleis 3+4","MunicipalityCode":"00000000","Municipality":"-","DistrictCode":"-","District":"-","Description":"","Authority":"BEG","DelfiName":"-","THID":"-","LastOperationDate":"","SEV":"nein","longitude":"11,615342","latitude":"48,134038","geojson_lng":11.615342,"geojson_lat":48.134038},"geometry":{"type":"Point","coordinates":[11.615342,48.134038]}},{"type":"Feature","properties":{"SeqNo":"109651","Type":"A","DHID":"de:09162:900:61","Parent":"de:09162:900","Name":"Zugang Nord 81+82","MunicipalityCode":"00000000","Municipality":"-","DistrictCode":"-","District":"-","Description":"","Authority":"BEG","DelfiName":"-","THID":"-","LastOperationDate":"","SEV":"nein","longitude":"11,616196","latitude":"48,134392","geojson_lng":11.616196,"geojson_lat":48.134392},"geometry":{"type":"Point","coordinates":[11.616196,48.134392]}},{"type":"Feature","properties":{"SeqNo":"109652","Type":"A","DHID":"de:09162:900:62","Parent":"de:09162:900","Name":"Zugang West 81+82","MunicipalityCode":"00000000","Municipality":"-","DistrictCode":"-","District":"-","Description":"","Authority":"BEG","DelfiName":"-","THID":"-","LastOperationDate":"","SEV":"nein","longitude":"11,615836","latitude":"48,13432","geojson_lng":11.615836,"geojson_lat":48.13432},"geometry":{"type":"Point","coordinates":[11.615836,48.13432]}},{"type":"Feature","properties":{"SeqNo":"109653","Type":"A","DHID":"de:09162:900:63","Parent":"de:09162:900","Name":"Zugang Sperre Ost","MunicipalityCode":"00000000","Municipality":"-","DistrictCode":"-","District":"-","Description":"","Authority":"BEG","DelfiName":"-","THID":"-","LastOperationDate":"","SEV":"nein","longitude":"11,616277","latitude":"48,134218","geojson_lng":11.616277,"geojson_lat":48.134218},"geometry":{"type":"Point","coordinates":[11.616277,48.134218]}},{"type":"Feature","properties":{"SeqNo":"109654","Type":"A","DHID":"de:09162:900:64","Parent":"de:09162:900","Name":"Zugang Sperre Wes","MunicipalityCode":"00000000","Municipality":"-","DistrictCode":"-","District":"-","Description":"","Authority":"BEG","DelfiName":"-","THID":"-","LastOperationDate":"","SEV":"nein","longitude":"11,615926","latitude":"48,13414","geojson_lng":11.615926,"geojson_lat":48.13414},"geometry":{"type":"Point","coordinates":[11.615926,48.13414]}},{"type":"Feature","properties":{"SeqNo":"109655","Type":"A","DHID":"de:09162:900:81","Parent":"de:09162:900","Name":"Sperre Gl. 83+84","MunicipalityCode":"00000000","Municipality":"-","DistrictCode":"-","District":"-","Description":"","Authority":"BEG","DelfiName":"-","THID":"-","LastOperationDate":"","SEV":"nein","longitude":"11,616061","latitude":"48,134212","geojson_lng":11.616061,"geojson_lat":48.134212},"geometry":{"type":"Point","coordinates":[11.616061,48.134212]}},{"type":"Feature","properties":{"SeqNo":"109656","Type":"Q","DHID":"de:09162:900:41:81","Parent":"de:09162:900:41","Name":"Gleis 1","MunicipalityCode":"00000000","Municipality":"-","DistrictCode":"-","District":"-","Description":"","Authority":"BEG","DelfiName":"-","THID":"-","LastOperationDate":"","SEV":"nein","longitude":"11,616663","latitude":"48,134523","geojson_lng":11.616663,"geojson_lat":48.134523},"geometry":{"type":"Point","coordinates":[11.616663,48.134523]}},{"type":"Feature","properties":{"SeqNo":"109657","Type":"Q","DHID":"de:09162:900:41:82","Parent":"de:09162:900:41","Name":"Gleis 2","MunicipalityCode":"00000000","Municipality":"-","DistrictCode":"-","District":"-","Description":"","Authority":"BEG","DelfiName":"-","THID":"-","LastOperationDate":"","SEV":"nein","longitude":"11,616708","latitude":"48,134434","geojson_lng":11.616708,"geojson_lat":48.134434},"geometry":{"type":"Point","coordinates":[11.616708,48.134434]}},{"type":"Feature","properties":{"SeqNo":"109658","Type":"Q","DHID":"de:09162:900:43:83","Parent":"de:09162:900:43","Name":"Gleis 3","MunicipalityCode":"00000000","Municipality":"-","DistrictCode":"-","District":"-","Description":"","Authority":"BEG","DelfiName":"-","THID":"-","LastOperationDate":"","SEV":"nein","longitude":"11,615244","latitude":"48,134074","geojson_lng":11.615244,"geojson_lat":48.134074},"geometry":{"type":"Point","coordinates":[11.615244,48.134074]}},{"type":"Feature","properties":{"SeqNo":"109659","Type":"Q","DHID":"de:09162:900:43:84","Parent":"de:09162:900:43","Name":"Gleis 4","MunicipalityCode":"00000000","Municipality":"-","DistrictCode":"-","District":"-","Description":"","Authority":"BEG","DelfiName":"-","THID":"-","LastOperationDate":"","SEV":"nein","longitude":"11,615297","latitude":"48,133972","geojson_lng":11.615297,"geojson_lat":48.133972},"geometry":{"type":"Point","coordinates":[11.615297,48.133972]}},{"type":"Feature","properties":{"SeqNo":"109663","Type":"S","DHID":"de:09162:9002","Parent":"de:09162:9002","Name":"Betriebshof (2)","MunicipalityCode":"09162000","Municipality":"München","DistrictCode":"","District":"","Description":"","Authority":"BEG","DelfiName":"-","THID":"D923CA00232A","LastOperationDate":"1999-12-31T00:00:00","SEV":"nein","longitude":"11,617301","latitude":"48,136508","geojson_lng":11.617301,"geojson_lat":48.136508},"geometry":{"type":"Point","coordinates":[11.617301,48.136508]}},{"type":"Feature","properties":{"SeqNo":"109664","Type":"S","DHID":"de:09162:901","Parent":"de:09162:901","Name":"Ampfingstraße","MunicipalityCode":"09162000","Municipality":"München","DistrictCode":"","District":"","Description":"","Authority":"BEG","DelfiName":"-","THID":"D923CA000385","LastOperationDate":"2025-06-14T00:00:00","SEV":"nein","longitude":"11,615711","latitude":"48,130974","geojson_lng":11.615711,"geojson_lat":48.130974},"geometry":{"type":"Point","coordinates":[11.615711,48.130974]}},{"type":"Feature","properties":{"SeqNo":"109665","Type":"A","DHID":"de:09162:901:1","Parent":"de:09162:901","Name":"Steig 1","MunicipalityCode":"00000000","Municipality":"-","DistrictCode":"-","District":"-","Description":"","Authority":"BEG","DelfiName":"-","THID":"-","LastOperationDate":"","SEV":"nein","longitude":"11,616429","latitude":"48,130818","geojson_lng":11.616429,"geojson_lat":48.130818},"geometry":{"type":"Point","coordinates":[11.616429,48.130818]}},{"type":"Feature","properties":{"SeqNo":"109666","Type":"A","DHID":"de:09162:901:2","Parent":"de:09162:901","Name":"Steig 2","MunicipalityCode":"00000000","Municipality":"-","DistrictCode":"-","District":"-","Description":"","Authority":"BEG","DelfiName":"-","THID":"-","LastOperationDate":"","SEV":"nein","longitude":"11,615253","latitude":"48,131082","geojson_lng":11.615253,"geojson_lat":48.131082},"geometry":{"type":"Point","coordinates":[11.615253,48.131082]}},{"type":"Feature","properties":{"SeqNo":"109667","Type":"A","DHID":"de:09162:901:21","Parent":"de:09162:901","Name":"Zugang Süd 101","MunicipalityCode":"00000000","Municipality":"-","DistrictCode":"-","District":"-","Description":"","Authority":"BEG","DelfiName":"-","THID":"-","LastOperationDate":"","SEV":"nein","longitude":"11,615971","latitude":"48,130758","geojson_lng":11.615971,"geojson_lat":48.130758},"geometry":{"type":"Point","coordinates":[11.615971,48.130758]}},{"type":"Feature","properties":{"SeqNo":"109668","Type":"A","DHID":"de:09162:901:22","Parent":"de:09162:901","Name":"Zugang Nord 102","MunicipalityCode":"00000000","Municipality":"-","DistrictCode":"-","District":"-","Description":"","Authority":"BEG","DelfiName":"-","THID":"-","LastOperationDate":"","SEV":"nein","longitude":"11,615468","latitude":"48,131148","geojson_lng":11.615468,"geojson_lat":48.131148},"geometry":{"type":"Point","coordinates":[11.615468,48.131148]}},{"type":"Feature","properties":{"SeqNo":"109669","Type":"A","DHID":"de:09162:901:23","Parent":"de:09162:901","Name":"Zugang Ost 103","MunicipalityCode":"00000000","Municipality":"-","DistrictCode":"-","District":"-","Description":"","Authority":"BEG","DelfiName":"-","THID":"-","LastOperationDate":"","SEV":"nein","longitude":"11,61607","latitude":"48,131046","geojson_lng":11.61607,"geojson_lat":48.131046},"geometry":{"type":"Point","coordinates":[11.61607,48.131046]}},{"type":"Feature","properties":{"SeqNo":"109670","Type":"A","DHID":"de:09162:901:24","Parent":"de:09162:901","Name":"Zugang West 104","MunicipalityCode":"00000000","Municipality":"-","DistrictCode":"-","District":"-","Description":"","Authority":"BEG","DelfiName":"-","THID":"-","LastOperationDate":"","SEV":"nein","longitude":"11,615378","latitude":"48,130866","geojson_lng":11.615378,"geojson_lat":48.130866},"geometry":{"type":"Point","coordinates":[11.615378,48.130866]}},{"type":"Feature","properties":{"SeqNo":"109671","Type":"A","DHID":"de:09162:901:3","Parent":"de:09162:901","Name":"Steig 3","MunicipalityCode":"00000000","Municipality":"-","DistrictCode":"-","District":"-","Description":"","Authority":"BEG","DelfiName":"-","THID":"-","LastOperationDate":"","SEV":"nein","longitude":"11,615235","latitude":"48,130399","geojson_lng":11.615235,"geojson_lat":48.130399},"geometry":{"type":"Point","coordinates":[11.615235,48.130399]}},{"type":"Feature","properties":{"SeqNo":"109672","Type":"A","DHID":"de:09162:901:31","Parent":"de:09162:901","Name":"Steig 21","MunicipalityCode":"00000000","Municipality":"-","DistrictCode":"-","District":"-","Description":"","Authority":"BEG","DelfiName":"-","THID":"-","LastOperationDate":"","SEV":"nein","longitude":"11,616375","latitude":"48,130716","geojson_lng":11.616375,"geojson_lat":48.130716},"geometry":{"type":"Point","coordinates":[11.616375,48.130716]}},{"type":"Feature","properties":{"SeqNo":"109673","Type":"A","DHID":"de:09162:901:32","Parent":"de:09162:901","Name":"Steig 22","MunicipalityCode":"00000000","Municipality":"-","DistrictCode":"-","District":"-","Description":"","Authority":"BEG","DelfiName":"-","THID":"-","LastOperationDate":"","SEV":"nein","longitude":"11,615271","latitude":"48,13119","geojson_lng":11.615271,"geojson_lat":48.13119},"geometry":{"type":"Point","coordinates":[11.615271,48.13119]}},{"type":"Feature","properties":{"SeqNo":"109674","Type":"A","DHID":"de:09162:901:4","Parent":"de:09162:901","Name":"Steig 4","MunicipalityCode":"00000000","Municipality":"-","DistrictCode":"-","District":"-","Description":"","Authority":"BEG","DelfiName":"-","THID":"-","LastOperationDate":"","SEV":"nein","longitude":"11,61563","latitude":"48,130141","geojson_lng":11.61563,"geojson_lat":48.130141},"geometry":{"type":"Point","coordinates":[11.61563,48.130141]}},{"type":"Feature","properties":{"SeqNo":"109675","Type":"Q","DHID":"de:09162:901:1:1","Parent":"de:09162:901:1","Name":"1","MunicipalityCode":"00000000","Municipality":"-","DistrictCode":"-","District":"-","Description":"","Authority":"BEG","DelfiName":"-","THID":"-","LastOperationDate":"","SEV":"nein","longitude":"11,616429","latitude":"48,130818","geojson_lng":11.616429,"geojson_lat":48.130818},"geometry":{"type":"Point","coordinates":[11.616429,48.130818]}},{"type":"Feature","properties":{"SeqNo":"109676","Type":"Q","DHID":"de:09162:901:2:2","Parent":"de:09162:901:2","Name":"2","MunicipalityCode":"00000000","Municipality":"-","DistrictCode":"-","District":"-","Description":"","Authority":"BEG","DelfiName":"-","THID":"-","LastOperationDate":"","SEV":"nein","longitude":"11,615253","latitude":"48,131082","geojson_lng":11.615253,"geojson_lat":48.131082},"geometry":{"type":"Point","coordinates":[11.615253,48.131082]}},{"type":"Feature","properties":{"SeqNo":"109677","Type":"Q","DHID":"de:09162:901:3:3","Parent":"de:09162:901:3","Name":"3","MunicipalityCode":"00000000","Municipality":"-","DistrictCode":"-","District":"-","Description":"","Authority":"BEG","DelfiName":"-","THID":"-","LastOperationDate":"","SEV":"nein","longitude":"11,615235","latitude":"48,130399","geojson_lng":11.615235,"geojson_lat":48.130399},"geometry":{"type":"Point","coordinates":[11.615235,48.130399]}},{"type":"Feature","properties":{"SeqNo":"109678","Type":"Q","DHID":"de:09162:901:31:21","Parent":"de:09162:901:31","Name":"21","MunicipalityCode":"00000000","Municipality":"-","DistrictCode":"-","District":"-","Description":"","Authority":"BEG","DelfiName":"-","THID":"-","LastOperationDate":"","SEV":"nein","longitude":"11,616375","latitude":"48,130716","geojson_lng":11.616375,"geojson_lat":48.130716},"geometry":{"type":"Point","coordinates":[11.616375,48.130716]}},{"type":"Feature","properties":{"SeqNo":"109679","Type":"Q","DHID":"de:09162:901:32:22","Parent":"de:09162:901:32","Name":"22","MunicipalityCode":"00000000","Municipality":"-","DistrictCode":"-","District":"-","Description":"","Authority":"BEG","DelfiName":"-","THID":"-","LastOperationDate":"","SEV":"nein","longitude":"11,615271","latitude":"48,13119","geojson_lng":11.615271,"geojson_lat":48.13119},"geometry":{"type":"Point","coordinates":[11.615271,48.13119]}},{"type":"Feature","properties":{"SeqNo":"109680","Type":"Q","DHID":"de:09162:901:4:4","Parent":"de:09162:901:4","Name":"4","MunicipalityCode":"00000000","Municipality":"-","DistrictCode":"-","District":"-","Description":"","Authority":"BEG","DelfiName":"-","THID":"-","LastOperationDate":"","SEV":"nein","longitude":"11,61563","latitude":"48,130141","geojson_lng":11.61563,"geojson_lat":48.130141},"geometry":{"type":"Point","coordinates":[11.61563,48.130141]}},{"type":"Feature","properties":{"SeqNo":"109686","Type":"S","DHID":"de:09162:902","Parent":"de:09162:902","Name":"Schlüsselbergstraße","MunicipalityCode":"09162000","Municipality":"München","DistrictCode":"","District":"","Description":"","Authority":"BEG","DelfiName":"-","THID":"D923CA000386","LastOperationDate":"2025-06-14T00:00:00","SEV":"nein","longitude":"11,623041","latitude":"48,129721","geojson_lng":11.623041,"geojson_lat":48.129721},"geometry":{"type":"Point","coordinates":[11.623041,48.129721]}},{"type":"Feature","properties":{"SeqNo":"109687","Type":"A","DHID":"de:09162:902:1","Parent":"de:09162:902","Name":"Steig 1","MunicipalityCode":"00000000","Municipality":"-","DistrictCode":"-","District":"-","Description":"","Authority":"BEG","DelfiName":"-","THID":"-","LastOperationDate":"","SEV":"nein","longitude":"11,622385","latitude":"48,129871","geojson_lng":11.622385,"geojson_lat":48.129871},"geometry":{"type":"Point","coordinates":[11.622385,48.129871]}},{"type":"Feature","properties":{"SeqNo":"109688","Type":"A","DHID":"de:09162:902:2","Parent":"de:09162:902","Name":"Steig 2","MunicipalityCode":"00000000","Municipality":"-","DistrictCode":"-","District":"-","Description":"","Authority":"BEG","DelfiName":"-","THID":"-","LastOperationDate":"","SEV":"nein","longitude":"11,623382","latitude":"48,129631","geojson_lng":11.623382,"geojson_lat":48.129631},"geometry":{"type":"Point","coordinates":[11.623382,48.129631]}},{"type":"Feature","properties":{"SeqNo":"109689","Type":"A","DHID":"de:09162:902:21","Parent":"de:09162:902","Name":"Zu Weihenst West","MunicipalityCode":"00000000","Municipality":"-","DistrictCode":"-","District":"-","Description":"","Authority":"BEG","DelfiName":"-","THID":"-","LastOperationDate":"","SEV":"nein","longitude":"11,622682","latitude":"48,129919","geojson_lng":11.622682,"geojson_lat":48.129919},"geometry":{"type":"Point","coordinates":[11.622682,48.129919]}},{"type":"Feature","properties":{"SeqNo":"109690","Type":"A","DHID":"de:09162:902:22","Parent":"de:09162:902","Name":"Zu Weihenst Ost","MunicipalityCode":"00000000","Municipality":"-","DistrictCode":"-","District":"-","Description":"","Authority":"BEG","DelfiName":"-","THID":"-","LastOperationDate":"","SEV":"nein","longitude":"11,623122","latitude":"48,129847","geojson_lng":11.623122,"geojson_lat":48.129847},"geometry":{"type":"Point","coordinates":[11.623122,48.129847]}},{"type":"Feature","properties":{"SeqNo":"109691","Type":"A","DHID":"de:09162:902:23","Parent":"de:09162:902","Name":"Zu Schlüssel West","MunicipalityCode":"00000000","Municipality":"-","DistrictCode":"-","District":"-","Description":"","Authority":"BEG","DelfiName":"-","THID":"-","LastOperationDate":"","SEV":"nein","longitude":"11,622574","latitude":"48,129649","geojson_lng":11.622574,"geojson_lat":48.129649},"geometry":{"type":"Point","coordinates":[11.622574,48.129649]}},{"type":"Feature","properties":{"SeqNo":"109692","Type":"A","DHID":"de:09162:902:24","Parent":"de:09162:902","Name":"Zu Schlüssel Ost","MunicipalityCode":"00000000","Municipality":"-","DistrictCode":"-","District":"-","Description":"","Authority":"BEG","DelfiName":"-","THID":"-","LastOperationDate":"","SEV":"nein","longitude":"11,623032","latitude":"48,129577","geojson_lng":11.623032,"geojson_lat":48.129577},"geometry":{"type":"Point","coordinates":[11.623032,48.129577]}},{"type":"Feature","properties":{"SeqNo":"109693","Type":"A","DHID":"de:09162:902:3","Parent":"de:09162:902","Name":"Steig 3+4","MunicipalityCode":"00000000","Municipality":"-","DistrictCode":"-","District":"-","Description":"","Authority":"BEG","DelfiName":"-","THID":"-","LastOperationDate":"","SEV":"nein","longitude":"11,62296","latitude":"48,130039","geojson_lng":11.62296,"geojson_lat":48.130039},"geometry":{"type":"Point","coordinates":[11.62296,48.130039]}},{"type":"Feature","properties":{"SeqNo":"109694","Type":"A","DHID":"de:09162:902:30","Parent":"de:09162:902","Name":"Steig 70","MunicipalityCode":"00000000","Municipality":"-","DistrictCode":"-","District":"-","Description":"","Authority":"BEG","DelfiName":"-","THID":"-","LastOperationDate":"","SEV":"nein","longitude":"11,623472","latitude":"48,129793","geojson_lng":11.623472,"geojson_lat":48.129793},"geometry":{"type":"Point","coordinates":[11.623472,48.129793]}},{"type":"Feature","properties":{"SeqNo":"109695","Type":"A","DHID":"de:09162:902:31","Parent":"de:09162:902","Name":"Steig 21","MunicipalityCode":"00000000","Municipality":"-","DistrictCode":"-","District":"-","Description":"","Authority":"BEG","DelfiName":"-","THID":"-","LastOperationDate":"","SEV":"nein","longitude":"11,62252","latitude":"48,129943","geojson_lng":11.62252,"geojson_lat":48.129943},"geometry":{"type":"Point","coordinates":[11.62252,48.129943]}},{"type":"Feature","properties":{"SeqNo":"109696","Type":"A","DHID":"de:09162:902:32","Parent":"de:09162:902","Name":"Steig 22","MunicipalityCode":"00000000","Municipality":"-","DistrictCode":"-","District":"-","Description":"","Authority":"BEG","DelfiName":"-","THID":"-","LastOperationDate":"","SEV":"nein","longitude":"11,623337","latitude":"48,129541","geojson_lng":11.623337,"geojson_lat":48.129541},"geometry":{"type":"Point","coordinates":[11.623337,48.129541]}},{"type":"Feature","properties":{"SeqNo":"109697","Type":"A","DHID":"de:09162:902:73","Parent":"de:09162:902","Name":"Steig 73","MunicipalityCode":"00000000","Municipality":"-","DistrictCode":"-","District":"-","Description":"","Authority":"BEG","DelfiName":"-","THID":"-","LastOperationDate":"","SEV":"nein","longitude":"11,622879","latitude":"48,129469","geojson_lng":11.622879,"geojson_lat":48.129469},"geometry":{"type":"Point","coordinates":[11.622879,48.129469]}},{"type":"Feature","properties":{"SeqNo":"109698","Type":"A","DHID":"de:09162:902:74","Parent":"de:09162:902","Name":"Steig 74","MunicipalityCode":"00000000","Municipality":"-","DistrictCode":"-","District":"-","Description":"","Authority":"BEG","DelfiName":"-","THID":"-","LastOperationDate":"","SEV":"nein","longitude":"11,622601","latitude":"48,129433","geojson_lng":11.622601,"geojson_lat":48.129433},"geometry":{"type":"Point","coordinates":[11.622601,48.129433]}},{"type":"Feature","properties":{"SeqNo":"109699","Type":"Q","DHID":"de:09162:902:1:1","Parent":"de:09162:902:1","Name":"1","MunicipalityCode":"00000000","Municipality":"-","DistrictCode":"-","District":"-","Description":"","Authority":"BEG","DelfiName":"-","THID":"-","LastOperationDate":"","SEV":"nein","longitude":"11,622385","latitude":"48,129871","geojson_lng":11.622385,"geojson_lat":48.129871},"geometry":{"type":"Point","coordinates":[11.622385,48.129871]}},{"type":"Feature","properties":{"SeqNo":"109700","Type":"Q","DHID":"de:09162:902:2:2","Parent":"de:09162:902:2","Name":"2","MunicipalityCode":"00000000","Municipality":"-","DistrictCode":"-","District":"-","Description":"","Authority":"BEG","DelfiName":"-","THID":"-","LastOperationDate":"","SEV":"nein","longitude":"11,623382","latitude":"48,129631","geojson_lng":11.623382,"geojson_lat":48.129631},"geometry":{"type":"Point","coordinates":[11.623382,48.129631]}},{"type":"Feature","properties":{"SeqNo":"109701","Type":"Q","DHID":"de:09162:902:3:3","Parent":"de:09162:902:3","Name":"3","MunicipalityCode":"00000000","Municipality":"-","DistrictCode":"-","District":"-","Description":"","Authority":"BEG","DelfiName":"-","THID":"-","LastOperationDate":"","SEV":"nein","longitude":"11,62305","latitude":"48,130099","geojson_lng":11.62305,"geojson_lat":48.130099},"geometry":{"type":"Point","coordinates":[11.62305,48.130099]}},{"type":"Feature","properties":{"SeqNo":"109702","Type":"Q","DHID":"de:09162:902:3:4","Parent":"de:09162:902:3","Name":"4","MunicipalityCode":"00000000","Municipality":"-","DistrictCode":"-","District":"-","Description":"","Authority":"BEG","DelfiName":"-","THID":"-","LastOperationDate":"","SEV":"nein","longitude":"11,622888","latitude":"48,130045","geojson_lng":11.622888,"geojson_lat":48.130045},"geometry":{"type":"Point","coordinates":[11.622888,48.130045]}},{"type":"Feature","properties":{"SeqNo":"109703","Type":"Q","DHID":"de:09162:902:30:70","Parent":"de:09162:902:30","Name":"70","MunicipalityCode":"00000000","Municipality":"-","DistrictCode":"-","District":"-","Description":"","Authority":"BEG","DelfiName":"-","THID":"-","LastOperationDate":"","SEV":"nein","longitude":"11,623472","latitude":"48,129793","geojson_lng":11.623472,"geojson_lat":48.129793},"geometry":{"type":"Point","coordinates":[11.623472,48.129793]}},{"type":"Feature","properties":{"SeqNo":"109704","Type":"Q","DHID":"de:09162:902:31:21","Parent":"de:09162:902:31","Name":"21","MunicipalityCode":"00000000","Municipality":"-","DistrictCode":"-","District":"-","Description":"","Authority":"BEG","DelfiName":"-","THID":"-","LastOperationDate":"","SEV":"nein","longitude":"11,62252","latitude":"48,129943","geojson_lng":11.62252,"geojson_lat":48.129943},"geometry":{"type":"Point","coordinates":[11.62252,48.129943]}},{"type":"Feature","properties":{"SeqNo":"109705","Type":"Q","DHID":"de:09162:902:32:22","Parent":"de:09162:902:32","Name":"22","MunicipalityCode":"00000000","Municipality":"-","DistrictCode":"-","District":"-","Description":"","Authority":"BEG","DelfiName":"-","THID":"-","LastOperationDate":"","SEV":"nein","longitude":"11,623337","latitude":"48,129541","geojson_lng":11.623337,"geojson_lat":48.129541},"geometry":{"type":"Point","coordinates":[11.623337,48.129541]}},{"type":"Feature","properties":{"SeqNo":"109706","Type":"Q","DHID":"de:09162:902:73:73","Parent":"de:09162:902:73","Name":"73","MunicipalityCode":"00000000","Municipality":"-","DistrictCode":"-","District":"-","Description":"","Authority":"BEG","DelfiName":"-","THID":"-","LastOperationDate":"","SEV":"nein","longitude":"11,622879","latitude":"48,129469","geojson_lng":11.622879,"geojson_lat":48.129469},"geometry":{"type":"Point","coordinates":[11.622879,48.129469]}},{"type":"Feature","properties":{"SeqNo":"109707","Type":"Q","DHID":"de:09162:902:74:74","Parent":"de:09162:902:74","Name":"74","MunicipalityCode":"00000000","Municipality":"-","DistrictCode":"-","District":"-","Description":"","Authority":"BEG","DelfiName":"-","THID":"-","LastOperationDate":"","SEV":"nein","longitude":"11,622601","latitude":"48,129433","geojson_lng":11.622601,"geojson_lat":48.129433},"geometry":{"type":"Point","coordinates":[11.622601,48.129433]}}]}