{"type":"FeatureCollection","features":[{"type":"Feature","properties":{"SeqNo":"105477","Type":"S","DHID":"de:09162:10010","Parent":"de:09162:10010","Name":"Münchner Linien Ost","Latitude":"48,136808","Longitude":"11,619942","MunicipalityCode":"09162000","Municipality":"München","DistrictCode":"","District":"","Description":"","Authority":"BEG","DelfiName":"-","THID":"D923CA00271A","TariffProvider":"-","LastOperationDate":"1999-12-31T00:00:00","SEV":"nein","geojson_lng":11.619942,"geojson_lat":48.136808},"geometry":{"type":"Point","coordinates":[11.619942,48.136808]}},{"type":"Feature","properties":{"SeqNo":"110936","Type":"S","DHID":"de:09162:20001","Parent":"de:09162:20001","Name":"Betriebshof Ost","Latitude":"48,13676","Longitude":"11,620696","MunicipalityCode":"09162000","Municipality":"München","DistrictCode":"","District":"","Description":"","Authority":"BEG","DelfiName":"-","THID":"D923CA004E21","TariffProvider":"-","LastOperationDate":"1999-12-31T00:00:00","SEV":"nein","geojson_lng":11.620696,"geojson_lat":48.13676},"geometry":{"type":"Point","coordinates":[11.620696,48.13676]}},{"type":"Feature","properties":{"SeqNo":"110937","Type":"Q","DHID":"de:09162:20001:0:(O) 1","Parent":"de:09162:20001","Name":"(O) 1","Latitude":"48,13688","Longitude":"11,620481","MunicipalityCode":"00000000","Municipality":"-","DistrictCode":"-","District":"-","Description":"","Authority":"BEG","DelfiName":"-","THID":"-","TariffProvider":"-","LastOperationDate":"","SEV":"nein","geojson_lng":11.620481,"geojson_lat":48.13688},"geometry":{"type":"Point","coordinates":[11.620481,48.13688]}},{"type":"Feature","properties":{"SeqNo":"110938","Type":"Q","DHID":"de:09162:20001:0:(O) 2","Parent":"de:09162:20001","Name":"(O) 2","Latitude":"48,136856","Longitude":"11,620553","MunicipalityCode":"00000000","Municipality":"-","DistrictCode":"-","District":"-","Description":"","Authority":"BEG","DelfiName":"-","THID":"-","TariffProvider":"-","LastOperationDate":"","SEV":"nein","geojson_lng":11.620553,"geojson_lat":48.136856},"geometry":{"type":"Point","coordinates":[11.620553,48.136856]}},{"type":"Feature","properties":{"SeqNo":"114315","Type":"A","DHID":"de:09162:612:90","Parent":"de:09162:612","Name":"Vw O Fahrerraum","Latitude":"48,136784","Longitude":"11,62075","MunicipalityCode":"00000000","Municipality":"-","DistrictCode":"-","District":"-","Description":"","Authority":"BEG","DelfiName":"-","THID":"-","TariffProvider":"-","LastOperationDate":"","SEV":"nein","geojson_lng":11.62075,"geojson_lat":48.136784},"geometry":{"type":"Point","coordinates":[11.62075,48.136784]}},{"type":"Feature","properties":{"SeqNo":"114316","Type":"A","DHID":"de:09162:612:91","Parent":"de:09162:612","Name":"KT Fahrerraum","Latitude":"48,136784","Longitude":"11,62075","MunicipalityCode":"00000000","Municipality":"-","DistrictCode":"-","District":"-","Description":"","Authority":"BEG","DelfiName":"-","THID":"-","TariffProvider":"-","LastOperationDate":"","SEV":"nein","geojson_lng":11.62075,"geojson_lat":48.136784},"geometry":{"type":"Point","coordinates":[11.62075,48.136784]}},{"type":"Feature","properties":{"SeqNo":"114533","Type":"S","DHID":"de:09162:646","Parent":"de:09162:646","Name":"Riedenburger Straße","Latitude":"48,13598","Longitude":"11,623706","MunicipalityCode":"09162000","Municipality":"München","DistrictCode":"","District":"","Description":"","Authority":"BEG","DelfiName":"-","THID":"D923CA000286","TariffProvider":"-","LastOperationDate":"2025-12-13T00:00:00","SEV":"nein","geojson_lng":11.623706,"geojson_lat":48.13598},"geometry":{"type":"Point","coordinates":[11.623706,48.13598]}},{"type":"Feature","properties":{"SeqNo":"114657","Type":"S","DHID":"de:09162:662","Parent":"de:09162:662","Name":"Einsteinstraße","Latitude":"48,136874","Longitude":"11,614678","MunicipalityCode":"09162000","Municipality":"München","DistrictCode":"","District":"","Description":"","Authority":"BEG","DelfiName":"-","THID":"D923CA000296","TariffProvider":"-","LastOperationDate":"2025-12-13T00:00:00","SEV":"nein","geojson_lng":11.614678,"geojson_lat":48.136874},"geometry":{"type":"Point","coordinates":[11.614678,48.136874]}},{"type":"Feature","properties":{"SeqNo":"114658","Type":"A","DHID":"de:09162:662:2","Parent":"de:09162:662","Name":"Steig 1+2","Latitude":"48,136832","Longitude":"11,614193","MunicipalityCode":"00000000","Municipality":"-","DistrictCode":"-","District":"-","Description":"","Authority":"BEG","DelfiName":"-","THID":"-","TariffProvider":"-","LastOperationDate":"","SEV":"nein","geojson_lng":11.614193,"geojson_lat":48.136832},"geometry":{"type":"Point","coordinates":[11.614193,48.136832]}},{"type":"Feature","properties":{"SeqNo":"114660","Type":"A","DHID":"de:09162:662:22","Parent":"de:09162:662","Name":"102 Leuchtenb Süd","Latitude":"48,136676","Longitude":"11,614633","MunicipalityCode":"00000000","Municipality":"-","DistrictCode":"-","District":"-","Description":"","Authority":"BEG","DelfiName":"-","THID":"-","TariffProvider":"-","LastOperationDate":"","SEV":"nein","geojson_lng":11.614633,"geojson_lat":48.136676},"geometry":{"type":"Point","coordinates":[11.614633,48.136676]}},{"type":"Feature","properties":{"SeqNo":"114661","Type":"A","DHID":"de:09162:662:3","Parent":"de:09162:662","Name":"Steig 3","Latitude":"48,13646","Longitude":"11,614767","MunicipalityCode":"00000000","Municipality":"-","DistrictCode":"-","District":"-","Description":"","Authority":"BEG","DelfiName":"-","THID":"-","TariffProvider":"-","LastOperationDate":"","SEV":"nein","geojson_lng":11.614767,"geojson_lat":48.13646},"geometry":{"type":"Point","coordinates":[11.614767,48.13646]}},{"type":"Feature","properties":{"SeqNo":"114663","Type":"A","DHID":"de:09162:662:32","Parent":"de:09162:662","Name":"Steig 72","Latitude":"48,13679","Longitude":"11,61563","MunicipalityCode":"00000000","Municipality":"-","DistrictCode":"-","District":"-","Description":"","Authority":"BEG","DelfiName":"-","THID":"-","TariffProvider":"-","LastOperationDate":"","SEV":"nein","geojson_lng":11.61563,"geojson_lat":48.13679},"geometry":{"type":"Point","coordinates":[11.61563,48.13679]}},{"type":"Feature","properties":{"SeqNo":"114665","Type":"A","DHID":"de:09162:662:99","Parent":"de:09162:662","Name":"Veraltet","Latitude":"48,135992","Longitude":"11,61536","MunicipalityCode":"00000000","Municipality":"-","DistrictCode":"-","District":"-","Description":"","Authority":"BEG","DelfiName":"-","THID":"-","TariffProvider":"-","LastOperationDate":"","SEV":"nein","geojson_lng":11.61536,"geojson_lat":48.135992},"geometry":{"type":"Point","coordinates":[11.61536,48.135992]}},{"type":"Feature","properties":{"SeqNo":"114666","Type":"Q","DHID":"de:09162:662:2:1","Parent":"de:09162:662:2","Name":"1","Latitude":"48,136856","Longitude":"11,614004","MunicipalityCode":"00000000","Municipality":"-","DistrictCode":"-","District":"-","Description":"","Authority":"BEG","DelfiName":"-","THID":"-","TariffProvider":"-","LastOperationDate":"","SEV":"nein","geojson_lng":11.614004,"geojson_lat":48.136856},"geometry":{"type":"Point","coordinates":[11.614004,48.136856]}},{"type":"Feature","properties":{"SeqNo":"114667","Type":"Q","DHID":"de:09162:662:2:2","Parent":"de:09162:662:2","Name":"2","Latitude":"48,136808","Longitude":"11,61439","MunicipalityCode":"00000000","Municipality":"-","DistrictCode":"-","District":"-","Description":"","Authority":"BEG","DelfiName":"-","THID":"-","TariffProvider":"-","LastOperationDate":"","SEV":"nein","geojson_lng":11.61439,"geojson_lat":48.136808},"geometry":{"type":"Point","coordinates":[11.61439,48.136808]}},{"type":"Feature","properties":{"SeqNo":"114668","Type":"Q","DHID":"de:09162:662:3:3","Parent":"de:09162:662:3","Name":"3","Latitude":"48,13646","Longitude":"11,614767","MunicipalityCode":"00000000","Municipality":"-","DistrictCode":"-","District":"-","Description":"","Authority":"BEG","DelfiName":"-","THID":"-","TariffProvider":"-","LastOperationDate":"","SEV":"nein","geojson_lng":11.614767,"geojson_lat":48.13646},"geometry":{"type":"Point","coordinates":[11.614767,48.13646]}},{"type":"Feature","properties":{"SeqNo":"114670","Type":"Q","DHID":"de:09162:662:32:72","Parent":"de:09162:662:32","Name":"72","Latitude":"48,136808","Longitude":"11,61563","MunicipalityCode":"00000000","Municipality":"-","DistrictCode":"-","District":"-","Description":"","Authority":"BEG","DelfiName":"-","THID":"-","TariffProvider":"-","LastOperationDate":"","SEV":"nein","geojson_lng":11.61563,"geojson_lat":48.136808},"geometry":{"type":"Point","coordinates":[11.61563,48.136808]}},{"type":"Feature","properties":{"SeqNo":"114672","Type":"Q","DHID":"de:09162:662:99:4","Parent":"de:09162:662:99","Name":"Veraltet, ungültig gesetzt","Latitude":"48,135992","Longitude":"11,61536","MunicipalityCode":"00000000","Municipality":"-","DistrictCode":"-","District":"-","Description":"","Authority":"BEG","DelfiName":"-","THID":"-","TariffProvider":"-","LastOperationDate":"","SEV":"nein","geojson_lng":11.61536,"geojson_lat":48.135992},"geometry":{"type":"Point","coordinates":[11.61536,48.135992]}},{"type":"Feature","properties":{"SeqNo":"114673","Type":"Q","DHID":"de:09162:662:99:5","Parent":"de:09162:662:99","Name":"5","Latitude":"48,136874","Longitude":"11,614678","MunicipalityCode":"00000000","Municipality":"-","DistrictCode":"-","District":"-","Description":"","Authority":"BEG","DelfiName":"-","THID":"-","TariffProvider":"-","LastOperationDate":"","SEV":"nein","geojson_lng":11.614678,"geojson_lat":48.136874},"geometry":{"type":"Point","coordinates":[11.614678,48.136874]}},{"type":"Feature","properties":{"SeqNo":"115822","Type":"S","DHID":"de:09162:900","Parent":"de:09162:900","Name":"Leuchtenbergring","Latitude":"48,134266","Longitude":"11,615944","MunicipalityCode":"09162000","Municipality":"München","DistrictCode":"","District":"","Description":"","Authority":"BEG","DelfiName":"-","THID":"D923CA000384","TariffProvider":"-","LastOperationDate":"2025-12-13T00:00:00","SEV":"nein","geojson_lng":11.615944,"geojson_lat":48.134266},"geometry":{"type":"Point","coordinates":[11.615944,48.134266]}},{"type":"Feature","properties":{"SeqNo":"115823","Type":"A","DHID":"de:09162:900:41","Parent":"de:09162:900","Name":"Gleis 1+2","Latitude":"48,13447","Longitude":"11,616609","MunicipalityCode":"00000000","Municipality":"-","DistrictCode":"-","District":"-","Description":"","Authority":"BEG","DelfiName":"-","THID":"-","TariffProvider":"-","LastOperationDate":"","SEV":"nein","geojson_lng":11.616609,"geojson_lat":48.13447},"geometry":{"type":"Point","coordinates":[11.616609,48.13447]}},{"type":"Feature","properties":{"SeqNo":"115824","Type":"A","DHID":"de:09162:900:43","Parent":"de:09162:900","Name":"Gleis 3+4","Latitude":"48,134038","Longitude":"11,615342","MunicipalityCode":"00000000","Municipality":"-","DistrictCode":"-","District":"-","Description":"","Authority":"BEG","DelfiName":"-","THID":"-","TariffProvider":"-","LastOperationDate":"","SEV":"nein","geojson_lng":11.615342,"geojson_lat":48.134038},"geometry":{"type":"Point","coordinates":[11.615342,48.134038]}},{"type":"Feature","properties":{"SeqNo":"115825","Type":"A","DHID":"de:09162:900:61","Parent":"de:09162:900","Name":"Zugang Nord 81+82","Latitude":"48,134392","Longitude":"11,616196","MunicipalityCode":"00000000","Municipality":"-","DistrictCode":"-","District":"-","Description":"","Authority":"BEG","DelfiName":"-","THID":"-","TariffProvider":"-","LastOperationDate":"","SEV":"nein","geojson_lng":11.616196,"geojson_lat":48.134392},"geometry":{"type":"Point","coordinates":[11.616196,48.134392]}},{"type":"Feature","properties":{"SeqNo":"115826","Type":"A","DHID":"de:09162:900:62","Parent":"de:09162:900","Name":"Zugang West 81+82","Latitude":"48,13432","Longitude":"11,615836","MunicipalityCode":"00000000","Municipality":"-","DistrictCode":"-","District":"-","Description":"","Authority":"BEG","DelfiName":"-","THID":"-","TariffProvider":"-","LastOperationDate":"","SEV":"nein","geojson_lng":11.615836,"geojson_lat":48.13432},"geometry":{"type":"Point","coordinates":[11.615836,48.13432]}},{"type":"Feature","properties":{"SeqNo":"115827","Type":"A","DHID":"de:09162:900:63","Parent":"de:09162:900","Name":"Zugang Sperre Ost","Latitude":"48,134218","Longitude":"11,616277","MunicipalityCode":"00000000","Municipality":"-","DistrictCode":"-","District":"-","Description":"","Authority":"BEG","DelfiName":"-","THID":"-","TariffProvider":"-","LastOperationDate":"","SEV":"nein","geojson_lng":11.616277,"geojson_lat":48.134218},"geometry":{"type":"Point","coordinates":[11.616277,48.134218]}},{"type":"Feature","properties":{"SeqNo":"115828","Type":"A","DHID":"de:09162:900:64","Parent":"de:09162:900","Name":"Zugang Sperre Wes","Latitude":"48,13414","Longitude":"11,615926","MunicipalityCode":"00000000","Municipality":"-","DistrictCode":"-","District":"-","Description":"","Authority":"BEG","DelfiName":"-","THID":"-","TariffProvider":"-","LastOperationDate":"","SEV":"nein","geojson_lng":11.615926,"geojson_lat":48.13414},"geometry":{"type":"Point","coordinates":[11.615926,48.13414]}},{"type":"Feature","properties":{"SeqNo":"115829","Type":"A","DHID":"de:09162:900:81","Parent":"de:09162:900","Name":"Sperre Gl. 83+84","Latitude":"48,134212","Longitude":"11,616061","MunicipalityCode":"00000000","Municipality":"-","DistrictCode":"-","District":"-","Description":"","Authority":"BEG","DelfiName":"-","THID":"-","TariffProvider":"-","LastOperationDate":"","SEV":"nein","geojson_lng":11.616061,"geojson_lat":48.134212},"geometry":{"type":"Point","coordinates":[11.616061,48.134212]}},{"type":"Feature","properties":{"SeqNo":"115830","Type":"Q","DHID":"de:09162:900:41:81","Parent":"de:09162:900:41","Name":"Gleis 1","Latitude":"48,134523","Longitude":"11,616663","MunicipalityCode":"00000000","Municipality":"-","DistrictCode":"-","District":"-","Description":"","Authority":"BEG","DelfiName":"-","THID":"-","TariffProvider":"-","LastOperationDate":"","SEV":"nein","geojson_lng":11.616663,"geojson_lat":48.134523},"geometry":{"type":"Point","coordinates":[11.616663,48.134523]}},{"type":"Feature","properties":{"SeqNo":"115831","Type":"Q","DHID":"de:09162:900:41:82","Parent":"de:09162:900:41","Name":"Gleis 2","Latitude":"48,134434","Longitude":"11,616708","MunicipalityCode":"00000000","Municipality":"-","DistrictCode":"-","District":"-","Description":"","Authority":"BEG","DelfiName":"-","THID":"-","TariffProvider":"-","LastOperationDate":"","SEV":"nein","geojson_lng":11.616708,"geojson_lat":48.134434},"geometry":{"type":"Point","coordinates":[11.616708,48.134434]}},{"type":"Feature","properties":{"SeqNo":"115832","Type":"Q","DHID":"de:09162:900:43:83","Parent":"de:09162:900:43","Name":"Gleis 3","Latitude":"48,134074","Longitude":"11,615244","MunicipalityCode":"00000000","Municipality":"-","DistrictCode":"-","District":"-","Description":"","Authority":"BEG","DelfiName":"-","THID":"-","TariffProvider":"-","LastOperationDate":"","SEV":"nein","geojson_lng":11.615244,"geojson_lat":48.134074},"geometry":{"type":"Point","coordinates":[11.615244,48.134074]}},{"type":"Feature","properties":{"SeqNo":"115833","Type":"Q","DHID":"de:09162:900:43:84","Parent":"de:09162:900:43","Name":"Gleis 4","Latitude":"48,133972","Longitude":"11,615297","MunicipalityCode":"00000000","Municipality":"-","DistrictCode":"-","District":"-","Description":"","Authority":"BEG","DelfiName":"-","THID":"-","TariffProvider":"-","LastOperationDate":"","SEV":"nein","geojson_lng":11.615297,"geojson_lat":48.133972},"geometry":{"type":"Point","coordinates":[11.615297,48.133972]}},{"type":"Feature","properties":{"SeqNo":"115837","Type":"S","DHID":"de:09162:9002","Parent":"de:09162:9002","Name":"Betriebshof (2)","Latitude":"48,136508","Longitude":"11,617301","MunicipalityCode":"09162000","Municipality":"München","DistrictCode":"","District":"","Description":"","Authority":"BEG","DelfiName":"-","THID":"D923CA00232A","TariffProvider":"-","LastOperationDate":"1999-12-31T00:00:00","SEV":"nein","geojson_lng":11.617301,"geojson_lat":48.136508},"geometry":{"type":"Point","coordinates":[11.617301,48.136508]}},{"type":"Feature","properties":{"SeqNo":"115838","Type":"S","DHID":"de:09162:901","Parent":"de:09162:901","Name":"Ampfingstraße","Latitude":"48,130974","Longitude":"11,615711","MunicipalityCode":"09162000","Municipality":"München","DistrictCode":"","District":"","Description":"","Authority":"BEG","DelfiName":"-","THID":"D923CA000385","TariffProvider":"-","LastOperationDate":"2025-12-13T00:00:00","SEV":"nein","geojson_lng":11.615711,"geojson_lat":48.130974},"geometry":{"type":"Point","coordinates":[11.615711,48.130974]}},{"type":"Feature","properties":{"SeqNo":"115839","Type":"A","DHID":"de:09162:901:1","Parent":"de:09162:901","Name":"Steig 1","Latitude":"48,130818","Longitude":"11,616429","MunicipalityCode":"00000000","Municipality":"-","DistrictCode":"-","District":"-","Description":"","Authority":"BEG","DelfiName":"-","THID":"-","TariffProvider":"-","LastOperationDate":"","SEV":"nein","geojson_lng":11.616429,"geojson_lat":48.130818},"geometry":{"type":"Point","coordinates":[11.616429,48.130818]}},{"type":"Feature","properties":{"SeqNo":"115840","Type":"A","DHID":"de:09162:901:2","Parent":"de:09162:901","Name":"Steig 2","Latitude":"48,131082","Longitude":"11,615253","MunicipalityCode":"00000000","Municipality":"-","DistrictCode":"-","District":"-","Description":"","Authority":"BEG","DelfiName":"-","THID":"-","TariffProvider":"-","LastOperationDate":"","SEV":"nein","geojson_lng":11.615253,"geojson_lat":48.131082},"geometry":{"type":"Point","coordinates":[11.615253,48.131082]}},{"type":"Feature","properties":{"SeqNo":"115841","Type":"A","DHID":"de:09162:901:21","Parent":"de:09162:901","Name":"Zugang Süd 101","Latitude":"48,130758","Longitude":"11,615971","MunicipalityCode":"00000000","Municipality":"-","DistrictCode":"-","District":"-","Description":"","Authority":"BEG","DelfiName":"-","THID":"-","TariffProvider":"-","LastOperationDate":"","SEV":"nein","geojson_lng":11.615971,"geojson_lat":48.130758},"geometry":{"type":"Point","coordinates":[11.615971,48.130758]}},{"type":"Feature","properties":{"SeqNo":"115842","Type":"A","DHID":"de:09162:901:22","Parent":"de:09162:901","Name":"Zugang Nord 102","Latitude":"48,131148","Longitude":"11,615468","MunicipalityCode":"00000000","Municipality":"-","DistrictCode":"-","District":"-","Description":"","Authority":"BEG","DelfiName":"-","THID":"-","TariffProvider":"-","LastOperationDate":"","SEV":"nein","geojson_lng":11.615468,"geojson_lat":48.131148},"geometry":{"type":"Point","coordinates":[11.615468,48.131148]}},{"type":"Feature","properties":{"SeqNo":"115843","Type":"A","DHID":"de:09162:901:23","Parent":"de:09162:901","Name":"Zugang Ost 103","Latitude":"48,131046","Longitude":"11,61607","MunicipalityCode":"00000000","Municipality":"-","DistrictCode":"-","District":"-","Description":"","Authority":"BEG","DelfiName":"-","THID":"-","TariffProvider":"-","LastOperationDate":"","SEV":"nein","geojson_lng":11.61607,"geojson_lat":48.131046},"geometry":{"type":"Point","coordinates":[11.61607,48.131046]}},{"type":"Feature","properties":{"SeqNo":"115844","Type":"A","DHID":"de:09162:901:24","Parent":"de:09162:901","Name":"Zugang West 104","Latitude":"48,130866","Longitude":"11,615378","MunicipalityCode":"00000000","Municipality":"-","DistrictCode":"-","District":"-","Description":"","Authority":"BEG","DelfiName":"-","THID":"-","TariffProvider":"-","LastOperationDate":"","SEV":"nein","geojson_lng":11.615378,"geojson_lat":48.130866},"geometry":{"type":"Point","coordinates":[11.615378,48.130866]}},{"type":"Feature","properties":{"SeqNo":"115845","Type":"A","DHID":"de:09162:901:3","Parent":"de:09162:901","Name":"Steig 3","Latitude":"48,130399","Longitude":"11,615235","MunicipalityCode":"00000000","Municipality":"-","DistrictCode":"-","District":"-","Description":"","Authority":"BEG","DelfiName":"-","THID":"-","TariffProvider":"-","LastOperationDate":"","SEV":"nein","geojson_lng":11.615235,"geojson_lat":48.130399},"geometry":{"type":"Point","coordinates":[11.615235,48.130399]}},{"type":"Feature","properties":{"SeqNo":"115846","Type":"A","DHID":"de:09162:901:31","Parent":"de:09162:901","Name":"Steig 21","Latitude":"48,130716","Longitude":"11,616375","MunicipalityCode":"00000000","Municipality":"-","DistrictCode":"-","District":"-","Description":"","Authority":"BEG","DelfiName":"-","THID":"-","TariffProvider":"-","LastOperationDate":"","SEV":"nein","geojson_lng":11.616375,"geojson_lat":48.130716},"geometry":{"type":"Point","coordinates":[11.616375,48.130716]}},{"type":"Feature","properties":{"SeqNo":"115847","Type":"A","DHID":"de:09162:901:32","Parent":"de:09162:901","Name":"Steig 22","Latitude":"48,13119","Longitude":"11,615271","MunicipalityCode":"00000000","Municipality":"-","DistrictCode":"-","District":"-","Description":"","Authority":"BEG","DelfiName":"-","THID":"-","TariffProvider":"-","LastOperationDate":"","SEV":"nein","geojson_lng":11.615271,"geojson_lat":48.13119},"geometry":{"type":"Point","coordinates":[11.615271,48.13119]}},{"type":"Feature","properties":{"SeqNo":"115848","Type":"A","DHID":"de:09162:901:4","Parent":"de:09162:901","Name":"Steig 4","Latitude":"48,130141","Longitude":"11,61563","MunicipalityCode":"00000000","Municipality":"-","DistrictCode":"-","District":"-","Description":"","Authority":"BEG","DelfiName":"-","THID":"-","TariffProvider":"-","LastOperationDate":"","SEV":"nein","geojson_lng":11.61563,"geojson_lat":48.130141},"geometry":{"type":"Point","coordinates":[11.61563,48.130141]}},{"type":"Feature","properties":{"SeqNo":"115849","Type":"Q","DHID":"de:09162:901:1:1","Parent":"de:09162:901:1","Name":"1","Latitude":"48,130818","Longitude":"11,616429","MunicipalityCode":"00000000","Municipality":"-","DistrictCode":"-","District":"-","Description":"","Authority":"BEG","DelfiName":"-","THID":"-","TariffProvider":"-","LastOperationDate":"","SEV":"nein","geojson_lng":11.616429,"geojson_lat":48.130818},"geometry":{"type":"Point","coordinates":[11.616429,48.130818]}},{"type":"Feature","properties":{"SeqNo":"115850","Type":"Q","DHID":"de:09162:901:2:2","Parent":"de:09162:901:2","Name":"2","Latitude":"48,131082","Longitude":"11,615253","MunicipalityCode":"00000000","Municipality":"-","DistrictCode":"-","District":"-","Description":"","Authority":"BEG","DelfiName":"-","THID":"-","TariffProvider":"-","LastOperationDate":"","SEV":"nein","geojson_lng":11.615253,"geojson_lat":48.131082},"geometry":{"type":"Point","coordinates":[11.615253,48.131082]}},{"type":"Feature","properties":{"SeqNo":"115851","Type":"Q","DHID":"de:09162:901:3:3","Parent":"de:09162:901:3","Name":"3","Latitude":"48,130399","Longitude":"11,615235","MunicipalityCode":"00000000","Municipality":"-","DistrictCode":"-","District":"-","Description":"","Authority":"BEG","DelfiName":"-","THID":"-","TariffProvider":"-","LastOperationDate":"","SEV":"nein","geojson_lng":11.615235,"geojson_lat":48.130399},"geometry":{"type":"Point","coordinates":[11.615235,48.130399]}},{"type":"Feature","properties":{"SeqNo":"115852","Type":"Q","DHID":"de:09162:901:31:21","Parent":"de:09162:901:31","Name":"21","Latitude":"48,130716","Longitude":"11,616375","MunicipalityCode":"00000000","Municipality":"-","DistrictCode":"-","District":"-","Description":"","Authority":"BEG","DelfiName":"-","THID":"-","TariffProvider":"-","LastOperationDate":"","SEV":"nein","geojson_lng":11.616375,"geojson_lat":48.130716},"geometry":{"type":"Point","coordinates":[11.616375,48.130716]}},{"type":"Feature","properties":{"SeqNo":"115853","Type":"Q","DHID":"de:09162:901:32:22","Parent":"de:09162:901:32","Name":"22","Latitude":"48,13119","Longitude":"11,615271","MunicipalityCode":"00000000","Municipality":"-","DistrictCode":"-","District":"-","Description":"","Authority":"BEG","DelfiName":"-","THID":"-","TariffProvider":"-","LastOperationDate":"","SEV":"nein","geojson_lng":11.615271,"geojson_lat":48.13119},"geometry":{"type":"Point","coordinates":[11.615271,48.13119]}},{"type":"Feature","properties":{"SeqNo":"115854","Type":"Q","DHID":"de:09162:901:4:4","Parent":"de:09162:901:4","Name":"4","Latitude":"48,130141","Longitude":"11,61563","MunicipalityCode":"00000000","Municipality":"-","DistrictCode":"-","District":"-","Description":"","Authority":"BEG","DelfiName":"-","THID":"-","TariffProvider":"-","LastOperationDate":"","SEV":"nein","geojson_lng":11.61563,"geojson_lat":48.130141},"geometry":{"type":"Point","coordinates":[11.61563,48.130141]}},{"type":"Feature","properties":{"SeqNo":"115860","Type":"S","DHID":"de:09162:902","Parent":"de:09162:902","Name":"Schlüsselbergstraße","Latitude":"48,129721","Longitude":"11,623041","MunicipalityCode":"09162000","Municipality":"München","DistrictCode":"","District":"","Description":"","Authority":"BEG","DelfiName":"-","THID":"D923CA000386","TariffProvider":"-","LastOperationDate":"2025-12-13T00:00:00","SEV":"nein","geojson_lng":11.623041,"geojson_lat":48.129721},"geometry":{"type":"Point","coordinates":[11.623041,48.129721]}},{"type":"Feature","properties":{"SeqNo":"115861","Type":"A","DHID":"de:09162:902:1","Parent":"de:09162:902","Name":"Steig 1","Latitude":"48,129871","Longitude":"11,622385","MunicipalityCode":"00000000","Municipality":"-","DistrictCode":"-","District":"-","Description":"","Authority":"BEG","DelfiName":"-","THID":"-","TariffProvider":"-","LastOperationDate":"","SEV":"nein","geojson_lng":11.622385,"geojson_lat":48.129871},"geometry":{"type":"Point","coordinates":[11.622385,48.129871]}},{"type":"Feature","properties":{"SeqNo":"115862","Type":"A","DHID":"de:09162:902:2","Parent":"de:09162:902","Name":"Steig 2","Latitude":"48,129631","Longitude":"11,623382","MunicipalityCode":"00000000","Municipality":"-","DistrictCode":"-","District":"-","Description":"","Authority":"BEG","DelfiName":"-","THID":"-","TariffProvider":"-","LastOperationDate":"","SEV":"nein","geojson_lng":11.623382,"geojson_lat":48.129631},"geometry":{"type":"Point","coordinates":[11.623382,48.129631]}},{"type":"Feature","properties":{"SeqNo":"115863","Type":"A","DHID":"de:09162:902:21","Parent":"de:09162:902","Name":"Zu Weihenst West","Latitude":"48,129919","Longitude":"11,622682","MunicipalityCode":"00000000","Municipality":"-","DistrictCode":"-","District":"-","Description":"","Authority":"BEG","DelfiName":"-","THID":"-","TariffProvider":"-","LastOperationDate":"","SEV":"nein","geojson_lng":11.622682,"geojson_lat":48.129919},"geometry":{"type":"Point","coordinates":[11.622682,48.129919]}},{"type":"Feature","properties":{"SeqNo":"115864","Type":"A","DHID":"de:09162:902:22","Parent":"de:09162:902","Name":"Zu Weihenst Ost","Latitude":"48,129847","Longitude":"11,623122","MunicipalityCode":"00000000","Municipality":"-","DistrictCode":"-","District":"-","Description":"","Authority":"BEG","DelfiName":"-","THID":"-","TariffProvider":"-","LastOperationDate":"","SEV":"nein","geojson_lng":11.623122,"geojson_lat":48.129847},"geometry":{"type":"Point","coordinates":[11.623122,48.129847]}},{"type":"Feature","properties":{"SeqNo":"115865","Type":"A","DHID":"de:09162:902:23","Parent":"de:09162:902","Name":"Zu Schlüssel West","Latitude":"48,129649","Longitude":"11,622574","MunicipalityCode":"00000000","Municipality":"-","DistrictCode":"-","District":"-","Description":"","Authority":"BEG","DelfiName":"-","THID":"-","TariffProvider":"-","LastOperationDate":"","SEV":"nein","geojson_lng":11.622574,"geojson_lat":48.129649},"geometry":{"type":"Point","coordinates":[11.622574,48.129649]}},{"type":"Feature","properties":{"SeqNo":"115866","Type":"A","DHID":"de:09162:902:24","Parent":"de:09162:902","Name":"Zu Schlüssel Ost","Latitude":"48,129577","Longitude":"11,623032","MunicipalityCode":"00000000","Municipality":"-","DistrictCode":"-","District":"-","Description":"","Authority":"BEG","DelfiName":"-","THID":"-","TariffProvider":"-","LastOperationDate":"","SEV":"nein","geojson_lng":11.623032,"geojson_lat":48.129577},"geometry":{"type":"Point","coordinates":[11.623032,48.129577]}},{"type":"Feature","properties":{"SeqNo":"115867","Type":"A","DHID":"de:09162:902:3","Parent":"de:09162:902","Name":"Steig 3+4","Latitude":"48,130039","Longitude":"11,62296","MunicipalityCode":"00000000","Municipality":"-","DistrictCode":"-","District":"-","Description":"","Authority":"BEG","DelfiName":"-","THID":"-","TariffProvider":"-","LastOperationDate":"","SEV":"nein","geojson_lng":11.62296,"geojson_lat":48.130039},"geometry":{"type":"Point","coordinates":[11.62296,48.130039]}},{"type":"Feature","properties":{"SeqNo":"115868","Type":"A","DHID":"de:09162:902:30","Parent":"de:09162:902","Name":"Steig 70","Latitude":"48,129793","Longitude":"11,623472","MunicipalityCode":"00000000","Municipality":"-","DistrictCode":"-","District":"-","Description":"","Authority":"BEG","DelfiName":"-","THID":"-","TariffProvider":"-","LastOperationDate":"","SEV":"nein","geojson_lng":11.623472,"geojson_lat":48.129793},"geometry":{"type":"Point","coordinates":[11.623472,48.129793]}},{"type":"Feature","properties":{"SeqNo":"115869","Type":"A","DHID":"de:09162:902:31","Parent":"de:09162:902","Name":"Steig 21","Latitude":"48,129943","Longitude":"11,62252","MunicipalityCode":"00000000","Municipality":"-","DistrictCode":"-","District":"-","Description":"","Authority":"BEG","DelfiName":"-","THID":"-","TariffProvider":"-","LastOperationDate":"","SEV":"nein","geojson_lng":11.62252,"geojson_lat":48.129943},"geometry":{"type":"Point","coordinates":[11.62252,48.129943]}},{"type":"Feature","properties":{"SeqNo":"115870","Type":"A","DHID":"de:09162:902:32","Parent":"de:09162:902","Name":"Steig 22","Latitude":"48,129541","Longitude":"11,623337","MunicipalityCode":"00000000","Municipality":"-","DistrictCode":"-","District":"-","Description":"","Authority":"BEG","DelfiName":"-","THID":"-","TariffProvider":"-","LastOperationDate":"","SEV":"nein","geojson_lng":11.623337,"geojson_lat":48.129541},"geometry":{"type":"Point","coordinates":[11.623337,48.129541]}},{"type":"Feature","properties":{"SeqNo":"115871","Type":"A","DHID":"de:09162:902:73","Parent":"de:09162:902","Name":"Steig 73","Latitude":"48,129469","Longitude":"11,622879","MunicipalityCode":"00000000","Municipality":"-","DistrictCode":"-","District":"-","Description":"","Authority":"BEG","DelfiName":"-","THID":"-","TariffProvider":"-","LastOperationDate":"","SEV":"nein","geojson_lng":11.622879,"geojson_lat":48.129469},"geometry":{"type":"Point","coordinates":[11.622879,48.129469]}},{"type":"Feature","properties":{"SeqNo":"115872","Type":"A","DHID":"de:09162:902:74","Parent":"de:09162:902","Name":"Steig 74","Latitude":"48,129433","Longitude":"11,622601","MunicipalityCode":"00000000","Municipality":"-","DistrictCode":"-","District":"-","Description":"","Authority":"BEG","DelfiName":"-","THID":"-","TariffProvider":"-","LastOperationDate":"","SEV":"nein","geojson_lng":11.622601,"geojson_lat":48.129433},"geometry":{"type":"Point","coordinates":[11.622601,48.129433]}},{"type":"Feature","properties":{"SeqNo":"115873","Type":"Q","DHID":"de:09162:902:1:1","Parent":"de:09162:902:1","Name":"1","Latitude":"48,129871","Longitude":"11,622385","MunicipalityCode":"00000000","Municipality":"-","DistrictCode":"-","District":"-","Description":"","Authority":"BEG","DelfiName":"-","THID":"-","TariffProvider":"-","LastOperationDate":"","SEV":"nein","geojson_lng":11.622385,"geojson_lat":48.129871},"geometry":{"type":"Point","coordinates":[11.622385,48.129871]}},{"type":"Feature","properties":{"SeqNo":"115874","Type":"Q","DHID":"de:09162:902:2:2","Parent":"de:09162:902:2","Name":"2","Latitude":"48,129631","Longitude":"11,623382","MunicipalityCode":"00000000","Municipality":"-","DistrictCode":"-","District":"-","Description":"","Authority":"BEG","DelfiName":"-","THID":"-","TariffProvider":"-","LastOperationDate":"","SEV":"nein","geojson_lng":11.623382,"geojson_lat":48.129631},"geometry":{"type":"Point","coordinates":[11.623382,48.129631]}},{"type":"Feature","properties":{"SeqNo":"115875","Type":"Q","DHID":"de:09162:902:3:3","Parent":"de:09162:902:3","Name":"3","Latitude":"48,130099","Longitude":"11,62305","MunicipalityCode":"00000000","Municipality":"-","DistrictCode":"-","District":"-","Description":"","Authority":"BEG","DelfiName":"-","THID":"-","TariffProvider":"-","LastOperationDate":"","SEV":"nein","geojson_lng":11.62305,"geojson_lat":48.130099},"geometry":{"type":"Point","coordinates":[11.62305,48.130099]}},{"type":"Feature","properties":{"SeqNo":"115876","Type":"Q","DHID":"de:09162:902:3:4","Parent":"de:09162:902:3","Name":"4","Latitude":"48,130045","Longitude":"11,622888","MunicipalityCode":"00000000","Municipality":"-","DistrictCode":"-","District":"-","Description":"","Authority":"BEG","DelfiName":"-","THID":"-","TariffProvider":"-","LastOperationDate":"","SEV":"nein","geojson_lng":11.622888,"geojson_lat":48.130045},"geometry":{"type":"Point","coordinates":[11.622888,48.130045]}},{"type":"Feature","properties":{"SeqNo":"115877","Type":"Q","DHID":"de:09162:902:30:70","Parent":"de:09162:902:30","Name":"70","Latitude":"48,129793","Longitude":"11,623472","MunicipalityCode":"00000000","Municipality":"-","DistrictCode":"-","District":"-","Description":"","Authority":"BEG","DelfiName":"-","THID":"-","TariffProvider":"-","LastOperationDate":"","SEV":"nein","geojson_lng":11.623472,"geojson_lat":48.129793},"geometry":{"type":"Point","coordinates":[11.623472,48.129793]}},{"type":"Feature","properties":{"SeqNo":"115878","Type":"Q","DHID":"de:09162:902:31:21","Parent":"de:09162:902:31","Name":"21","Latitude":"48,129943","Longitude":"11,62252","MunicipalityCode":"00000000","Municipality":"-","DistrictCode":"-","District":"-","Description":"","Authority":"BEG","DelfiName":"-","THID":"-","TariffProvider":"-","LastOperationDate":"","SEV":"nein","geojson_lng":11.62252,"geojson_lat":48.129943},"geometry":{"type":"Point","coordinates":[11.62252,48.129943]}},{"type":"Feature","properties":{"SeqNo":"115879","Type":"Q","DHID":"de:09162:902:32:22","Parent":"de:09162:902:32","Name":"22","Latitude":"48,129541","Longitude":"11,623337","MunicipalityCode":"00000000","Municipality":"-","DistrictCode":"-","District":"-","Description":"","Authority":"BEG","DelfiName":"-","THID":"-","TariffProvider":"-","LastOperationDate":"","SEV":"nein","geojson_lng":11.623337,"geojson_lat":48.129541},"geometry":{"type":"Point","coordinates":[11.623337,48.129541]}},{"type":"Feature","properties":{"SeqNo":"115880","Type":"Q","DHID":"de:09162:902:73:73","Parent":"de:09162:902:73","Name":"73","Latitude":"48,129469","Longitude":"11,622879","MunicipalityCode":"00000000","Municipality":"-","DistrictCode":"-","District":"-","Description":"","Authority":"BEG","DelfiName":"-","THID":"-","TariffProvider":"-","LastOperationDate":"","SEV":"nein","geojson_lng":11.622879,"geojson_lat":48.129469},"geometry":{"type":"Point","coordinates":[11.622879,48.129469]}},{"type":"Feature","properties":{"SeqNo":"115881","Type":"Q","DHID":"de:09162:902:74:74","Parent":"de:09162:902:74","Name":"74","Latitude":"48,129433","Longitude":"11,622601","MunicipalityCode":"00000000","Municipality":"-","DistrictCode":"-","District":"-","Description":"","Authority":"BEG","DelfiName":"-","THID":"-","TariffProvider":"-","LastOperationDate":"","SEV":"nein","geojson_lng":11.622601,"geojson_lat":48.129433},"geometry":{"type":"Point","coordinates":[11.622601,48.129433]}}]}