{"type":"FeatureCollection","features":[{"type":"Feature","properties":{"SeqNo":"99473","Type":"S","DHID":"de:09162:10010","Parent":"de:09162:10010","Name":"Münchner Linien Ost","MunicipalityCode":"09162000","Municipality":"München","DistrictCode":"","District":"","Description":"","Authority":"BEG","DelfiName":"-","THID":"D923CA00271A","LastOperationDate":"1999-12-31T00:00:00","SEV":"nein","longitude":"11,619942","latitude":"48,136808","geojson_lng":11.619942,"geojson_lat":48.136808},"geometry":{"type":"Point","coordinates":[11.619942,48.136808]}},{"type":"Feature","properties":{"SeqNo":"104864","Type":"S","DHID":"de:09162:20001","Parent":"de:09162:20001","Name":"Betriebshof Ost","MunicipalityCode":"09162000","Municipality":"München","DistrictCode":"","District":"","Description":"","Authority":"BEG","DelfiName":"-","THID":"D923CA004E21","LastOperationDate":"1999-12-31T00:00:00","SEV":"nein","longitude":"11,620696","latitude":"48,13676","geojson_lng":11.620696,"geojson_lat":48.13676},"geometry":{"type":"Point","coordinates":[11.620696,48.13676]}},{"type":"Feature","properties":{"SeqNo":"104865","Type":"Q","DHID":"de:09162:20001:0:(O) 1","Parent":"de:09162:20001","Name":"(O) 1","MunicipalityCode":"00000000","Municipality":"-","DistrictCode":"-","District":"-","Description":"","Authority":"BEG","DelfiName":"-","THID":"-","LastOperationDate":"","SEV":"nein","longitude":"11,620481","latitude":"48,13688","geojson_lng":11.620481,"geojson_lat":48.13688},"geometry":{"type":"Point","coordinates":[11.620481,48.13688]}},{"type":"Feature","properties":{"SeqNo":"104866","Type":"Q","DHID":"de:09162:20001:0:(O) 2","Parent":"de:09162:20001","Name":"(O) 2","MunicipalityCode":"00000000","Municipality":"-","DistrictCode":"-","District":"-","Description":"","Authority":"BEG","DelfiName":"-","THID":"-","LastOperationDate":"","SEV":"nein","longitude":"11,620553","latitude":"48,136856","geojson_lng":11.620553,"geojson_lat":48.136856},"geometry":{"type":"Point","coordinates":[11.620553,48.136856]}},{"type":"Feature","properties":{"SeqNo":"104867","Type":"Q","DHID":"de:09162:20001:0:/(O)","Parent":"de:09162:20001","Name":"Linienwechsel","MunicipalityCode":"00000000","Municipality":"-","DistrictCode":"-","District":"-","Description":"","Authority":"BEG","DelfiName":"-","THID":"-","LastOperationDate":"","SEV":"nein","longitude":"11,620409","latitude":"48,136886","geojson_lng":11.620409,"geojson_lat":48.136886},"geometry":{"type":"Point","coordinates":[11.620409,48.136886]}},{"type":"Feature","properties":{"SeqNo":"107799","Type":"S","DHID":"de:09162:560","Parent":"de:09162:560","Name":"Böhmerwaldplatz","MunicipalityCode":"09162000","Municipality":"München","DistrictCode":"","District":"","Description":"","Authority":"BEG","DelfiName":"-","THID":"D923CA000230","LastOperationDate":"2025-06-14T00:00:00","SEV":"nein","longitude":"11,615522","latitude":"48,14351","geojson_lng":11.615522,"geojson_lat":48.14351},"geometry":{"type":"Point","coordinates":[11.615522,48.14351]}},{"type":"Feature","properties":{"SeqNo":"107800","Type":"A","DHID":"de:09162:560:1","Parent":"de:09162:560","Name":"Bus Steig 1","MunicipalityCode":"00000000","Municipality":"-","DistrictCode":"-","District":"-","Description":"","Authority":"BEG","DelfiName":"-","THID":"-","LastOperationDate":"","SEV":"nein","longitude":"11,615477","latitude":"48,142676","geojson_lng":11.615477,"geojson_lat":48.142676},"geometry":{"type":"Point","coordinates":[11.615477,48.142676]}},{"type":"Feature","properties":{"SeqNo":"107801","Type":"A","DHID":"de:09162:560:2","Parent":"de:09162:560","Name":"Bus Steig 2","MunicipalityCode":"00000000","Municipality":"-","DistrictCode":"-","District":"-","Description":"","Authority":"BEG","DelfiName":"-","THID":"-","LastOperationDate":"","SEV":"nein","longitude":"11,615342","latitude":"48,14309","geojson_lng":11.615342,"geojson_lat":48.14309},"geometry":{"type":"Point","coordinates":[11.615342,48.14309]}},{"type":"Feature","properties":{"SeqNo":"107802","Type":"A","DHID":"de:09162:560:20","Parent":"de:09162:560","Name":"B+R Süd","MunicipalityCode":"00000000","Municipality":"-","DistrictCode":"-","District":"-","Description":"","Authority":"BEG","DelfiName":"-","THID":"-","LastOperationDate":"","SEV":"nein","longitude":"11,615908","latitude":"48,143875","geojson_lng":11.615908,"geojson_lat":48.143875},"geometry":{"type":"Point","coordinates":[11.615908,48.143875]}},{"type":"Feature","properties":{"SeqNo":"107803","Type":"A","DHID":"de:09162:560:21","Parent":"de:09162:560","Name":"B+R Nord","MunicipalityCode":"00000000","Municipality":"-","DistrictCode":"-","District":"-","Description":"","Authority":"BEG","DelfiName":"-","THID":"-","LastOperationDate":"","SEV":"nein","longitude":"11,615118","latitude":"48,14273","geojson_lng":11.615118,"geojson_lat":48.14273},"geometry":{"type":"Point","coordinates":[11.615118,48.14273]}},{"type":"Feature","properties":{"SeqNo":"107804","Type":"A","DHID":"de:09162:560:51","Parent":"de:09162:560","Name":"Steig 51+52","MunicipalityCode":"00000000","Municipality":"-","DistrictCode":"-","District":"-","Description":"","Authority":"BEG","DelfiName":"-","THID":"-","LastOperationDate":"","SEV":"nein","longitude":"11,615522","latitude":"48,14351","geojson_lng":11.615522,"geojson_lat":48.14351},"geometry":{"type":"Point","coordinates":[11.615522,48.14351]}},{"type":"Feature","properties":{"SeqNo":"107805","Type":"A","DHID":"de:09162:560:62","Parent":"de:09162:560","Name":"ZU B, Mühlbaustr FT3","MunicipalityCode":"00000000","Municipality":"-","DistrictCode":"-","District":"-","Description":"","Authority":"BEG","DelfiName":"-","THID":"-","LastOperationDate":"","SEV":"nein","longitude":"11,615019","latitude":"48,1427","geojson_lng":11.615019,"geojson_lat":48.1427},"geometry":{"type":"Point","coordinates":[11.615019,48.1427]}},{"type":"Feature","properties":{"SeqNo":"107806","Type":"A","DHID":"de:09162:560:63","Parent":"de:09162:560","Name":"ZU C, Bömrwaldpl FT5","MunicipalityCode":"00000000","Municipality":"-","DistrictCode":"-","District":"-","Description":"","Authority":"BEG","DelfiName":"-","THID":"-","LastOperationDate":"","SEV":"nein","longitude":"11,614992","latitude":"48,143252","geojson_lng":11.614992,"geojson_lat":48.143252},"geometry":{"type":"Point","coordinates":[11.614992,48.143252]}},{"type":"Feature","properties":{"SeqNo":"107807","Type":"A","DHID":"de:09162:560:65","Parent":"de:09162:560","Name":"ZU A, RicadStrau FT7","MunicipalityCode":"00000000","Municipality":"-","DistrictCode":"-","District":"-","Description":"","Authority":"BEG","DelfiName":"-","THID":"-","LastOperationDate":"","SEV":"nein","longitude":"11,615962","latitude":"48,143791","geojson_lng":11.615962,"geojson_lat":48.143791},"geometry":{"type":"Point","coordinates":[11.615962,48.143791]}},{"type":"Feature","properties":{"SeqNo":"107808","Type":"A","DHID":"de:09162:560:82","Parent":"de:09162:560","Name":"Sperre Nord","MunicipalityCode":"00000000","Municipality":"-","DistrictCode":"-","District":"-","Description":"","Authority":"BEG","DelfiName":"-","THID":"-","LastOperationDate":"","SEV":"nein","longitude":"11,615055","latitude":"48,143036","geojson_lng":11.615055,"geojson_lat":48.143036},"geometry":{"type":"Point","coordinates":[11.615055,48.143036]}},{"type":"Feature","properties":{"SeqNo":"107809","Type":"A","DHID":"de:09162:560:86","Parent":"de:09162:560","Name":"Sperre Süd","MunicipalityCode":"00000000","Municipality":"-","DistrictCode":"-","District":"-","Description":"","Authority":"BEG","DelfiName":"-","THID":"-","LastOperationDate":"","SEV":"nein","longitude":"11,615899","latitude":"48,144001","geojson_lng":11.615899,"geojson_lat":48.144001},"geometry":{"type":"Point","coordinates":[11.615899,48.144001]}},{"type":"Feature","properties":{"SeqNo":"107810","Type":"A","DHID":"de:09162:560:91","Parent":"de:09162:560","Name":"Lift 1 Oberfläche","MunicipalityCode":"00000000","Municipality":"-","DistrictCode":"-","District":"-","Description":"","Authority":"BEG","DelfiName":"-","THID":"-","LastOperationDate":"","SEV":"nein","longitude":"11,61598","latitude":"48,144091","geojson_lng":11.61598,"geojson_lat":48.144091},"geometry":{"type":"Point","coordinates":[11.61598,48.144091]}},{"type":"Feature","properties":{"SeqNo":"107811","Type":"Q","DHID":"de:09162:560:1:1","Parent":"de:09162:560:1","Name":"1","MunicipalityCode":"00000000","Municipality":"-","DistrictCode":"-","District":"-","Description":"","Authority":"BEG","DelfiName":"-","THID":"-","LastOperationDate":"","SEV":"nein","longitude":"11,615396","latitude":"48,142694","geojson_lng":11.615396,"geojson_lat":48.142694},"geometry":{"type":"Point","coordinates":[11.615396,48.142694]}},{"type":"Feature","properties":{"SeqNo":"107812","Type":"Q","DHID":"de:09162:560:2:2","Parent":"de:09162:560:2","Name":"2","MunicipalityCode":"00000000","Municipality":"-","DistrictCode":"-","District":"-","Description":"","Authority":"BEG","DelfiName":"-","THID":"-","LastOperationDate":"","SEV":"nein","longitude":"11,615441","latitude":"48,143084","geojson_lng":11.615441,"geojson_lat":48.143084},"geometry":{"type":"Point","coordinates":[11.615441,48.143084]}},{"type":"Feature","properties":{"SeqNo":"107813","Type":"Q","DHID":"de:09162:560:51:51","Parent":"de:09162:560:51","Name":"Gleis 1","MunicipalityCode":"00000000","Municipality":"-","DistrictCode":"-","District":"-","Description":"","Authority":"BEG","DelfiName":"-","THID":"-","LastOperationDate":"","SEV":"nein","longitude":"11,615468","latitude":"48,143539","geojson_lng":11.615468,"geojson_lat":48.143539},"geometry":{"type":"Point","coordinates":[11.615468,48.143539]}},{"type":"Feature","properties":{"SeqNo":"107814","Type":"Q","DHID":"de:09162:560:51:52","Parent":"de:09162:560:51","Name":"Gleis 2","MunicipalityCode":"00000000","Municipality":"-","DistrictCode":"-","District":"-","Description":"","Authority":"BEG","DelfiName":"-","THID":"-","LastOperationDate":"","SEV":"nein","longitude":"11,615594","latitude":"48,143486","geojson_lng":11.615594,"geojson_lat":48.143486},"geometry":{"type":"Point","coordinates":[11.615594,48.143486]}},{"type":"Feature","properties":{"SeqNo":"108167","Type":"S","DHID":"de:09162:612","Parent":"de:09162:612","Name":"Vogelweideplatz","MunicipalityCode":"09162000","Municipality":"München","DistrictCode":"","District":"","Description":"","Authority":"BEG","DelfiName":"-","THID":"D923CA000264","LastOperationDate":"2025-06-14T00:00:00","SEV":"nein","longitude":"11,619681","latitude":"48,137353","geojson_lng":11.619681,"geojson_lat":48.137353},"geometry":{"type":"Point","coordinates":[11.619681,48.137353]}},{"type":"Feature","properties":{"SeqNo":"108168","Type":"A","DHID":"de:09162:612:1","Parent":"de:09162:612","Name":"Steig 1","MunicipalityCode":"00000000","Municipality":"-","DistrictCode":"-","District":"-","Description":"","Authority":"BEG","DelfiName":"-","THID":"-","LastOperationDate":"","SEV":"nein","longitude":"11,619735","latitude":"48,137491","geojson_lng":11.619735,"geojson_lat":48.137491},"geometry":{"type":"Point","coordinates":[11.619735,48.137491]}},{"type":"Feature","properties":{"SeqNo":"108169","Type":"A","DHID":"de:09162:612:2","Parent":"de:09162:612","Name":"Steig 2","MunicipalityCode":"00000000","Municipality":"-","DistrictCode":"-","District":"-","Description":"","Authority":"BEG","DelfiName":"-","THID":"-","LastOperationDate":"","SEV":"nein","longitude":"11,619915","latitude":"48,137305","geojson_lng":11.619915,"geojson_lat":48.137305},"geometry":{"type":"Point","coordinates":[11.619915,48.137305]}},{"type":"Feature","properties":{"SeqNo":"108170","Type":"A","DHID":"de:09162:612:3","Parent":"de:09162:612","Name":"Steig 3+4 Planung","MunicipalityCode":"00000000","Municipality":"-","DistrictCode":"-","District":"-","Description":"","Authority":"BEG","DelfiName":"-","THID":"-","LastOperationDate":"","SEV":"nein","longitude":"11,620292","latitude":"48,137203","geojson_lng":11.620292,"geojson_lat":48.137203},"geometry":{"type":"Point","coordinates":[11.620292,48.137203]}},{"type":"Feature","properties":{"SeqNo":"108171","Type":"A","DHID":"de:09162:612:31","Parent":"de:09162:612","Name":"Steig 71","MunicipalityCode":"00000000","Municipality":"-","DistrictCode":"-","District":"-","Description":"","Authority":"BEG","DelfiName":"-","THID":"-","LastOperationDate":"","SEV":"nein","longitude":"11,621523","latitude":"48,137311","geojson_lng":11.621523,"geojson_lat":48.137311},"geometry":{"type":"Point","coordinates":[11.621523,48.137311]}},{"type":"Feature","properties":{"SeqNo":"108172","Type":"A","DHID":"de:09162:612:90","Parent":"de:09162:612","Name":"Vw O Fahrerraum","MunicipalityCode":"00000000","Municipality":"-","DistrictCode":"-","District":"-","Description":"","Authority":"BEG","DelfiName":"-","THID":"-","LastOperationDate":"","SEV":"nein","longitude":"11,62075","latitude":"48,136784","geojson_lng":11.62075,"geojson_lat":48.136784},"geometry":{"type":"Point","coordinates":[11.62075,48.136784]}},{"type":"Feature","properties":{"SeqNo":"108173","Type":"A","DHID":"de:09162:612:91","Parent":"de:09162:612","Name":"KT Fahrerraum","MunicipalityCode":"00000000","Municipality":"-","DistrictCode":"-","District":"-","Description":"","Authority":"BEG","DelfiName":"-","THID":"-","LastOperationDate":"","SEV":"nein","longitude":"11,62075","latitude":"48,136784","geojson_lng":11.62075,"geojson_lat":48.136784},"geometry":{"type":"Point","coordinates":[11.62075,48.136784]}},{"type":"Feature","properties":{"SeqNo":"108174","Type":"Q","DHID":"de:09162:612:1:1","Parent":"de:09162:612:1","Name":"1","MunicipalityCode":"00000000","Municipality":"-","DistrictCode":"-","District":"-","Description":"","Authority":"BEG","DelfiName":"-","THID":"-","LastOperationDate":"","SEV":"nein","longitude":"11,619735","latitude":"48,137491","geojson_lng":11.619735,"geojson_lat":48.137491},"geometry":{"type":"Point","coordinates":[11.619735,48.137491]}},{"type":"Feature","properties":{"SeqNo":"108175","Type":"Q","DHID":"de:09162:612:2:2","Parent":"de:09162:612:2","Name":"2","MunicipalityCode":"00000000","Municipality":"-","DistrictCode":"-","District":"-","Description":"","Authority":"BEG","DelfiName":"-","THID":"-","LastOperationDate":"","SEV":"nein","longitude":"11,619915","latitude":"48,137305","geojson_lng":11.619915,"geojson_lat":48.137305},"geometry":{"type":"Point","coordinates":[11.619915,48.137305]}},{"type":"Feature","properties":{"SeqNo":"108176","Type":"Q","DHID":"de:09162:612:3:3","Parent":"de:09162:612:3","Name":"3","MunicipalityCode":"00000000","Municipality":"-","DistrictCode":"-","District":"-","Description":"","Authority":"BEG","DelfiName":"-","THID":"-","LastOperationDate":"","SEV":"nein","longitude":"11,62022","latitude":"48,137257","geojson_lng":11.62022,"geojson_lat":48.137257},"geometry":{"type":"Point","coordinates":[11.62022,48.137257]}},{"type":"Feature","properties":{"SeqNo":"108177","Type":"Q","DHID":"de:09162:612:3:4","Parent":"de:09162:612:3","Name":"4","MunicipalityCode":"00000000","Municipality":"-","DistrictCode":"-","District":"-","Description":"","Authority":"BEG","DelfiName":"-","THID":"-","LastOperationDate":"","SEV":"nein","longitude":"11,620355","latitude":"48,137149","geojson_lng":11.620355,"geojson_lat":48.137149},"geometry":{"type":"Point","coordinates":[11.620355,48.137149]}},{"type":"Feature","properties":{"SeqNo":"108178","Type":"Q","DHID":"de:09162:612:31:71","Parent":"de:09162:612:31","Name":"71","MunicipalityCode":"00000000","Municipality":"-","DistrictCode":"-","District":"-","Description":"","Authority":"BEG","DelfiName":"-","THID":"-","LastOperationDate":"","SEV":"nein","longitude":"11,621541","latitude":"48,137317","geojson_lng":11.621541,"geojson_lat":48.137317},"geometry":{"type":"Point","coordinates":[11.621541,48.137317]}},{"type":"Feature","properties":{"SeqNo":"108508","Type":"S","DHID":"de:09162:662","Parent":"de:09162:662","Name":"Einsteinstraße","MunicipalityCode":"09162000","Municipality":"München","DistrictCode":"","District":"","Description":"","Authority":"BEG","DelfiName":"-","THID":"D923CA000296","LastOperationDate":"2025-06-14T00:00:00","SEV":"nein","longitude":"11,614678","latitude":"48,136874","geojson_lng":11.614678,"geojson_lat":48.136874},"geometry":{"type":"Point","coordinates":[11.614678,48.136874]}},{"type":"Feature","properties":{"SeqNo":"108509","Type":"A","DHID":"de:09162:662:2","Parent":"de:09162:662","Name":"Steig 1+2","MunicipalityCode":"00000000","Municipality":"-","DistrictCode":"-","District":"-","Description":"","Authority":"BEG","DelfiName":"-","THID":"-","LastOperationDate":"","SEV":"nein","longitude":"11,614193","latitude":"48,136832","geojson_lng":11.614193,"geojson_lat":48.136832},"geometry":{"type":"Point","coordinates":[11.614193,48.136832]}},{"type":"Feature","properties":{"SeqNo":"108510","Type":"A","DHID":"de:09162:662:21","Parent":"de:09162:662","Name":"101 Leuchtenb Nor","MunicipalityCode":"00000000","Municipality":"-","DistrictCode":"-","District":"-","Description":"","Authority":"BEG","DelfiName":"-","THID":"-","LastOperationDate":"","SEV":"nein","longitude":"11,614615","latitude":"48,136987","geojson_lng":11.614615,"geojson_lat":48.136987},"geometry":{"type":"Point","coordinates":[11.614615,48.136987]}},{"type":"Feature","properties":{"SeqNo":"108511","Type":"A","DHID":"de:09162:662:22","Parent":"de:09162:662","Name":"102 Leuchtenb Süd","MunicipalityCode":"00000000","Municipality":"-","DistrictCode":"-","District":"-","Description":"","Authority":"BEG","DelfiName":"-","THID":"-","LastOperationDate":"","SEV":"nein","longitude":"11,614633","latitude":"48,136676","geojson_lng":11.614633,"geojson_lat":48.136676},"geometry":{"type":"Point","coordinates":[11.614633,48.136676]}},{"type":"Feature","properties":{"SeqNo":"108513","Type":"A","DHID":"de:09162:662:31","Parent":"de:09162:662","Name":"Steig 71","MunicipalityCode":"00000000","Municipality":"-","DistrictCode":"-","District":"-","Description":"","Authority":"BEG","DelfiName":"-","THID":"-","LastOperationDate":"","SEV":"nein","longitude":"11,614121","latitude":"48,136957","geojson_lng":11.614121,"geojson_lat":48.136957},"geometry":{"type":"Point","coordinates":[11.614121,48.136957]}},{"type":"Feature","properties":{"SeqNo":"108514","Type":"A","DHID":"de:09162:662:32","Parent":"de:09162:662","Name":"Steig 72","MunicipalityCode":"00000000","Municipality":"-","DistrictCode":"-","District":"-","Description":"","Authority":"BEG","DelfiName":"-","THID":"-","LastOperationDate":"","SEV":"nein","longitude":"11,61563","latitude":"48,13679","geojson_lng":11.61563,"geojson_lat":48.13679},"geometry":{"type":"Point","coordinates":[11.61563,48.13679]}},{"type":"Feature","properties":{"SeqNo":"108515","Type":"A","DHID":"de:09162:662:6","Parent":"de:09162:662","Name":"Steig 6","MunicipalityCode":"00000000","Municipality":"-","DistrictCode":"-","District":"-","Description":"","Authority":"BEG","DelfiName":"-","THID":"-","LastOperationDate":"","SEV":"nein","longitude":"11,614992","latitude":"48,137233","geojson_lng":11.614992,"geojson_lat":48.137233},"geometry":{"type":"Point","coordinates":[11.614992,48.137233]}},{"type":"Feature","properties":{"SeqNo":"108517","Type":"Q","DHID":"de:09162:662:2:1","Parent":"de:09162:662:2","Name":"1","MunicipalityCode":"00000000","Municipality":"-","DistrictCode":"-","District":"-","Description":"","Authority":"BEG","DelfiName":"-","THID":"-","LastOperationDate":"","SEV":"nein","longitude":"11,614004","latitude":"48,136856","geojson_lng":11.614004,"geojson_lat":48.136856},"geometry":{"type":"Point","coordinates":[11.614004,48.136856]}},{"type":"Feature","properties":{"SeqNo":"108518","Type":"Q","DHID":"de:09162:662:2:2","Parent":"de:09162:662:2","Name":"2","MunicipalityCode":"00000000","Municipality":"-","DistrictCode":"-","District":"-","Description":"","Authority":"BEG","DelfiName":"-","THID":"-","LastOperationDate":"","SEV":"nein","longitude":"11,61439","latitude":"48,136808","geojson_lng":11.61439,"geojson_lat":48.136808},"geometry":{"type":"Point","coordinates":[11.61439,48.136808]}},{"type":"Feature","properties":{"SeqNo":"108520","Type":"Q","DHID":"de:09162:662:31:71","Parent":"de:09162:662:31","Name":"71","MunicipalityCode":"00000000","Municipality":"-","DistrictCode":"-","District":"-","Description":"","Authority":"BEG","DelfiName":"-","THID":"-","LastOperationDate":"","SEV":"nein","longitude":"11,614121","latitude":"48,136957","geojson_lng":11.614121,"geojson_lat":48.136957},"geometry":{"type":"Point","coordinates":[11.614121,48.136957]}},{"type":"Feature","properties":{"SeqNo":"108521","Type":"Q","DHID":"de:09162:662:32:72","Parent":"de:09162:662:32","Name":"72","MunicipalityCode":"00000000","Municipality":"-","DistrictCode":"-","District":"-","Description":"","Authority":"BEG","DelfiName":"-","THID":"-","LastOperationDate":"","SEV":"nein","longitude":"11,61563","latitude":"48,136808","geojson_lng":11.61563,"geojson_lat":48.136808},"geometry":{"type":"Point","coordinates":[11.61563,48.136808]}},{"type":"Feature","properties":{"SeqNo":"108522","Type":"Q","DHID":"de:09162:662:6:6","Parent":"de:09162:662:6","Name":"6","MunicipalityCode":"00000000","Municipality":"-","DistrictCode":"-","District":"-","Description":"","Authority":"BEG","DelfiName":"-","THID":"-","LastOperationDate":"","SEV":"nein","longitude":"11,614929","latitude":"48,137227","geojson_lng":11.614929,"geojson_lat":48.137227},"geometry":{"type":"Point","coordinates":[11.614929,48.137227]}},{"type":"Feature","properties":{"SeqNo":"108524","Type":"Q","DHID":"de:09162:662:99:5","Parent":"de:09162:662:99","Name":"5","MunicipalityCode":"00000000","Municipality":"-","DistrictCode":"-","District":"-","Description":"","Authority":"BEG","DelfiName":"-","THID":"-","LastOperationDate":"","SEV":"nein","longitude":"11,614678","latitude":"48,136874","geojson_lng":11.614678,"geojson_lat":48.136874},"geometry":{"type":"Point","coordinates":[11.614678,48.136874]}},{"type":"Feature","properties":{"SeqNo":"108525","Type":"S","DHID":"de:09162:663","Parent":"de:09162:663","Name":"Zaubzerstraße","MunicipalityCode":"09162000","Municipality":"München","DistrictCode":"","District":"","Description":"","Authority":"BEG","DelfiName":"-","THID":"D923CA000297","LastOperationDate":"2025-06-14T00:00:00","SEV":"nein","longitude":"11,614812","latitude":"48,139445","geojson_lng":11.614812,"geojson_lat":48.139445},"geometry":{"type":"Point","coordinates":[11.614812,48.139445]}},{"type":"Feature","properties":{"SeqNo":"108526","Type":"A","DHID":"de:09162:663:3","Parent":"de:09162:663","Name":"Steig 1+2","MunicipalityCode":"00000000","Municipality":"-","DistrictCode":"-","District":"-","Description":"","Authority":"BEG","DelfiName":"-","THID":"-","LastOperationDate":"","SEV":"nein","longitude":"11,614812","latitude":"48,139445","geojson_lng":11.614812,"geojson_lat":48.139445},"geometry":{"type":"Point","coordinates":[11.614812,48.139445]}},{"type":"Feature","properties":{"SeqNo":"108527","Type":"Q","DHID":"de:09162:663:3:1","Parent":"de:09162:663:3","Name":"1","MunicipalityCode":"00000000","Municipality":"-","DistrictCode":"-","District":"-","Description":"","Authority":"BEG","DelfiName":"-","THID":"-","LastOperationDate":"","SEV":"nein","longitude":"11,614848","latitude":"48,139409","geojson_lng":11.614848,"geojson_lat":48.139409},"geometry":{"type":"Point","coordinates":[11.614848,48.139409]}},{"type":"Feature","properties":{"SeqNo":"108528","Type":"Q","DHID":"de:09162:663:3:2","Parent":"de:09162:663:3","Name":"2","MunicipalityCode":"00000000","Municipality":"-","DistrictCode":"-","District":"-","Description":"","Authority":"BEG","DelfiName":"-","THID":"-","LastOperationDate":"","SEV":"nein","longitude":"11,614785","latitude":"48,139475","geojson_lng":11.614785,"geojson_lat":48.139475},"geometry":{"type":"Point","coordinates":[11.614785,48.139475]}}]}