{"type":"FeatureCollection","features":[{"type":"Feature","properties":{"SeqNo":"105477","Type":"S","DHID":"de:09162:10010","Parent":"de:09162:10010","Name":"Münchner Linien Ost","Latitude":"48,136808","Longitude":"11,619942","MunicipalityCode":"09162000","Municipality":"München","DistrictCode":"","District":"","Description":"","Authority":"BEG","DelfiName":"-","THID":"D923CA00271A","TariffProvider":"-","LastOperationDate":"1999-12-31T00:00:00","SEV":"nein","geojson_lng":11.619942,"geojson_lat":48.136808},"geometry":{"type":"Point","coordinates":[11.619942,48.136808]}},{"type":"Feature","properties":{"SeqNo":"110936","Type":"S","DHID":"de:09162:20001","Parent":"de:09162:20001","Name":"Betriebshof Ost","Latitude":"48,13676","Longitude":"11,620696","MunicipalityCode":"09162000","Municipality":"München","DistrictCode":"","District":"","Description":"","Authority":"BEG","DelfiName":"-","THID":"D923CA004E21","TariffProvider":"-","LastOperationDate":"1999-12-31T00:00:00","SEV":"nein","geojson_lng":11.620696,"geojson_lat":48.13676},"geometry":{"type":"Point","coordinates":[11.620696,48.13676]}},{"type":"Feature","properties":{"SeqNo":"110937","Type":"Q","DHID":"de:09162:20001:0:(O) 1","Parent":"de:09162:20001","Name":"(O) 1","Latitude":"48,13688","Longitude":"11,620481","MunicipalityCode":"00000000","Municipality":"-","DistrictCode":"-","District":"-","Description":"","Authority":"BEG","DelfiName":"-","THID":"-","TariffProvider":"-","LastOperationDate":"","SEV":"nein","geojson_lng":11.620481,"geojson_lat":48.13688},"geometry":{"type":"Point","coordinates":[11.620481,48.13688]}},{"type":"Feature","properties":{"SeqNo":"110938","Type":"Q","DHID":"de:09162:20001:0:(O) 2","Parent":"de:09162:20001","Name":"(O) 2","Latitude":"48,136856","Longitude":"11,620553","MunicipalityCode":"00000000","Municipality":"-","DistrictCode":"-","District":"-","Description":"","Authority":"BEG","DelfiName":"-","THID":"-","TariffProvider":"-","LastOperationDate":"","SEV":"nein","geojson_lng":11.620553,"geojson_lat":48.136856},"geometry":{"type":"Point","coordinates":[11.620553,48.136856]}},{"type":"Feature","properties":{"SeqNo":"110939","Type":"Q","DHID":"de:09162:20001:0:/(O)","Parent":"de:09162:20001","Name":"Linienwechsel","Latitude":"48,136886","Longitude":"11,620409","MunicipalityCode":"00000000","Municipality":"-","DistrictCode":"-","District":"-","Description":"","Authority":"BEG","DelfiName":"-","THID":"-","TariffProvider":"-","LastOperationDate":"","SEV":"nein","geojson_lng":11.620409,"geojson_lat":48.136886},"geometry":{"type":"Point","coordinates":[11.620409,48.136886]}},{"type":"Feature","properties":{"SeqNo":"113937","Type":"S","DHID":"de:09162:560","Parent":"de:09162:560","Name":"Böhmerwaldplatz","Latitude":"48,14351","Longitude":"11,615522","MunicipalityCode":"09162000","Municipality":"München","DistrictCode":"","District":"","Description":"","Authority":"BEG","DelfiName":"-","THID":"D923CA000230","TariffProvider":"-","LastOperationDate":"2025-12-13T00:00:00","SEV":"nein","geojson_lng":11.615522,"geojson_lat":48.14351},"geometry":{"type":"Point","coordinates":[11.615522,48.14351]}},{"type":"Feature","properties":{"SeqNo":"113938","Type":"A","DHID":"de:09162:560:1","Parent":"de:09162:560","Name":"Bus Steig 1","Latitude":"48,142676","Longitude":"11,615477","MunicipalityCode":"00000000","Municipality":"-","DistrictCode":"-","District":"-","Description":"","Authority":"BEG","DelfiName":"-","THID":"-","TariffProvider":"-","LastOperationDate":"","SEV":"nein","geojson_lng":11.615477,"geojson_lat":48.142676},"geometry":{"type":"Point","coordinates":[11.615477,48.142676]}},{"type":"Feature","properties":{"SeqNo":"113939","Type":"A","DHID":"de:09162:560:2","Parent":"de:09162:560","Name":"Bus Steig 2","Latitude":"48,14309","Longitude":"11,615342","MunicipalityCode":"00000000","Municipality":"-","DistrictCode":"-","District":"-","Description":"","Authority":"BEG","DelfiName":"-","THID":"-","TariffProvider":"-","LastOperationDate":"","SEV":"nein","geojson_lng":11.615342,"geojson_lat":48.14309},"geometry":{"type":"Point","coordinates":[11.615342,48.14309]}},{"type":"Feature","properties":{"SeqNo":"113940","Type":"A","DHID":"de:09162:560:20","Parent":"de:09162:560","Name":"B+R Süd","Latitude":"48,143875","Longitude":"11,615908","MunicipalityCode":"00000000","Municipality":"-","DistrictCode":"-","District":"-","Description":"","Authority":"BEG","DelfiName":"-","THID":"-","TariffProvider":"-","LastOperationDate":"","SEV":"nein","geojson_lng":11.615908,"geojson_lat":48.143875},"geometry":{"type":"Point","coordinates":[11.615908,48.143875]}},{"type":"Feature","properties":{"SeqNo":"113941","Type":"A","DHID":"de:09162:560:21","Parent":"de:09162:560","Name":"B+R Nord","Latitude":"48,14273","Longitude":"11,615118","MunicipalityCode":"00000000","Municipality":"-","DistrictCode":"-","District":"-","Description":"","Authority":"BEG","DelfiName":"-","THID":"-","TariffProvider":"-","LastOperationDate":"","SEV":"nein","geojson_lng":11.615118,"geojson_lat":48.14273},"geometry":{"type":"Point","coordinates":[11.615118,48.14273]}},{"type":"Feature","properties":{"SeqNo":"113942","Type":"A","DHID":"de:09162:560:51","Parent":"de:09162:560","Name":"Steig 51+52","Latitude":"48,14351","Longitude":"11,615522","MunicipalityCode":"00000000","Municipality":"-","DistrictCode":"-","District":"-","Description":"","Authority":"BEG","DelfiName":"-","THID":"-","TariffProvider":"-","LastOperationDate":"","SEV":"nein","geojson_lng":11.615522,"geojson_lat":48.14351},"geometry":{"type":"Point","coordinates":[11.615522,48.14351]}},{"type":"Feature","properties":{"SeqNo":"113943","Type":"A","DHID":"de:09162:560:62","Parent":"de:09162:560","Name":"ZU B, Mühlbaustr FT3","Latitude":"48,1427","Longitude":"11,615019","MunicipalityCode":"00000000","Municipality":"-","DistrictCode":"-","District":"-","Description":"","Authority":"BEG","DelfiName":"-","THID":"-","TariffProvider":"-","LastOperationDate":"","SEV":"nein","geojson_lng":11.615019,"geojson_lat":48.1427},"geometry":{"type":"Point","coordinates":[11.615019,48.1427]}},{"type":"Feature","properties":{"SeqNo":"113944","Type":"A","DHID":"de:09162:560:63","Parent":"de:09162:560","Name":"ZU C, Bömrwaldpl FT5","Latitude":"48,143252","Longitude":"11,614992","MunicipalityCode":"00000000","Municipality":"-","DistrictCode":"-","District":"-","Description":"","Authority":"BEG","DelfiName":"-","THID":"-","TariffProvider":"-","LastOperationDate":"","SEV":"nein","geojson_lng":11.614992,"geojson_lat":48.143252},"geometry":{"type":"Point","coordinates":[11.614992,48.143252]}},{"type":"Feature","properties":{"SeqNo":"113945","Type":"A","DHID":"de:09162:560:65","Parent":"de:09162:560","Name":"ZU A, RicadStrau FT7","Latitude":"48,143791","Longitude":"11,615962","MunicipalityCode":"00000000","Municipality":"-","DistrictCode":"-","District":"-","Description":"","Authority":"BEG","DelfiName":"-","THID":"-","TariffProvider":"-","LastOperationDate":"","SEV":"nein","geojson_lng":11.615962,"geojson_lat":48.143791},"geometry":{"type":"Point","coordinates":[11.615962,48.143791]}},{"type":"Feature","properties":{"SeqNo":"113946","Type":"A","DHID":"de:09162:560:82","Parent":"de:09162:560","Name":"Sperre Nord","Latitude":"48,143036","Longitude":"11,615055","MunicipalityCode":"00000000","Municipality":"-","DistrictCode":"-","District":"-","Description":"","Authority":"BEG","DelfiName":"-","THID":"-","TariffProvider":"-","LastOperationDate":"","SEV":"nein","geojson_lng":11.615055,"geojson_lat":48.143036},"geometry":{"type":"Point","coordinates":[11.615055,48.143036]}},{"type":"Feature","properties":{"SeqNo":"113947","Type":"A","DHID":"de:09162:560:86","Parent":"de:09162:560","Name":"Sperre Süd","Latitude":"48,144001","Longitude":"11,615899","MunicipalityCode":"00000000","Municipality":"-","DistrictCode":"-","District":"-","Description":"","Authority":"BEG","DelfiName":"-","THID":"-","TariffProvider":"-","LastOperationDate":"","SEV":"nein","geojson_lng":11.615899,"geojson_lat":48.144001},"geometry":{"type":"Point","coordinates":[11.615899,48.144001]}},{"type":"Feature","properties":{"SeqNo":"113948","Type":"A","DHID":"de:09162:560:91","Parent":"de:09162:560","Name":"Lift 1 Oberfläche","Latitude":"48,144091","Longitude":"11,61598","MunicipalityCode":"00000000","Municipality":"-","DistrictCode":"-","District":"-","Description":"","Authority":"BEG","DelfiName":"-","THID":"-","TariffProvider":"-","LastOperationDate":"","SEV":"nein","geojson_lng":11.61598,"geojson_lat":48.144091},"geometry":{"type":"Point","coordinates":[11.61598,48.144091]}},{"type":"Feature","properties":{"SeqNo":"113949","Type":"Q","DHID":"de:09162:560:1:1","Parent":"de:09162:560:1","Name":"1","Latitude":"48,142694","Longitude":"11,615396","MunicipalityCode":"00000000","Municipality":"-","DistrictCode":"-","District":"-","Description":"","Authority":"BEG","DelfiName":"-","THID":"-","TariffProvider":"-","LastOperationDate":"","SEV":"nein","geojson_lng":11.615396,"geojson_lat":48.142694},"geometry":{"type":"Point","coordinates":[11.615396,48.142694]}},{"type":"Feature","properties":{"SeqNo":"113950","Type":"Q","DHID":"de:09162:560:2:2","Parent":"de:09162:560:2","Name":"2","Latitude":"48,143084","Longitude":"11,615441","MunicipalityCode":"00000000","Municipality":"-","DistrictCode":"-","District":"-","Description":"","Authority":"BEG","DelfiName":"-","THID":"-","TariffProvider":"-","LastOperationDate":"","SEV":"nein","geojson_lng":11.615441,"geojson_lat":48.143084},"geometry":{"type":"Point","coordinates":[11.615441,48.143084]}},{"type":"Feature","properties":{"SeqNo":"113951","Type":"Q","DHID":"de:09162:560:51:51","Parent":"de:09162:560:51","Name":"Gleis 1","Latitude":"48,143539","Longitude":"11,615468","MunicipalityCode":"00000000","Municipality":"-","DistrictCode":"-","District":"-","Description":"","Authority":"BEG","DelfiName":"-","THID":"-","TariffProvider":"-","LastOperationDate":"","SEV":"nein","geojson_lng":11.615468,"geojson_lat":48.143539},"geometry":{"type":"Point","coordinates":[11.615468,48.143539]}},{"type":"Feature","properties":{"SeqNo":"113952","Type":"Q","DHID":"de:09162:560:51:52","Parent":"de:09162:560:51","Name":"Gleis 2","Latitude":"48,143486","Longitude":"11,615594","MunicipalityCode":"00000000","Municipality":"-","DistrictCode":"-","District":"-","Description":"","Authority":"BEG","DelfiName":"-","THID":"-","TariffProvider":"-","LastOperationDate":"","SEV":"nein","geojson_lng":11.615594,"geojson_lat":48.143486},"geometry":{"type":"Point","coordinates":[11.615594,48.143486]}},{"type":"Feature","properties":{"SeqNo":"114310","Type":"S","DHID":"de:09162:612","Parent":"de:09162:612","Name":"Vogelweideplatz","Latitude":"48,137353","Longitude":"11,619681","MunicipalityCode":"09162000","Municipality":"München","DistrictCode":"","District":"","Description":"","Authority":"BEG","DelfiName":"-","THID":"D923CA000264","TariffProvider":"-","LastOperationDate":"2025-12-13T00:00:00","SEV":"nein","geojson_lng":11.619681,"geojson_lat":48.137353},"geometry":{"type":"Point","coordinates":[11.619681,48.137353]}},{"type":"Feature","properties":{"SeqNo":"114311","Type":"A","DHID":"de:09162:612:1","Parent":"de:09162:612","Name":"Steig 1","Latitude":"48,137491","Longitude":"11,619735","MunicipalityCode":"00000000","Municipality":"-","DistrictCode":"-","District":"-","Description":"","Authority":"BEG","DelfiName":"-","THID":"-","TariffProvider":"-","LastOperationDate":"","SEV":"nein","geojson_lng":11.619735,"geojson_lat":48.137491},"geometry":{"type":"Point","coordinates":[11.619735,48.137491]}},{"type":"Feature","properties":{"SeqNo":"114312","Type":"A","DHID":"de:09162:612:2","Parent":"de:09162:612","Name":"Steig 2","Latitude":"48,137305","Longitude":"11,619915","MunicipalityCode":"00000000","Municipality":"-","DistrictCode":"-","District":"-","Description":"","Authority":"BEG","DelfiName":"-","THID":"-","TariffProvider":"-","LastOperationDate":"","SEV":"nein","geojson_lng":11.619915,"geojson_lat":48.137305},"geometry":{"type":"Point","coordinates":[11.619915,48.137305]}},{"type":"Feature","properties":{"SeqNo":"114313","Type":"A","DHID":"de:09162:612:3","Parent":"de:09162:612","Name":"Steig 3+4 Planung","Latitude":"48,137203","Longitude":"11,620292","MunicipalityCode":"00000000","Municipality":"-","DistrictCode":"-","District":"-","Description":"","Authority":"BEG","DelfiName":"-","THID":"-","TariffProvider":"-","LastOperationDate":"","SEV":"nein","geojson_lng":11.620292,"geojson_lat":48.137203},"geometry":{"type":"Point","coordinates":[11.620292,48.137203]}},{"type":"Feature","properties":{"SeqNo":"114314","Type":"A","DHID":"de:09162:612:31","Parent":"de:09162:612","Name":"Steig 71","Latitude":"48,137311","Longitude":"11,621523","MunicipalityCode":"00000000","Municipality":"-","DistrictCode":"-","District":"-","Description":"","Authority":"BEG","DelfiName":"-","THID":"-","TariffProvider":"-","LastOperationDate":"","SEV":"nein","geojson_lng":11.621523,"geojson_lat":48.137311},"geometry":{"type":"Point","coordinates":[11.621523,48.137311]}},{"type":"Feature","properties":{"SeqNo":"114315","Type":"A","DHID":"de:09162:612:90","Parent":"de:09162:612","Name":"Vw O Fahrerraum","Latitude":"48,136784","Longitude":"11,62075","MunicipalityCode":"00000000","Municipality":"-","DistrictCode":"-","District":"-","Description":"","Authority":"BEG","DelfiName":"-","THID":"-","TariffProvider":"-","LastOperationDate":"","SEV":"nein","geojson_lng":11.62075,"geojson_lat":48.136784},"geometry":{"type":"Point","coordinates":[11.62075,48.136784]}},{"type":"Feature","properties":{"SeqNo":"114316","Type":"A","DHID":"de:09162:612:91","Parent":"de:09162:612","Name":"KT Fahrerraum","Latitude":"48,136784","Longitude":"11,62075","MunicipalityCode":"00000000","Municipality":"-","DistrictCode":"-","District":"-","Description":"","Authority":"BEG","DelfiName":"-","THID":"-","TariffProvider":"-","LastOperationDate":"","SEV":"nein","geojson_lng":11.62075,"geojson_lat":48.136784},"geometry":{"type":"Point","coordinates":[11.62075,48.136784]}},{"type":"Feature","properties":{"SeqNo":"114317","Type":"Q","DHID":"de:09162:612:1:1","Parent":"de:09162:612:1","Name":"1","Latitude":"48,137491","Longitude":"11,619735","MunicipalityCode":"00000000","Municipality":"-","DistrictCode":"-","District":"-","Description":"","Authority":"BEG","DelfiName":"-","THID":"-","TariffProvider":"-","LastOperationDate":"","SEV":"nein","geojson_lng":11.619735,"geojson_lat":48.137491},"geometry":{"type":"Point","coordinates":[11.619735,48.137491]}},{"type":"Feature","properties":{"SeqNo":"114318","Type":"Q","DHID":"de:09162:612:2:2","Parent":"de:09162:612:2","Name":"2","Latitude":"48,137305","Longitude":"11,619915","MunicipalityCode":"00000000","Municipality":"-","DistrictCode":"-","District":"-","Description":"","Authority":"BEG","DelfiName":"-","THID":"-","TariffProvider":"-","LastOperationDate":"","SEV":"nein","geojson_lng":11.619915,"geojson_lat":48.137305},"geometry":{"type":"Point","coordinates":[11.619915,48.137305]}},{"type":"Feature","properties":{"SeqNo":"114319","Type":"Q","DHID":"de:09162:612:3:3","Parent":"de:09162:612:3","Name":"3","Latitude":"48,137257","Longitude":"11,62022","MunicipalityCode":"00000000","Municipality":"-","DistrictCode":"-","District":"-","Description":"","Authority":"BEG","DelfiName":"-","THID":"-","TariffProvider":"-","LastOperationDate":"","SEV":"nein","geojson_lng":11.62022,"geojson_lat":48.137257},"geometry":{"type":"Point","coordinates":[11.62022,48.137257]}},{"type":"Feature","properties":{"SeqNo":"114320","Type":"Q","DHID":"de:09162:612:3:4","Parent":"de:09162:612:3","Name":"4","Latitude":"48,137149","Longitude":"11,620355","MunicipalityCode":"00000000","Municipality":"-","DistrictCode":"-","District":"-","Description":"","Authority":"BEG","DelfiName":"-","THID":"-","TariffProvider":"-","LastOperationDate":"","SEV":"nein","geojson_lng":11.620355,"geojson_lat":48.137149},"geometry":{"type":"Point","coordinates":[11.620355,48.137149]}},{"type":"Feature","properties":{"SeqNo":"114321","Type":"Q","DHID":"de:09162:612:31:71","Parent":"de:09162:612:31","Name":"71","Latitude":"48,137317","Longitude":"11,621541","MunicipalityCode":"00000000","Municipality":"-","DistrictCode":"-","District":"-","Description":"","Authority":"BEG","DelfiName":"-","THID":"-","TariffProvider":"-","LastOperationDate":"","SEV":"nein","geojson_lng":11.621541,"geojson_lat":48.137317},"geometry":{"type":"Point","coordinates":[11.621541,48.137317]}},{"type":"Feature","properties":{"SeqNo":"114657","Type":"S","DHID":"de:09162:662","Parent":"de:09162:662","Name":"Einsteinstraße","Latitude":"48,136874","Longitude":"11,614678","MunicipalityCode":"09162000","Municipality":"München","DistrictCode":"","District":"","Description":"","Authority":"BEG","DelfiName":"-","THID":"D923CA000296","TariffProvider":"-","LastOperationDate":"2025-12-13T00:00:00","SEV":"nein","geojson_lng":11.614678,"geojson_lat":48.136874},"geometry":{"type":"Point","coordinates":[11.614678,48.136874]}},{"type":"Feature","properties":{"SeqNo":"114658","Type":"A","DHID":"de:09162:662:2","Parent":"de:09162:662","Name":"Steig 1+2","Latitude":"48,136832","Longitude":"11,614193","MunicipalityCode":"00000000","Municipality":"-","DistrictCode":"-","District":"-","Description":"","Authority":"BEG","DelfiName":"-","THID":"-","TariffProvider":"-","LastOperationDate":"","SEV":"nein","geojson_lng":11.614193,"geojson_lat":48.136832},"geometry":{"type":"Point","coordinates":[11.614193,48.136832]}},{"type":"Feature","properties":{"SeqNo":"114659","Type":"A","DHID":"de:09162:662:21","Parent":"de:09162:662","Name":"101 Leuchtenb Nor","Latitude":"48,136987","Longitude":"11,614615","MunicipalityCode":"00000000","Municipality":"-","DistrictCode":"-","District":"-","Description":"","Authority":"BEG","DelfiName":"-","THID":"-","TariffProvider":"-","LastOperationDate":"","SEV":"nein","geojson_lng":11.614615,"geojson_lat":48.136987},"geometry":{"type":"Point","coordinates":[11.614615,48.136987]}},{"type":"Feature","properties":{"SeqNo":"114660","Type":"A","DHID":"de:09162:662:22","Parent":"de:09162:662","Name":"102 Leuchtenb Süd","Latitude":"48,136676","Longitude":"11,614633","MunicipalityCode":"00000000","Municipality":"-","DistrictCode":"-","District":"-","Description":"","Authority":"BEG","DelfiName":"-","THID":"-","TariffProvider":"-","LastOperationDate":"","SEV":"nein","geojson_lng":11.614633,"geojson_lat":48.136676},"geometry":{"type":"Point","coordinates":[11.614633,48.136676]}},{"type":"Feature","properties":{"SeqNo":"114662","Type":"A","DHID":"de:09162:662:31","Parent":"de:09162:662","Name":"Steig 71","Latitude":"48,136957","Longitude":"11,614121","MunicipalityCode":"00000000","Municipality":"-","DistrictCode":"-","District":"-","Description":"","Authority":"BEG","DelfiName":"-","THID":"-","TariffProvider":"-","LastOperationDate":"","SEV":"nein","geojson_lng":11.614121,"geojson_lat":48.136957},"geometry":{"type":"Point","coordinates":[11.614121,48.136957]}},{"type":"Feature","properties":{"SeqNo":"114663","Type":"A","DHID":"de:09162:662:32","Parent":"de:09162:662","Name":"Steig 72","Latitude":"48,13679","Longitude":"11,61563","MunicipalityCode":"00000000","Municipality":"-","DistrictCode":"-","District":"-","Description":"","Authority":"BEG","DelfiName":"-","THID":"-","TariffProvider":"-","LastOperationDate":"","SEV":"nein","geojson_lng":11.61563,"geojson_lat":48.13679},"geometry":{"type":"Point","coordinates":[11.61563,48.13679]}},{"type":"Feature","properties":{"SeqNo":"114664","Type":"A","DHID":"de:09162:662:6","Parent":"de:09162:662","Name":"Steig 6","Latitude":"48,137233","Longitude":"11,614992","MunicipalityCode":"00000000","Municipality":"-","DistrictCode":"-","District":"-","Description":"","Authority":"BEG","DelfiName":"-","THID":"-","TariffProvider":"-","LastOperationDate":"","SEV":"nein","geojson_lng":11.614992,"geojson_lat":48.137233},"geometry":{"type":"Point","coordinates":[11.614992,48.137233]}},{"type":"Feature","properties":{"SeqNo":"114666","Type":"Q","DHID":"de:09162:662:2:1","Parent":"de:09162:662:2","Name":"1","Latitude":"48,136856","Longitude":"11,614004","MunicipalityCode":"00000000","Municipality":"-","DistrictCode":"-","District":"-","Description":"","Authority":"BEG","DelfiName":"-","THID":"-","TariffProvider":"-","LastOperationDate":"","SEV":"nein","geojson_lng":11.614004,"geojson_lat":48.136856},"geometry":{"type":"Point","coordinates":[11.614004,48.136856]}},{"type":"Feature","properties":{"SeqNo":"114667","Type":"Q","DHID":"de:09162:662:2:2","Parent":"de:09162:662:2","Name":"2","Latitude":"48,136808","Longitude":"11,61439","MunicipalityCode":"00000000","Municipality":"-","DistrictCode":"-","District":"-","Description":"","Authority":"BEG","DelfiName":"-","THID":"-","TariffProvider":"-","LastOperationDate":"","SEV":"nein","geojson_lng":11.61439,"geojson_lat":48.136808},"geometry":{"type":"Point","coordinates":[11.61439,48.136808]}},{"type":"Feature","properties":{"SeqNo":"114669","Type":"Q","DHID":"de:09162:662:31:71","Parent":"de:09162:662:31","Name":"71","Latitude":"48,136957","Longitude":"11,614121","MunicipalityCode":"00000000","Municipality":"-","DistrictCode":"-","District":"-","Description":"","Authority":"BEG","DelfiName":"-","THID":"-","TariffProvider":"-","LastOperationDate":"","SEV":"nein","geojson_lng":11.614121,"geojson_lat":48.136957},"geometry":{"type":"Point","coordinates":[11.614121,48.136957]}},{"type":"Feature","properties":{"SeqNo":"114670","Type":"Q","DHID":"de:09162:662:32:72","Parent":"de:09162:662:32","Name":"72","Latitude":"48,136808","Longitude":"11,61563","MunicipalityCode":"00000000","Municipality":"-","DistrictCode":"-","District":"-","Description":"","Authority":"BEG","DelfiName":"-","THID":"-","TariffProvider":"-","LastOperationDate":"","SEV":"nein","geojson_lng":11.61563,"geojson_lat":48.136808},"geometry":{"type":"Point","coordinates":[11.61563,48.136808]}},{"type":"Feature","properties":{"SeqNo":"114671","Type":"Q","DHID":"de:09162:662:6:6","Parent":"de:09162:662:6","Name":"6","Latitude":"48,137227","Longitude":"11,614929","MunicipalityCode":"00000000","Municipality":"-","DistrictCode":"-","District":"-","Description":"","Authority":"BEG","DelfiName":"-","THID":"-","TariffProvider":"-","LastOperationDate":"","SEV":"nein","geojson_lng":11.614929,"geojson_lat":48.137227},"geometry":{"type":"Point","coordinates":[11.614929,48.137227]}},{"type":"Feature","properties":{"SeqNo":"114673","Type":"Q","DHID":"de:09162:662:99:5","Parent":"de:09162:662:99","Name":"5","Latitude":"48,136874","Longitude":"11,614678","MunicipalityCode":"00000000","Municipality":"-","DistrictCode":"-","District":"-","Description":"","Authority":"BEG","DelfiName":"-","THID":"-","TariffProvider":"-","LastOperationDate":"","SEV":"nein","geojson_lng":11.614678,"geojson_lat":48.136874},"geometry":{"type":"Point","coordinates":[11.614678,48.136874]}},{"type":"Feature","properties":{"SeqNo":"114674","Type":"S","DHID":"de:09162:663","Parent":"de:09162:663","Name":"Zaubzerstraße","Latitude":"48,139445","Longitude":"11,614812","MunicipalityCode":"09162000","Municipality":"München","DistrictCode":"","District":"","Description":"","Authority":"BEG","DelfiName":"-","THID":"D923CA000297","TariffProvider":"-","LastOperationDate":"2025-12-13T00:00:00","SEV":"nein","geojson_lng":11.614812,"geojson_lat":48.139445},"geometry":{"type":"Point","coordinates":[11.614812,48.139445]}},{"type":"Feature","properties":{"SeqNo":"114675","Type":"A","DHID":"de:09162:663:3","Parent":"de:09162:663","Name":"Steig 1+2","Latitude":"48,139445","Longitude":"11,614812","MunicipalityCode":"00000000","Municipality":"-","DistrictCode":"-","District":"-","Description":"","Authority":"BEG","DelfiName":"-","THID":"-","TariffProvider":"-","LastOperationDate":"","SEV":"nein","geojson_lng":11.614812,"geojson_lat":48.139445},"geometry":{"type":"Point","coordinates":[11.614812,48.139445]}},{"type":"Feature","properties":{"SeqNo":"114676","Type":"Q","DHID":"de:09162:663:3:1","Parent":"de:09162:663:3","Name":"1","Latitude":"48,139409","Longitude":"11,614848","MunicipalityCode":"00000000","Municipality":"-","DistrictCode":"-","District":"-","Description":"","Authority":"BEG","DelfiName":"-","THID":"-","TariffProvider":"-","LastOperationDate":"","SEV":"nein","geojson_lng":11.614848,"geojson_lat":48.139409},"geometry":{"type":"Point","coordinates":[11.614848,48.139409]}},{"type":"Feature","properties":{"SeqNo":"114677","Type":"Q","DHID":"de:09162:663:3:2","Parent":"de:09162:663:3","Name":"2","Latitude":"48,139475","Longitude":"11,614785","MunicipalityCode":"00000000","Municipality":"-","DistrictCode":"-","District":"-","Description":"","Authority":"BEG","DelfiName":"-","THID":"-","TariffProvider":"-","LastOperationDate":"","SEV":"nein","geojson_lng":11.614785,"geojson_lat":48.139475},"geometry":{"type":"Point","coordinates":[11.614785,48.139475]}}]}