{"type":"FeatureCollection","features":[{"type":"Feature","properties":{"SeqNo":"689665","Type":"S","DHID":"de:05966:10553","Parent":"de:05966:10553","Name":"Kraghammer Bf","MunicipalityCode":"05966004","Municipality":"Attendorn","DistrictCode":"","District":"","Description":"","Authority":"VRR","DelfiName":"-","THID":"D9174E002939","LastOperationDate":"2025-06-14T00:00:00","SEV":"nein","longitude":"7,87376","latitude":"51,109134","geojson_lng":7.87376,"geojson_lat":51.109134},"geometry":{"type":"Point","coordinates":[7.87376,51.109134]}},{"type":"Feature","properties":{"SeqNo":"689666","Type":"A","DHID":"de:05966:10553:21","Parent":"de:05966:10553","Name":"Zugang","MunicipalityCode":"00000000","Municipality":"-","DistrictCode":"-","District":"-","Description":"","Authority":"VRR","DelfiName":"-","THID":"-","LastOperationDate":"","SEV":"nein","longitude":"7,873796","latitude":"51,109281","geojson_lng":7.873796,"geojson_lat":51.109281},"geometry":{"type":"Point","coordinates":[7.873796,51.109281]}},{"type":"Feature","properties":{"SeqNo":"689667","Type":"A","DHID":"de:05966:10553:89","Parent":"de:05966:10553","Name":"SEV","MunicipalityCode":"00000000","Municipality":"-","DistrictCode":"-","District":"-","Description":"","Authority":"VRR","DelfiName":"-","THID":"-","LastOperationDate":"","SEV":"nein","longitude":"7,873626","latitude":"51,110093","geojson_lng":7.873626,"geojson_lat":51.110093},"geometry":{"type":"Point","coordinates":[7.873626,51.110093]}},{"type":"Feature","properties":{"SeqNo":"689668","Type":"A","DHID":"de:05966:10553:91","Parent":"de:05966:10553","Name":"DB","MunicipalityCode":"00000000","Municipality":"-","DistrictCode":"-","District":"-","Description":"","Authority":"VRR","DelfiName":"-","THID":"-","LastOperationDate":"","SEV":"nein","longitude":"7,87376","latitude":"51,109134","geojson_lng":7.87376,"geojson_lat":51.109134},"geometry":{"type":"Point","coordinates":[7.87376,51.109134]}},{"type":"Feature","properties":{"SeqNo":"689669","Type":"Q","DHID":"de:05966:10553:89:89","Parent":"de:05966:10553:89","Name":"Hst. Ort","MunicipalityCode":"00000000","Municipality":"-","DistrictCode":"-","District":"-","Description":"","Authority":"VRR","DelfiName":"-","THID":"-","LastOperationDate":"","SEV":"nein","longitude":"7,873626","latitude":"51,110093","geojson_lng":7.873626,"geojson_lat":51.110093},"geometry":{"type":"Point","coordinates":[7.873626,51.110093]}},{"type":"Feature","properties":{"SeqNo":"689670","Type":"Q","DHID":"de:05966:10553:91:1","Parent":"de:05966:10553:91","Name":"Gleis 1 alle Richtungen","MunicipalityCode":"00000000","Municipality":"-","DistrictCode":"-","District":"-","Description":"","Authority":"VRR","DelfiName":"-","THID":"-","LastOperationDate":"","SEV":"nein","longitude":"7,87359","latitude":"51,109027","geojson_lng":7.87359,"geojson_lat":51.109027},"geometry":{"type":"Point","coordinates":[7.87359,51.109027]}},{"type":"Feature","properties":{"SeqNo":"690825","Type":"S","DHID":"de:05966:60506","Parent":"de:05966:60506","Name":"Kraghammer Ort","MunicipalityCode":"05966004","Municipality":"Attendorn","DistrictCode":"","District":"","Description":"","Authority":"VRR","DelfiName":"-","THID":"D9174E00EC5A","LastOperationDate":"2025-01-06T00:00:00","SEV":"nein","longitude":"7,873626","latitude":"51,110093","geojson_lng":7.873626,"geojson_lat":51.110093},"geometry":{"type":"Point","coordinates":[7.873626,51.110093]}},{"type":"Feature","properties":{"SeqNo":"690826","Type":"A","DHID":"de:05966:60506:1","Parent":"de:05966:60506","Name":"Ã–V","MunicipalityCode":"00000000","Municipality":"-","DistrictCode":"-","District":"-","Description":"","Authority":"VRR","DelfiName":"-","THID":"-","LastOperationDate":"","SEV":"nein","longitude":"7,873626","latitude":"51,110093","geojson_lng":7.873626,"geojson_lat":51.110093},"geometry":{"type":"Point","coordinates":[7.873626,51.110093]}},{"type":"Feature","properties":{"SeqNo":"690827","Type":"Q","DHID":"de:05966:60506:1:1","Parent":"de:05966:60506:1","Name":"Ri. Attendorn","MunicipalityCode":"00000000","Municipality":"-","DistrictCode":"-","District":"-","Description":"","Authority":"VRR","DelfiName":"-","THID":"-","LastOperationDate":"","SEV":"nein","longitude":"7,873931","latitude":"51,110166","geojson_lng":7.873931,"geojson_lat":51.110166},"geometry":{"type":"Point","coordinates":[7.873931,51.110166]}},{"type":"Feature","properties":{"SeqNo":"690828","Type":"Q","DHID":"de:05966:60506:1:2","Parent":"de:05966:60506:1","Name":"Ri. Listerscheid","MunicipalityCode":"00000000","Municipality":"-","DistrictCode":"-","District":"-","Description":"","Authority":"VRR","DelfiName":"-","THID":"-","LastOperationDate":"","SEV":"nein","longitude":"7,873275","latitude":"51,110008","geojson_lng":7.873275,"geojson_lat":51.110008},"geometry":{"type":"Point","coordinates":[7.873275,51.110008]}}]}