{"type":"FeatureCollection","features":[{"type":"Feature","properties":{"SeqNo":"57000","Type":"S","DHID":"de:08316:208","Parent":"de:08316:208","Name":"Kollmarsreute Frühlingstr.","MunicipalityCode":"08316011","Municipality":"Emmendingen","DistrictCode":"-","District":"-","Description":"","Authority":"NVBW","DelfiName":"-","THID":"D9207C0000D0","LastOperationDate":"1999-12-31T00:00:00","SEV":"nein","longitude":"7,876572","latitude":"48,102091","geojson_lng":7.876572,"geojson_lat":48.102091},"geometry":{"type":"Point","coordinates":[7.876572,48.102091]}},{"type":"Feature","properties":{"SeqNo":"57343","Type":"S","DHID":"de:08316:412","Parent":"de:08316:412","Name":"Kollmarsreute Robert-Koch-Straße","MunicipalityCode":"08316011","Municipality":"Emmendingen","DistrictCode":"-","District":"-","Description":"","Authority":"NVBW","DelfiName":"-","THID":"D9207C00019C","LastOperationDate":"2025-06-14T00:00:00","SEV":"nein","longitude":"7,875952","latitude":"48,104455","geojson_lng":7.875952,"geojson_lat":48.104455},"geometry":{"type":"Point","coordinates":[7.875952,48.104455]}},{"type":"Feature","properties":{"SeqNo":"57344","Type":"Q","DHID":"de:08316:412:0:1","Parent":"de:08316:412","Name":"Ri. Südosten (Kollmarsreute)","MunicipalityCode":"00000000","Municipality":"-","DistrictCode":"-","District":"-","Description":"","Authority":"NVBW","DelfiName":"-","THID":"-","LastOperationDate":"","SEV":"nein","longitude":"7,876105","latitude":"48,104293","geojson_lng":7.876105,"geojson_lat":48.104293},"geometry":{"type":"Point","coordinates":[7.876105,48.104293]}},{"type":"Feature","properties":{"SeqNo":"57345","Type":"Q","DHID":"de:08316:412:0:2","Parent":"de:08316:412","Name":"Ri. Nordwesten (Emmendingen)","MunicipalityCode":"00000000","Municipality":"-","DistrictCode":"-","District":"-","Description":"","Authority":"NVBW","DelfiName":"-","THID":"-","LastOperationDate":"","SEV":"nein","longitude":"7,875809","latitude":"48,104575","geojson_lng":7.875809,"geojson_lat":48.104575},"geometry":{"type":"Point","coordinates":[7.875809,48.104575]}},{"type":"Feature","properties":{"SeqNo":"57744","Type":"S","DHID":"de:08316:6249","Parent":"de:08316:6249","Name":"Emmendingen Im Jägeracker","MunicipalityCode":"08316011","Municipality":"Emmendingen","DistrictCode":"","District":"","Description":"","Authority":"NVBW","DelfiName":"-","THID":"D9207C001869","LastOperationDate":"2025-06-14T00:00:00","SEV":"nein","longitude":"7,872224","latitude":"48,106686","geojson_lng":7.872224,"geojson_lat":48.106686},"geometry":{"type":"Point","coordinates":[7.872224,48.106686]}},{"type":"Feature","properties":{"SeqNo":"57745","Type":"Q","DHID":"de:08316:6249:0:1","Parent":"de:08316:6249","Name":"Ri. Südosten (Kollmarsreute)","MunicipalityCode":"00000000","Municipality":"-","DistrictCode":"-","District":"-","Description":"","Authority":"NVBW","DelfiName":"-","THID":"-","LastOperationDate":"","SEV":"nein","longitude":"7,872736","latitude":"48,106296","geojson_lng":7.872736,"geojson_lat":48.106296},"geometry":{"type":"Point","coordinates":[7.872736,48.106296]}},{"type":"Feature","properties":{"SeqNo":"57746","Type":"Q","DHID":"de:08316:6249:0:2","Parent":"de:08316:6249","Name":"Ri. Nordwesten (Emmendingen)","MunicipalityCode":"00000000","Municipality":"-","DistrictCode":"-","District":"-","Description":"","Authority":"NVBW","DelfiName":"-","THID":"-","LastOperationDate":"","SEV":"nein","longitude":"7,871829","latitude":"48,107004","geojson_lng":7.871829,"geojson_lat":48.107004},"geometry":{"type":"Point","coordinates":[7.871829,48.107004]}},{"type":"Feature","properties":{"SeqNo":"58038","Type":"S","DHID":"de:08316:715","Parent":"de:08316:715","Name":"Emmendingen Heinrich-Heine-Str","MunicipalityCode":"08316011","Municipality":"Emmendingen","DistrictCode":"-","District":"-","Description":"","Authority":"NVBW","DelfiName":"-","THID":"D9207C0002CB","LastOperationDate":"1999-12-31T00:00:00","SEV":"nein","longitude":"7,867086","latitude":"48,106278","geojson_lng":7.867086,"geojson_lat":48.106278},"geometry":{"type":"Point","coordinates":[7.867086,48.106278]}},{"type":"Feature","properties":{"SeqNo":"58097","Type":"S","DHID":"de:08316:763","Parent":"de:08316:763","Name":"Emmending. Kollmarsreuter Str.","MunicipalityCode":"08316011","Municipality":"Emmendingen","DistrictCode":"-","District":"-","Description":"","Authority":"NVBW","DelfiName":"-","THID":"D9207C0002FB","LastOperationDate":"2024-12-14T00:00:00","SEV":"nein","longitude":"7,870751","latitude":"48,106746","geojson_lng":7.870751,"geojson_lat":48.106746},"geometry":{"type":"Point","coordinates":[7.870751,48.106746]}},{"type":"Feature","properties":{"SeqNo":"58098","Type":"A","DHID":"de:08316:763:1","Parent":"de:08316:763","Name":"Bus","MunicipalityCode":"00000000","Municipality":"-","DistrictCode":"-","District":"-","Description":"","Authority":"NVBW","DelfiName":"-","THID":"-","LastOperationDate":"","SEV":"nein","longitude":"7,870742","latitude":"48,10683","geojson_lng":7.870742,"geojson_lat":48.10683},"geometry":{"type":"Point","coordinates":[7.870742,48.10683]}},{"type":"Feature","properties":{"SeqNo":"58099","Type":"Q","DHID":"de:08316:763:1:1","Parent":"de:08316:763:1","Name":"Bussteig 1","MunicipalityCode":"00000000","Municipality":"-","DistrictCode":"-","District":"-","Description":"","Authority":"NVBW","DelfiName":"-","THID":"-","LastOperationDate":"","SEV":"nein","longitude":"7,87103","latitude":"48,106938","geojson_lng":7.87103,"geojson_lat":48.106938},"geometry":{"type":"Point","coordinates":[7.87103,48.106938]}},{"type":"Feature","properties":{"SeqNo":"58100","Type":"Q","DHID":"de:08316:763:1:2","Parent":"de:08316:763:1","Name":"Bussteig 2","MunicipalityCode":"00000000","Municipality":"-","DistrictCode":"-","District":"-","Description":"","Authority":"NVBW","DelfiName":"-","THID":"-","LastOperationDate":"","SEV":"nein","longitude":"7,870616","latitude":"48,106686","geojson_lng":7.870616,"geojson_lat":48.106686},"geometry":{"type":"Point","coordinates":[7.870616,48.106686]}},{"type":"Feature","properties":{"SeqNo":"58439","Type":"S","DHID":"de:08316:993","Parent":"de:08316:993","Name":"Emmendingen Schillerstraße","MunicipalityCode":"08316011","Municipality":"Emmendingen","DistrictCode":"-","District":"-","Description":"","Authority":"NVBW","DelfiName":"-","THID":"D9207C0003E1","LastOperationDate":"2024-12-14T00:00:00","SEV":"nein","longitude":"7,868721","latitude":"48,104545","geojson_lng":7.868721,"geojson_lat":48.104545},"geometry":{"type":"Point","coordinates":[7.868721,48.104545]}},{"type":"Feature","properties":{"SeqNo":"58440","Type":"A","DHID":"de:08316:993:1","Parent":"de:08316:993","Name":"Bus","MunicipalityCode":"00000000","Municipality":"-","DistrictCode":"-","District":"-","Description":"","Authority":"NVBW","DelfiName":"-","THID":"-","LastOperationDate":"","SEV":"nein","longitude":"7,868622","latitude":"48,104575","geojson_lng":7.868622,"geojson_lat":48.104575},"geometry":{"type":"Point","coordinates":[7.868622,48.104575]}},{"type":"Feature","properties":{"SeqNo":"58441","Type":"Q","DHID":"de:08316:993:1:1","Parent":"de:08316:993:1","Name":"Bussteig 1","MunicipalityCode":"00000000","Municipality":"-","DistrictCode":"-","District":"-","Description":"","Authority":"NVBW","DelfiName":"-","THID":"-","LastOperationDate":"","SEV":"nein","longitude":"7,868388","latitude":"48,104413","geojson_lng":7.868388,"geojson_lat":48.104413},"geometry":{"type":"Point","coordinates":[7.868388,48.104413]}},{"type":"Feature","properties":{"SeqNo":"58442","Type":"Q","DHID":"de:08316:993:1:2","Parent":"de:08316:993:1","Name":"Bussteig 2","MunicipalityCode":"00000000","Municipality":"-","DistrictCode":"-","District":"-","Description":"","Authority":"NVBW","DelfiName":"-","THID":"-","LastOperationDate":"","SEV":"nein","longitude":"7,868712","latitude":"48,104473","geojson_lng":7.868712,"geojson_lat":48.104473},"geometry":{"type":"Point","coordinates":[7.868712,48.104473]}}]}