{"type":"FeatureCollection","features":[{"type":"Feature","properties":{"SeqNo":"48127","Type":"S","DHID":"de:08235:1030","Parent":"de:08235:1030","Name":"Hirsau, Betriebshof Volz","MunicipalityCode":"08235085","Municipality":"Calw","DistrictCode":"","District":"","Description":"","Authority":"NVBW","DelfiName":"-","THID":"D9202B000406","LastOperationDate":"2025-02-28T00:00:00","SEV":"nein","longitude":"8,734014","latitude":"48,737847","geojson_lng":8.734014,"geojson_lat":48.737847},"geometry":{"type":"Point","coordinates":[8.734014,48.737847]}},{"type":"Feature","properties":{"SeqNo":"48128","Type":"Q","DHID":"de:08235:1030:0:3","Parent":"de:08235:1030","Name":"Ri. Bad Liebenzell","MunicipalityCode":"00000000","Municipality":"-","DistrictCode":"-","District":"-","Description":"","Authority":"NVBW","DelfiName":"-","THID":"-","LastOperationDate":"","SEV":"nein","longitude":"8,734014","latitude":"48,737847","geojson_lng":8.734014,"geojson_lat":48.737847},"geometry":{"type":"Point","coordinates":[8.734014,48.737847]}},{"type":"Feature","properties":{"SeqNo":"48129","Type":"Q","DHID":"de:08235:1030:0:4","Parent":"de:08235:1030","Name":"Ri. Weil der Stadt","MunicipalityCode":"00000000","Municipality":"-","DistrictCode":"-","District":"-","Description":"","Authority":"NVBW","DelfiName":"-","THID":"-","LastOperationDate":"","SEV":"nein","longitude":"8,734014","latitude":"48,737847","geojson_lng":8.734014,"geojson_lat":48.737847},"geometry":{"type":"Point","coordinates":[8.734014,48.737847]}},{"type":"Feature","properties":{"SeqNo":"48276","Type":"S","DHID":"de:08235:1045","Parent":"de:08235:1045","Name":"Hirsau, St. Aurelius","MunicipalityCode":"08235085","Municipality":"Calw","DistrictCode":"","District":"","Description":"","Authority":"NVBW","DelfiName":"-","THID":"D9202B000415","LastOperationDate":"2025-02-28T00:00:00","SEV":"nein","longitude":"8,736089","latitude":"48,73495","geojson_lng":8.736089,"geojson_lat":48.73495},"geometry":{"type":"Point","coordinates":[8.736089,48.73495]}},{"type":"Feature","properties":{"SeqNo":"48277","Type":"Q","DHID":"de:08235:1045:0:3","Parent":"de:08235:1045","Name":"Ri. Bad Liebenzell","MunicipalityCode":"00000000","Municipality":"-","DistrictCode":"-","District":"-","Description":"","Authority":"NVBW","DelfiName":"-","THID":"-","LastOperationDate":"","SEV":"nein","longitude":"8,735667","latitude":"48,734962","geojson_lng":8.735667,"geojson_lat":48.734962},"geometry":{"type":"Point","coordinates":[8.735667,48.734962]}},{"type":"Feature","properties":{"SeqNo":"48278","Type":"Q","DHID":"de:08235:1045:0:4","Parent":"de:08235:1045","Name":"Ri. Calw","MunicipalityCode":"00000000","Municipality":"-","DistrictCode":"-","District":"-","Description":"","Authority":"NVBW","DelfiName":"-","THID":"-","LastOperationDate":"","SEV":"nein","longitude":"8,735164","latitude":"48,735133","geojson_lng":8.735164,"geojson_lat":48.735133},"geometry":{"type":"Point","coordinates":[8.735164,48.735133]}},{"type":"Feature","properties":{"SeqNo":"48283","Type":"S","DHID":"de:08235:1047","Parent":"de:08235:1047","Name":"Hirsau Sportplatz","MunicipalityCode":"08235085","Municipality":"Calw","DistrictCode":"","District":"","Description":"","Authority":"NVBW","DelfiName":"-","THID":"D9202B000417","LastOperationDate":"1999-12-31T00:00:00","SEV":"nein","longitude":"8,73564","latitude":"48,736342","geojson_lng":8.73564,"geojson_lat":48.736342},"geometry":{"type":"Point","coordinates":[8.73564,48.736342]}},{"type":"Feature","properties":{"SeqNo":"48284","Type":"Q","DHID":"de:08235:1047:0:3","Parent":"de:08235:1047","Name":"","MunicipalityCode":"00000000","Municipality":"-","DistrictCode":"-","District":"-","Description":"","Authority":"NVBW","DelfiName":"-","THID":"-","LastOperationDate":"","SEV":"nein","longitude":"8,73564","latitude":"48,736342","geojson_lng":8.73564,"geojson_lat":48.736342},"geometry":{"type":"Point","coordinates":[8.73564,48.736342]}},{"type":"Feature","properties":{"SeqNo":"48285","Type":"Q","DHID":"de:08235:1047:0:4","Parent":"de:08235:1047","Name":"","MunicipalityCode":"00000000","Municipality":"-","DistrictCode":"-","District":"-","Description":"","Authority":"NVBW","DelfiName":"-","THID":"-","LastOperationDate":"","SEV":"nein","longitude":"8,73564","latitude":"48,736342","geojson_lng":8.73564,"geojson_lat":48.736342},"geometry":{"type":"Point","coordinates":[8.73564,48.736342]}}]}