{"type":"FeatureCollection","features":[{"type":"Feature","properties":{"highway":"bus_stop","public_transport":"platform","name":"Kooikersdreef","ref:IFOPT":"NL:Q:40451252","_quaycode":"NL:Q:40451252","_town":"Apeldoorn","_status":"available","_mode":"bus","_direction":155,"_visuallyAccessible":false,"_disabledAccessible":true,"geojson_lng":5.9905931352370985,"geojson_lat":52.19745423576886},"geometry":{"type":"Point","coordinates":[5.9905931352370985,52.19745423576886]}},{"type":"Feature","properties":{"highway":"bus_stop","public_transport":"platform","name":"Imkersdreef","ref:IFOPT":"NL:Q:40551178","_quaycode":"NL:Q:40551178","_town":"Apeldoorn","_status":"available","_mode":"bus","_direction":173,"_visuallyAccessible":false,"_disabledAccessible":true,"geojson_lng":5.9900662958307365,"geojson_lat":52.19959609075179},"geometry":{"type":"Point","coordinates":[5.9900662958307365,52.19959609075179]}},{"type":"Feature","properties":{"highway":"bus_stop","public_transport":"platform","name":"Imkersdreef","ref:IFOPT":"NL:Q:40551177","_quaycode":"NL:Q:40551177","_town":"Apeldoorn","_status":"available","_mode":"bus","_direction":2,"_visuallyAccessible":false,"_disabledAccessible":true,"geojson_lng":5.99046936387841,"geojson_lat":52.200196231944375},"geometry":{"type":"Point","coordinates":[5.99046936387841,52.200196231944375]}},{"type":"Feature","properties":{"highway":"bus_stop","public_transport":"platform","name":"Maasstraat","ref:IFOPT":"NL:Q:40551257","_quaycode":"NL:Q:40551257","_town":"Apeldoorn","_status":"available","_mode":"bus","_direction":331,"_visuallyAccessible":false,"_disabledAccessible":true,"geojson_lng":5.978337905256291,"geojson_lat":52.19099092154788},"geometry":{"type":"Point","coordinates":[5.978337905256291,52.19099092154788]}},{"type":"Feature","properties":{"highway":"bus_stop","public_transport":"platform","name":"Minden","ref:IFOPT":"NL:Q:40451305","_quaycode":"NL:Q:40451305","_town":"Apeldoorn","_status":"available","_mode":"bus","_direction":150,"_visuallyAccessible":false,"_disabledAccessible":false,"geojson_lng":5.995084023710513,"geojson_lat":52.188910478852456},"geometry":{"type":"Point","coordinates":[5.995084023710513,52.188910478852456]}},{"type":"Feature","properties":{"highway":"bus_stop","public_transport":"platform","name":"De Savornin Lohmanstraat","ref:IFOPT":"NL:Q:60000172","_quaycode":"NL:Q:60000172","_town":"Apeldoorn","_status":"available","_mode":"bus","_direction":187,"_visuallyAccessible":false,"_disabledAccessible":true,"geojson_lng":5.9798103667351015,"geojson_lat":52.19944131365309},"geometry":{"type":"Point","coordinates":[5.9798103667351015,52.19944131365309]}},{"type":"Feature","properties":{"highway":"bus_stop","public_transport":"platform","name":"Lekstraat","ref:IFOPT":"NL:Q:40551456","_quaycode":"NL:Q:40551456","_town":"Apeldoorn","_status":"available","_mode":"bus","_direction":259,"_visuallyAccessible":false,"_disabledAccessible":true,"geojson_lng":5.97915826482137,"geojson_lat":52.188892585480545},"geometry":{"type":"Point","coordinates":[5.97915826482137,52.188892585480545]}},{"type":"Feature","properties":{"highway":"bus_stop","public_transport":"platform","name":"Marchantstraat","ref:IFOPT":"NL:Q:60000149","_quaycode":"NL:Q:60000149","_town":"Apeldoorn","_status":"available","_mode":"bus","_direction":168,"_visuallyAccessible":false,"_disabledAccessible":false,"geojson_lng":5.977975382379053,"geojson_lat":52.19453403966602},"geometry":{"type":"Point","coordinates":[5.977975382379053,52.19453403966602]}},{"type":"Feature","properties":{"highway":"bus_stop","public_transport":"platform","name":"Lekstraat","ref:IFOPT":"NL:Q:40551455","_quaycode":"NL:Q:40551455","_town":"Apeldoorn","_status":"available","_mode":"bus","_direction":78,"_visuallyAccessible":false,"_disabledAccessible":true,"geojson_lng":5.978628974632417,"geojson_lat":52.18867952577746},"geometry":{"type":"Point","coordinates":[5.978628974632417,52.18867952577746]}},{"type":"Feature","properties":{"highway":"bus_stop","public_transport":"platform","name":"De Savornin Lohmanstraat","ref:IFOPT":"NL:Q:60000173","_quaycode":"NL:Q:60000173","_town":"Apeldoorn","_status":"available","_mode":"bus","_direction":5,"_visuallyAccessible":true,"_disabledAccessible":true,"geojson_lng":5.97990940436362,"geojson_lat":52.199189150354115},"geometry":{"type":"Point","coordinates":[5.97990940436362,52.199189150354115]}},{"type":"Feature","properties":{"highway":"bus_stop","public_transport":"platform","name":"Griffiersveld","ref:IFOPT":"NL:Q:40451153","_quaycode":"NL:Q:40451153","_town":"Apeldoorn","_status":"available","_mode":"bus","_direction":85,"_visuallyAccessible":false,"_disabledAccessible":true,"geojson_lng":5.994006022242686,"geojson_lat":52.19029120617161},"geometry":{"type":"Point","coordinates":[5.994006022242686,52.19029120617161]}},{"type":"Feature","properties":{"highway":"bus_stop","public_transport":"platform","name":"Burgersveld","ref:IFOPT":"NL:Q:40451129","_quaycode":"NL:Q:40451129","_town":"Apeldoorn","_status":"available","_mode":"bus","_direction":238,"_visuallyAccessible":false,"_disabledAccessible":true,"geojson_lng":5.99352726456883,"geojson_lat":52.19379902225768},"geometry":{"type":"Point","coordinates":[5.99352726456883,52.19379902225768]}},{"type":"Feature","properties":{"highway":"bus_stop","public_transport":"platform","name":"Kooikersdreef","ref:IFOPT":"NL:Q:40551253","_quaycode":"NL:Q:40551253","_town":"Apeldoorn","_status":"available","_mode":"bus","_direction":343,"_visuallyAccessible":false,"_disabledAccessible":true,"geojson_lng":5.99081909639344,"geojson_lat":52.19793843639235},"geometry":{"type":"Point","coordinates":[5.99081909639344,52.19793843639235]}},{"type":"Feature","properties":{"highway":"bus_stop","public_transport":"platform","name":"Schepenenveld","ref:IFOPT":"NL:Q:40451145","_quaycode":"NL:Q:40451145","_town":"Apeldoorn","_status":"available","_mode":"bus","_direction":162,"_visuallyAccessible":false,"_disabledAccessible":false,"geojson_lng":5.991811662054643,"geojson_lat":52.19131812510815},"geometry":{"type":"Point","coordinates":[5.991811662054643,52.19131812510815]}},{"type":"Feature","properties":{"highway":"bus_stop","public_transport":"platform","name":"Ferguutgaarde","ref:IFOPT":"NL:Q:40451210","_quaycode":"NL:Q:40451210","_town":"Apeldoorn","_status":"available","_mode":"bus","_direction":103,"_visuallyAccessible":false,"_disabledAccessible":false,"geojson_lng":5.99490411241292,"geojson_lat":52.19373680221156},"geometry":{"type":"Point","coordinates":[5.99490411241292,52.19373680221156]}},{"type":"Feature","properties":{"highway":"bus_stop","public_transport":"platform","name":"Ferguutgaarde","ref:IFOPT":"NL:Q:40451181","_quaycode":"NL:Q:40451181","_town":"Apeldoorn","_status":"available","_mode":"bus","_direction":283,"_visuallyAccessible":false,"_disabledAccessible":true,"geojson_lng":5.995920640163575,"geojson_lat":52.19359954940677},"geometry":{"type":"Point","coordinates":[5.995920640163575,52.19359954940677]}}]}