{"type":"FeatureCollection","features":[{"type":"Feature","properties":{"highway":"bus_stop","public_transport":"platform","name":"Lange Maat","ref:IFOPT":"NL:Q:41151020","_quaycode":"NL:Q:41151020","_town":"Westervoort","_status":"available","_mode":"bus","_direction":336,"_visuallyAccessible":true,"_disabledAccessible":true,"geojson_lng":5.9788176065812015,"geojson_lat":51.95150542312955},"geometry":{"type":"Point","coordinates":[5.9788176065812015,51.95150542312955]}},{"type":"Feature","properties":{"highway":"bus_stop","public_transport":"platform","name":"Ganzenpoel","ref:IFOPT":"NL:Q:41151030","_quaycode":"NL:Q:41151030","_town":"Westervoort","_status":"available","_mode":"bus","_direction":216,"_visuallyAccessible":true,"_disabledAccessible":true,"geojson_lng":5.977996998362398,"geojson_lat":51.94773441383527},"geometry":{"type":"Point","coordinates":[5.977996998362398,51.94773441383527]}},{"type":"Feature","properties":{"highway":"bus_stop","public_transport":"platform","name":"Engelstraat","ref:IFOPT":"NL:Q:41252180","_quaycode":"NL:Q:41252180","_town":"Duiven","_status":"available","_mode":"bus","_direction":56,"_visuallyAccessible":false,"_disabledAccessible":false,"geojson_lng":5.992339330458661,"geojson_lat":51.94454246346169},"geometry":{"type":"Point","coordinates":[5.992339330458661,51.94454246346169]}},{"type":"Feature","properties":{"highway":"bus_stop","public_transport":"platform","name":"Heilweg","ref:IFOPT":"NL:Q:41152090","_quaycode":"NL:Q:41152090","_town":"Westervoort","_status":"available","_mode":"bus","_direction":293,"_visuallyAccessible":true,"_disabledAccessible":true,"geojson_lng":5.9819515230489015,"geojson_lat":51.94759762123302},"geometry":{"type":"Point","coordinates":[5.9819515230489015,51.94759762123302]}},{"type":"Feature","properties":{"highway":"bus_stop","public_transport":"platform","name":"Engelstraat","ref:IFOPT":"NL:Q:41252170","_quaycode":"NL:Q:41252170","_town":"Duiven","_status":"available","_mode":"bus","_direction":236,"_visuallyAccessible":true,"_disabledAccessible":true,"geojson_lng":5.991975440464444,"geojson_lat":51.944527861814926},"geometry":{"type":"Point","coordinates":[5.991975440464444,51.944527861814926]}},{"type":"Feature","properties":{"highway":"bus_stop","public_transport":"platform","name":"Ganzenpoel","ref:IFOPT":"NL:Q:41151040","_quaycode":"NL:Q:41151040","_town":"Westervoort","_status":"available","_mode":"bus","_direction":43,"_visuallyAccessible":true,"_disabledAccessible":true,"geojson_lng":5.977757192982795,"geojson_lat":51.94719631355166},"geometry":{"type":"Point","coordinates":[5.977757192982795,51.94719631355166]}},{"type":"Feature","properties":{"highway":"bus_stop","public_transport":"platform","name":"Leigraaf","ref:IFOPT":"NL:Q:41150080","_quaycode":"NL:Q:41150080","_town":"Westervoort","_status":"available","_mode":"bus","_direction":28,"_visuallyAccessible":true,"_disabledAccessible":true,"geojson_lng":5.981119513693298,"geojson_lat":51.955071205503906},"geometry":{"type":"Point","coordinates":[5.981119513693298,51.955071205503906]}},{"type":"Feature","properties":{"highway":"bus_stop","public_transport":"platform","name":"Lange Maat","ref:IFOPT":"NL:Q:41151010","_quaycode":"NL:Q:41151010","_town":"Westervoort","_status":"available","_mode":"bus","_direction":182,"_visuallyAccessible":true,"_disabledAccessible":true,"geojson_lng":5.978355209310308,"geojson_lat":51.95063587283248},"geometry":{"type":"Point","coordinates":[5.978355209310308,51.95063587283248]}},{"type":"Feature","properties":{"highway":"bus_stop","public_transport":"platform","name":"Opaal","ref:IFOPT":"NL:Q:41252150","_quaycode":"NL:Q:41252150","_town":"Duiven","_status":"available","_mode":"bus","_direction":292,"_visuallyAccessible":true,"_disabledAccessible":true,"geojson_lng":5.995823348729506,"geojson_lat":51.94512669966113},"geometry":{"type":"Point","coordinates":[5.995823348729506,51.94512669966113]}},{"type":"Feature","properties":{"highway":"bus_stop","public_transport":"platform","name":"Opaal","ref:IFOPT":"NL:Q:41252160","_quaycode":"NL:Q:41252160","_town":"Duiven","_status":"available","_mode":"bus","_direction":112,"_visuallyAccessible":true,"_disabledAccessible":true,"geojson_lng":5.995851217105897,"geojson_lat":51.945036670965855},"geometry":{"type":"Point","coordinates":[5.995851217105897,51.945036670965855]}},{"type":"Feature","properties":{"highway":"bus_stop","public_transport":"platform","name":"Heilweg","ref:IFOPT":"NL:Q:41252200","_quaycode":"NL:Q:41252200","_town":"Westervoort","_status":"available","_mode":"bus","_direction":113,"_visuallyAccessible":true,"_disabledAccessible":true,"geojson_lng":5.982615197588136,"geojson_lat":51.9471897820288},"geometry":{"type":"Point","coordinates":[5.982615197588136,51.9471897820288]}},{"type":"Feature","properties":{"highway":"bus_stop","public_transport":"platform","name":"Leigraaf","ref:IFOPT":"NL:Q:41150070","_quaycode":"NL:Q:41150070","_town":"Westervoort","_status":"available","_mode":"bus","_direction":240,"_visuallyAccessible":true,"_disabledAccessible":true,"geojson_lng":5.979769817998194,"geojson_lat":51.954215128909766},"geometry":{"type":"Point","coordinates":[5.979769817998194,51.954215128909766]}}]}