{"type":"FeatureCollection","features":[{"type":"Feature","properties":{"SeqNo":"673357","Type":"S","DHID":"de:05954:2601","Parent":"de:05954:2601","Name":"Gevelsberg Nirgena","MunicipalityCode":"05954012","Municipality":"Gevelsberg","DistrictCode":"-","District":"-","Description":"","Authority":"VRR","DelfiName":"-","THID":"D91742000A29","LastOperationDate":"1999-12-31T00:00:00","SEV":"nein","longitude":"7,343","latitude":"51,320391","geojson_lng":7.343,"geojson_lat":51.320391},"geometry":{"type":"Point","coordinates":[7.343,51.320391]}},{"type":"Feature","properties":{"SeqNo":"673358","Type":"Q","DHID":"de:05954:2601:0:1","Parent":"de:05954:2601","Name":"Gleis 1","MunicipalityCode":"00000000","Municipality":"-","DistrictCode":"-","District":"-","Description":"Gleis 1","Authority":"VRR","DelfiName":"-","THID":"-","LastOperationDate":"","SEV":"nein","longitude":"7,342955","latitude":"51,320233","geojson_lng":7.342955,"geojson_lat":51.320233},"geometry":{"type":"Point","coordinates":[7.342955,51.320233]}},{"type":"Feature","properties":{"SeqNo":"674630","Type":"S","DHID":"de:05954:8025","Parent":"de:05954:8025","Name":"Gevelsberg Rathaus","MunicipalityCode":"05954012","Municipality":"Gevelsberg","DistrictCode":"","District":"","Description":"","Authority":"VRR","DelfiName":"-","THID":"D91742001F59","LastOperationDate":"2025-06-14T00:00:00","SEV":"nein","longitude":"7,341347","latitude":"51,320469","geojson_lng":7.341347,"geojson_lat":51.320469},"geometry":{"type":"Point","coordinates":[7.341347,51.320469]}},{"type":"Feature","properties":{"SeqNo":"674631","Type":"A","DHID":"de:05954:8025:1","Parent":"de:05954:8025","Name":"","MunicipalityCode":"00000000","Municipality":"-","DistrictCode":"-","District":"-","Description":"","Authority":"VRR","DelfiName":"-","THID":"-","LastOperationDate":"","SEV":"nein","longitude":"7,341329","latitude":"51,320436","geojson_lng":7.341329,"geojson_lat":51.320436},"geometry":{"type":"Point","coordinates":[7.341329,51.320436]}},{"type":"Feature","properties":{"SeqNo":"674632","Type":"Q","DHID":"de:05954:8025:0:1","Parent":"de:05954:8025:1","Name":"Ri. Gevelsberg Hbf.","MunicipalityCode":"00000000","Municipality":"-","DistrictCode":"-","District":"-","Description":"","Authority":"VRR","DelfiName":"-","THID":"-","LastOperationDate":"","SEV":"nein","longitude":"7,341311","latitude":"51,320379","geojson_lng":7.341311,"geojson_lat":51.320379},"geometry":{"type":"Point","coordinates":[7.341311,51.320379]}},{"type":"Feature","properties":{"SeqNo":"674633","Type":"Q","DHID":"de:05954:8025:0:2","Parent":"de:05954:8025:1","Name":"Ri. Ennepetal Voerde","MunicipalityCode":"00000000","Municipality":"-","DistrictCode":"-","District":"-","Description":"","Authority":"VRR","DelfiName":"-","THID":"-","LastOperationDate":"","SEV":"nein","longitude":"7,341275","latitude":"51,32048","geojson_lng":7.341275,"geojson_lat":51.32048},"geometry":{"type":"Point","coordinates":[7.341275,51.32048]}},{"type":"Feature","properties":{"SeqNo":"675799","Type":"S","DHID":"de:05954:8289","Parent":"de:05954:8289","Name":"Gevelsberg Gesundheitszentrum","MunicipalityCode":"05954012","Municipality":"Gevelsberg","DistrictCode":"","District":"","Description":"","Authority":"VRR","DelfiName":"-","THID":"D91742002061","LastOperationDate":"2025-06-14T00:00:00","SEV":"nein","longitude":"7,346081","latitude":"51,322002","geojson_lng":7.346081,"geojson_lat":51.322002},"geometry":{"type":"Point","coordinates":[7.346081,51.322002]}},{"type":"Feature","properties":{"SeqNo":"675800","Type":"A","DHID":"de:05954:8289:1","Parent":"de:05954:8289","Name":"Für Steig 1","MunicipalityCode":"00000000","Municipality":"-","DistrictCode":"-","District":"-","Description":"","Authority":"VRR","DelfiName":"-","THID":"-","LastOperationDate":"","SEV":"nein","longitude":"7,345856","latitude":"51,321755","geojson_lng":7.345856,"geojson_lat":51.321755},"geometry":{"type":"Point","coordinates":[7.345856,51.321755]}},{"type":"Feature","properties":{"SeqNo":"675801","Type":"A","DHID":"de:05954:8289:2","Parent":"de:05954:8289","Name":"Für Steig 2","MunicipalityCode":"00000000","Municipality":"-","DistrictCode":"-","District":"-","Description":"","Authority":"VRR","DelfiName":"-","THID":"-","LastOperationDate":"","SEV":"nein","longitude":"7,346539","latitude":"51,322114","geojson_lng":7.346539,"geojson_lat":51.322114},"geometry":{"type":"Point","coordinates":[7.346539,51.322114]}},{"type":"Feature","properties":{"SeqNo":"675802","Type":"Q","DHID":"de:05954:8289:0:1","Parent":"de:05954:8289:1","Name":"Ri. Gevelsberg Hbf.","MunicipalityCode":"00000000","Municipality":"-","DistrictCode":"-","District":"-","Description":"","Authority":"VRR","DelfiName":"-","THID":"-","LastOperationDate":"","SEV":"nein","longitude":"7,345865","latitude":"51,32176","geojson_lng":7.345865,"geojson_lat":51.32176},"geometry":{"type":"Point","coordinates":[7.345865,51.32176]}},{"type":"Feature","properties":{"SeqNo":"675803","Type":"Q","DHID":"de:05954:8289:0:2","Parent":"de:05954:8289:2","Name":"Ri. Haspe","MunicipalityCode":"00000000","Municipality":"-","DistrictCode":"-","District":"-","Description":"","Authority":"VRR","DelfiName":"-","THID":"-","LastOperationDate":"","SEV":"nein","longitude":"7,346503","latitude":"51,322114","geojson_lng":7.346503,"geojson_lat":51.322114},"geometry":{"type":"Point","coordinates":[7.346503,51.322114]}},{"type":"Feature","properties":{"SeqNo":"675906","Type":"Q","DHID":"de:05954:8313:2:2","Parent":"de:05954:8313:2","Name":"Ri. Hattingen","MunicipalityCode":"00000000","Municipality":"-","DistrictCode":"-","District":"-","Description":"","Authority":"VRR","DelfiName":"-","THID":"-","LastOperationDate":"","SEV":"nein","longitude":"7,339191","latitude":"51,323776","geojson_lng":7.339191,"geojson_lat":51.323776},"geometry":{"type":"Point","coordinates":[7.339191,51.323776]}},{"type":"Feature","properties":{"SeqNo":"676022","Type":"S","DHID":"de:05954:8350","Parent":"de:05954:8350","Name":"Gevelsberg Mitte","MunicipalityCode":"05954012","Municipality":"Gevelsberg","DistrictCode":"","District":"","Description":"","Authority":"VRR","DelfiName":"-","THID":"D9174200209E","LastOperationDate":"2025-06-14T00:00:00","SEV":"nein","longitude":"7,3392","latitude":"51,319268","geojson_lng":7.3392,"geojson_lat":51.319268},"geometry":{"type":"Point","coordinates":[7.3392,51.319268]}},{"type":"Feature","properties":{"SeqNo":"676023","Type":"A","DHID":"de:05954:8350:1","Parent":"de:05954:8350","Name":"","MunicipalityCode":"00000000","Municipality":"-","DistrictCode":"-","District":"-","Description":"","Authority":"VRR","DelfiName":"-","THID":"-","LastOperationDate":"","SEV":"nein","longitude":"7,339218","latitude":"51,319273","geojson_lng":7.339218,"geojson_lat":51.319273},"geometry":{"type":"Point","coordinates":[7.339218,51.319273]}},{"type":"Feature","properties":{"SeqNo":"676024","Type":"Q","DHID":"de:05954:8350:0:1","Parent":"de:05954:8350:1","Name":"Rathaus/Lehrwerkstatt","MunicipalityCode":"00000000","Municipality":"-","DistrictCode":"-","District":"-","Description":"","Authority":"VRR","DelfiName":"-","THID":"-","LastOperationDate":"","SEV":"nein","longitude":"7,339218","latitude":"51,319268","geojson_lng":7.339218,"geojson_lat":51.319268},"geometry":{"type":"Point","coordinates":[7.339218,51.319268]}},{"type":"Feature","properties":{"SeqNo":"676025","Type":"Q","DHID":"de:05954:8350:0:2","Parent":"de:05954:8350:1","Name":"Commerzb/Brüggerf.Str.","MunicipalityCode":"00000000","Municipality":"-","DistrictCode":"-","District":"-","Description":"","Authority":"VRR","DelfiName":"-","THID":"-","LastOperationDate":"","SEV":"nein","longitude":"7,339218","latitude":"51,319296","geojson_lng":7.339218,"geojson_lat":51.319296},"geometry":{"type":"Point","coordinates":[7.339218,51.319296]}},{"type":"Feature","properties":{"SeqNo":"676763","Type":"S","DHID":"de:05954:8532","Parent":"de:05954:8532","Name":"Gevelsberg Fliedner Klinik","MunicipalityCode":"05954012","Municipality":"Gevelsberg","DistrictCode":"","District":"","Description":"","Authority":"VRR","DelfiName":"-","THID":"D91742002154","LastOperationDate":"2025-06-14T00:00:00","SEV":"nein","longitude":"7,339389","latitude":"51,31769","geojson_lng":7.339389,"geojson_lat":51.31769},"geometry":{"type":"Point","coordinates":[7.339389,51.31769]}},{"type":"Feature","properties":{"SeqNo":"676764","Type":"A","DHID":"de:05954:8532:1","Parent":"de:05954:8532","Name":"Für Steig 1 Ri ZOB","MunicipalityCode":"00000000","Municipality":"-","DistrictCode":"-","District":"-","Description":"","Authority":"VRR","DelfiName":"-","THID":"-","LastOperationDate":"","SEV":"nein","longitude":"7,339353","latitude":"51,317527","geojson_lng":7.339353,"geojson_lat":51.317527},"geometry":{"type":"Point","coordinates":[7.339353,51.317527]}},{"type":"Feature","properties":{"SeqNo":"676765","Type":"A","DHID":"de:05954:8532:2","Parent":"de:05954:8532","Name":"Für Steig 2 Ri Ept.","MunicipalityCode":"00000000","Municipality":"-","DistrictCode":"-","District":"-","Description":"","Authority":"VRR","DelfiName":"-","THID":"-","LastOperationDate":"","SEV":"nein","longitude":"7,339218","latitude":"51,317651","geojson_lng":7.339218,"geojson_lat":51.317651},"geometry":{"type":"Point","coordinates":[7.339218,51.317651]}},{"type":"Feature","properties":{"SeqNo":"676766","Type":"Q","DHID":"de:05954:8532:0:1","Parent":"de:05954:8532:1","Name":"Ri ZOB","MunicipalityCode":"00000000","Municipality":"-","DistrictCode":"-","District":"-","Description":"","Authority":"VRR","DelfiName":"-","THID":"-","LastOperationDate":"","SEV":"nein","longitude":"7,339326","latitude":"51,317522","geojson_lng":7.339326,"geojson_lat":51.317522},"geometry":{"type":"Point","coordinates":[7.339326,51.317522]}},{"type":"Feature","properties":{"SeqNo":"676767","Type":"Q","DHID":"de:05954:8532:0:2","Parent":"de:05954:8532:2","Name":"Ri Ennepetal","MunicipalityCode":"00000000","Municipality":"-","DistrictCode":"-","District":"-","Description":"","Authority":"VRR","DelfiName":"-","THID":"-","LastOperationDate":"","SEV":"nein","longitude":"7,339227","latitude":"51,317651","geojson_lng":7.339227,"geojson_lat":51.317651},"geometry":{"type":"Point","coordinates":[7.339227,51.317651]}},{"type":"Feature","properties":{"SeqNo":"677066","Type":"S","DHID":"de:05954:8621","Parent":"de:05954:8621","Name":"Gevelsberg Lusebrink","MunicipalityCode":"05954012","Municipality":"Gevelsberg","DistrictCode":"","District":"","Description":"","Authority":"VRR","DelfiName":"-","THID":"D917420021AD","LastOperationDate":"2025-06-14T00:00:00","SEV":"nein","longitude":"7,341374","latitude":"51,319425","geojson_lng":7.341374,"geojson_lat":51.319425},"geometry":{"type":"Point","coordinates":[7.341374,51.319425]}},{"type":"Feature","properties":{"SeqNo":"677067","Type":"A","DHID":"de:05954:8621:1","Parent":"de:05954:8621","Name":"Bus","MunicipalityCode":"00000000","Municipality":"-","DistrictCode":"-","District":"-","Description":"","Authority":"VRR","DelfiName":"-","THID":"-","LastOperationDate":"","SEV":"nein","longitude":"7,341464","latitude":"51,319369","geojson_lng":7.341464,"geojson_lat":51.319369},"geometry":{"type":"Point","coordinates":[7.341464,51.319369]}},{"type":"Feature","properties":{"SeqNo":"677068","Type":"Q","DHID":"de:05954:8621:0:1","Parent":"de:05954:8621:1","Name":"Ri. Gevelsberg Hbf, 542 Ri. Haspe","MunicipalityCode":"00000000","Municipality":"-","DistrictCode":"-","District":"-","Description":"","Authority":"VRR","DelfiName":"-","THID":"-","LastOperationDate":"","SEV":"nein","longitude":"7,341401","latitude":"51,319425","geojson_lng":7.341401,"geojson_lat":51.319425},"geometry":{"type":"Point","coordinates":[7.341401,51.319425]}}]}