{"type":"FeatureCollection","features":[{"type":"Feature","properties":{"SeqNo":"591185","Type":"S","DHID":"de:05378:37332","Parent":"de:05378:37332","Name":"Overath Steinenbrück Kleindresbach","MunicipalityCode":"05378024","Municipality":"Overath","DistrictCode":"","District":"","Description":"","Authority":"VRR","DelfiName":"-","THID":"D915020091D4","LastOperationDate":"2025-01-06T00:00:00","SEV":"nein","longitude":"7,237223","latitude":"50,936602","geojson_lng":7.237223,"geojson_lat":50.936602},"geometry":{"type":"Point","coordinates":[7.237223,50.936602]}},{"type":"Feature","properties":{"SeqNo":"591186","Type":"A","DHID":"de:05378:37332:2","Parent":"de:05378:37332","Name":"Kleindresbach","MunicipalityCode":"00000000","Municipality":"-","DistrictCode":"-","District":"-","Description":"","Authority":"VRR","DelfiName":"-","THID":"-","LastOperationDate":"","SEV":"nein","longitude":"7,237223","latitude":"50,936602","geojson_lng":7.237223,"geojson_lat":50.936602},"geometry":{"type":"Point","coordinates":[7.237223,50.936602]}},{"type":"Feature","properties":{"SeqNo":"591187","Type":"Q","DHID":"de:05378:37332:2:21","Parent":"de:05378:37332:2","Name":"","MunicipalityCode":"00000000","Municipality":"-","DistrictCode":"-","District":"-","Description":"","Authority":"VRR","DelfiName":"-","THID":"-","LastOperationDate":"","SEV":"nein","longitude":"7,237834","latitude":"50,936794","geojson_lng":7.237834,"geojson_lat":50.936794},"geometry":{"type":"Point","coordinates":[7.237834,50.936794]}},{"type":"Feature","properties":{"SeqNo":"591188","Type":"Q","DHID":"de:05378:37332:2:22","Parent":"de:05378:37332:2","Name":"","MunicipalityCode":"00000000","Municipality":"-","DistrictCode":"-","District":"-","Description":"","Authority":"VRR","DelfiName":"-","THID":"-","LastOperationDate":"","SEV":"nein","longitude":"7,2369","latitude":"50,936506","geojson_lng":7.2369,"geojson_lat":50.936506},"geometry":{"type":"Point","coordinates":[7.2369,50.936506]}},{"type":"Feature","properties":{"SeqNo":"591447","Type":"A","DHID":"de:05378:37866:2","Parent":"de:05378:37866","Name":"Untereschbach LID","MunicipalityCode":"00000000","Municipality":"-","DistrictCode":"-","District":"-","Description":"","Authority":"VRR","DelfiName":"-","THID":"-","LastOperationDate":"","SEV":"nein","longitude":"7,229857","latitude":"50,935832","geojson_lng":7.229857,"geojson_lat":50.935832},"geometry":{"type":"Point","coordinates":[7.229857,50.935832]}},{"type":"Feature","properties":{"SeqNo":"591448","Type":"Q","DHID":"de:05378:37866:2:21","Parent":"de:05378:37866:2","Name":"","MunicipalityCode":"00000000","Municipality":"-","DistrictCode":"-","District":"-","Description":"","Authority":"VRR","DelfiName":"-","THID":"-","LastOperationDate":"","SEV":"nein","longitude":"7,229857","latitude":"50,935832","geojson_lng":7.229857,"geojson_lat":50.935832},"geometry":{"type":"Point","coordinates":[7.229857,50.935832]}},{"type":"Feature","properties":{"SeqNo":"591449","Type":"Q","DHID":"de:05378:37866:2:22","Parent":"de:05378:37866:2","Name":"","MunicipalityCode":"00000000","Municipality":"-","DistrictCode":"-","District":"-","Description":"","Authority":"VRR","DelfiName":"-","THID":"-","LastOperationDate":"","SEV":"nein","longitude":"7,229857","latitude":"50,935832","geojson_lng":7.229857,"geojson_lat":50.935832},"geometry":{"type":"Point","coordinates":[7.229857,50.935832]}},{"type":"Feature","properties":{"SeqNo":"591454","Type":"S","DHID":"de:05378:37868","Parent":"de:05378:37868","Name":"Großdresbach,Steinenbrück","MunicipalityCode":"05378024","Municipality":"Overath","DistrictCode":"","District":"","Description":"","Authority":"VRR","DelfiName":"-","THID":"D915020093EC","LastOperationDate":"1999-12-31T00:00:00","SEV":"nein","longitude":"7,236981","latitude":"50,934564","geojson_lng":7.236981,"geojson_lat":50.934564},"geometry":{"type":"Point","coordinates":[7.236981,50.934564]}}]}