{"type":"FeatureCollection","features":[{"type":"Feature","properties":{"SeqNo":"849387","Type":"S","DHID":"de:14625:7955","Parent":"de:14625:7955","Name":"Waditz Abzw nach Waditz","MunicipalityCode":"14625290","Municipality":"Kubschütz","DistrictCode":"","District":"","Description":"","Authority":"VVO","DelfiName":"Waditz, Abzw nach Waditz","THID":"D93921001F13","LastOperationDate":"2025-06-14T00:00:00","SEV":"nein","longitude":"14,524851","latitude":"51,158593","geojson_lng":14.524851,"geojson_lat":51.158593},"geometry":{"type":"Point","coordinates":[14.524851,51.158593]}},{"type":"Feature","properties":{"SeqNo":"849388","Type":"Q","DHID":"de:14625:7955:0:1","Parent":"de:14625:7955","Name":"Ri. Löbau","MunicipalityCode":"00000000","Municipality":"-","DistrictCode":"-","District":"-","Description":"","Authority":"VVO","DelfiName":"-","THID":"-","LastOperationDate":"","SEV":"nein","longitude":"14,524527","latitude":"51,15866","geojson_lng":14.524527,"geojson_lat":51.15866},"geometry":{"type":"Point","coordinates":[14.524527,51.15866]}},{"type":"Feature","properties":{"SeqNo":"849389","Type":"Q","DHID":"de:14625:7955:0:2","Parent":"de:14625:7955","Name":"Ri. Bautzen","MunicipalityCode":"00000000","Municipality":"-","DistrictCode":"-","District":"-","Description":"","Authority":"VVO","DelfiName":"-","THID":"-","LastOperationDate":"","SEV":"nein","longitude":"14,525102","latitude":"51,158593","geojson_lng":14.525102,"geojson_lat":51.158593},"geometry":{"type":"Point","coordinates":[14.525102,51.158593]}},{"type":"Feature","properties":{"SeqNo":"849390","Type":"S","DHID":"de:14625:7956","Parent":"de:14625:7956","Name":"Waditz","MunicipalityCode":"14625290","Municipality":"Kubschütz","DistrictCode":"","District":"","Description":"","Authority":"VVO","DelfiName":"Waditz, Waditz","THID":"D93921001F14","LastOperationDate":"1999-12-31T00:00:00","SEV":"nein","longitude":"14,531777","latitude":"51,160959","geojson_lng":14.531777,"geojson_lat":51.160959},"geometry":{"type":"Point","coordinates":[14.531777,51.160959]}},{"type":"Feature","properties":{"SeqNo":"849391","Type":"Q","DHID":"de:14625:7956:0:1","Parent":"de:14625:7956","Name":"1","MunicipalityCode":"00000000","Municipality":"-","DistrictCode":"-","District":"-","Description":"","Authority":"VVO","DelfiName":"-","THID":"-","LastOperationDate":"","SEV":"nein","longitude":"14,531894","latitude":"51,161043","geojson_lng":14.531894,"geojson_lat":51.161043},"geometry":{"type":"Point","coordinates":[14.531894,51.161043]}},{"type":"Feature","properties":{"SeqNo":"849392","Type":"Q","DHID":"de:14625:7956:0:2","Parent":"de:14625:7956","Name":"2","MunicipalityCode":"00000000","Municipality":"-","DistrictCode":"-","District":"-","Description":"","Authority":"VVO","DelfiName":"-","THID":"-","LastOperationDate":"","SEV":"nein","longitude":"14,531849","latitude":"51,161038","geojson_lng":14.531849,"geojson_lat":51.161038},"geometry":{"type":"Point","coordinates":[14.531849,51.161038]}}]}