{"type":"FeatureCollection","features":[{"type":"Feature","properties":{"SeqNo":"808068","Type":"S","DHID":"de:08225:6155","Parent":"de:08225:6155","Name":"Sennfeld, Bahnhof","Latitude":"49,378923","Longitude":"9,38116","MunicipalityCode":"08225001","Municipality":"Adelsheim","DistrictCode":"-","District":"-","Description":"","Authority":"VRN","DelfiName":"-","THID":"D9202100180B","TariffProvider":"-","LastOperationDate":"2025-12-12T00:00:00","SEV":"nein","geojson_lng":9.38116,"geojson_lat":49.378923},"geometry":{"type":"Point","coordinates":[9.38116,49.378923]}},{"type":"Feature","properties":{"SeqNo":"808069","Type":"A","DHID":"de:08225:6155:1","Parent":"de:08225:6155","Name":"Gleis 1","Latitude":"49,378812","Longitude":"9,380478","MunicipalityCode":"00000000","Municipality":"-","DistrictCode":"-","District":"-","Description":"Gleis 1","Authority":"VRN","DelfiName":"-","THID":"-","TariffProvider":"-","LastOperationDate":"","SEV":"nein","geojson_lng":9.380478,"geojson_lat":49.378812},"geometry":{"type":"Point","coordinates":[9.380478,49.378812]}},{"type":"Feature","properties":{"SeqNo":"808070","Type":"A","DHID":"de:08225:6155:2","Parent":"de:08225:6155","Name":"Bus","Latitude":"49,378835","Longitude":"9,381592","MunicipalityCode":"00000000","Municipality":"-","DistrictCode":"-","District":"-","Description":"Bus","Authority":"VRN","DelfiName":"-","THID":"-","TariffProvider":"-","LastOperationDate":"","SEV":"nein","geojson_lng":9.381592,"geojson_lat":49.378835},"geometry":{"type":"Point","coordinates":[9.381592,49.378835]}},{"type":"Feature","properties":{"SeqNo":"808072","Type":"A","DHID":"de:08225:6155:80","Parent":"de:08225:6155","Name":"P+R","Latitude":"49,378952","Longitude":"9,381044","MunicipalityCode":"00000000","Municipality":"-","DistrictCode":"-","District":"-","Description":"","Authority":"VRN","DelfiName":"-","THID":"-","TariffProvider":"-","LastOperationDate":"","SEV":"nein","geojson_lng":9.381044,"geojson_lat":49.378952},"geometry":{"type":"Point","coordinates":[9.381044,49.378952]}},{"type":"Feature","properties":{"SeqNo":"808073","Type":"A","DHID":"de:08225:6155:81","Parent":"de:08225:6155","Name":"B+R","Latitude":"49,378946","Longitude":"9,381367","MunicipalityCode":"00000000","Municipality":"-","DistrictCode":"-","District":"-","Description":"","Authority":"VRN","DelfiName":"-","THID":"-","TariffProvider":"-","LastOperationDate":"","SEV":"nein","geojson_lng":9.381367,"geojson_lat":49.378946},"geometry":{"type":"Point","coordinates":[9.381367,49.378946]}},{"type":"Feature","properties":{"SeqNo":"808074","Type":"A","DHID":"de:08225:6155:90","Parent":"de:08225:6155","Name":"Eingang","Latitude":"49,378759","Longitude":"9,381628","MunicipalityCode":"00000000","Municipality":"-","DistrictCode":"-","District":"-","Description":"Eingang","Authority":"VRN","DelfiName":"-","THID":"-","TariffProvider":"-","LastOperationDate":"","SEV":"nein","geojson_lng":9.381628,"geojson_lat":49.378759},"geometry":{"type":"Point","coordinates":[9.381628,49.378759]}},{"type":"Feature","properties":{"SeqNo":"808075","Type":"Q","DHID":"de:08225:6155:1:1","Parent":"de:08225:6155:1","Name":"Gleis 1","Latitude":"49,378777","Longitude":"9,380478","MunicipalityCode":"00000000","Municipality":"-","DistrictCode":"-","District":"-","Description":"Gleis 1","Authority":"VRN","DelfiName":"-","THID":"-","TariffProvider":"-","LastOperationDate":"","SEV":"nein","geojson_lng":9.380478,"geojson_lat":49.378777},"geometry":{"type":"Point","coordinates":[9.380478,49.378777]}},{"type":"Feature","properties":{"SeqNo":"808076","Type":"Q","DHID":"de:08225:6155:2:2","Parent":"de:08225:6155:2","Name":"2","Latitude":"49,37866","Longitude":"9,381915","MunicipalityCode":"00000000","Municipality":"-","DistrictCode":"-","District":"-","Description":"","Authority":"VRN","DelfiName":"-","THID":"-","TariffProvider":"-","LastOperationDate":"","SEV":"nein","geojson_lng":9.381915,"geojson_lat":49.37866},"geometry":{"type":"Point","coordinates":[9.381915,49.37866]}},{"type":"Feature","properties":{"SeqNo":"808077","Type":"Q","DHID":"de:08225:6155:2:GeoS1","Parent":"de:08225:6155:2","Name":"Bus","Latitude":"49,379017","Longitude":"9,381259","MunicipalityCode":"00000000","Municipality":"-","DistrictCode":"-","District":"-","Description":"Bus","Authority":"VRN","DelfiName":"-","THID":"-","TariffProvider":"-","LastOperationDate":"","SEV":"nein","geojson_lng":9.381259,"geojson_lat":49.379017},"geometry":{"type":"Point","coordinates":[9.381259,49.379017]}}]}