{"type":"FeatureCollection","features":[{"type":"Feature","properties":{"SeqNo":"780247","Type":"S","DHID":"de:08225:6155","Parent":"de:08225:6155","Name":"Sennfeld, Bahnhof","MunicipalityCode":"08225001","Municipality":"Adelsheim","DistrictCode":"-","District":"-","Description":"","Authority":"VRN","DelfiName":"-","THID":"D9202100180B","LastOperationDate":"2025-06-13T00:00:00","SEV":"nein","longitude":"9,38116","latitude":"49,378923","geojson_lng":9.38116,"geojson_lat":49.378923},"geometry":{"type":"Point","coordinates":[9.38116,49.378923]}},{"type":"Feature","properties":{"SeqNo":"780248","Type":"A","DHID":"de:08225:6155:1","Parent":"de:08225:6155","Name":"Gleis 1","MunicipalityCode":"00000000","Municipality":"-","DistrictCode":"-","District":"-","Description":"Gleis 1","Authority":"VRN","DelfiName":"-","THID":"-","LastOperationDate":"","SEV":"nein","longitude":"9,380478","latitude":"49,378812","geojson_lng":9.380478,"geojson_lat":49.378812},"geometry":{"type":"Point","coordinates":[9.380478,49.378812]}},{"type":"Feature","properties":{"SeqNo":"780249","Type":"A","DHID":"de:08225:6155:2","Parent":"de:08225:6155","Name":"Bus","MunicipalityCode":"00000000","Municipality":"-","DistrictCode":"-","District":"-","Description":"Bus","Authority":"VRN","DelfiName":"-","THID":"-","LastOperationDate":"","SEV":"nein","longitude":"9,381592","latitude":"49,378835","geojson_lng":9.381592,"geojson_lat":49.378835},"geometry":{"type":"Point","coordinates":[9.381592,49.378835]}},{"type":"Feature","properties":{"SeqNo":"780251","Type":"A","DHID":"de:08225:6155:80","Parent":"de:08225:6155","Name":"P+R","MunicipalityCode":"00000000","Municipality":"-","DistrictCode":"-","District":"-","Description":"","Authority":"VRN","DelfiName":"-","THID":"-","LastOperationDate":"","SEV":"nein","longitude":"9,381044","latitude":"49,378952","geojson_lng":9.381044,"geojson_lat":49.378952},"geometry":{"type":"Point","coordinates":[9.381044,49.378952]}},{"type":"Feature","properties":{"SeqNo":"780252","Type":"A","DHID":"de:08225:6155:81","Parent":"de:08225:6155","Name":"B+R","MunicipalityCode":"00000000","Municipality":"-","DistrictCode":"-","District":"-","Description":"","Authority":"VRN","DelfiName":"-","THID":"-","LastOperationDate":"","SEV":"nein","longitude":"9,381367","latitude":"49,378946","geojson_lng":9.381367,"geojson_lat":49.378946},"geometry":{"type":"Point","coordinates":[9.381367,49.378946]}},{"type":"Feature","properties":{"SeqNo":"780253","Type":"A","DHID":"de:08225:6155:90","Parent":"de:08225:6155","Name":"Eingang","MunicipalityCode":"00000000","Municipality":"-","DistrictCode":"-","District":"-","Description":"Eingang","Authority":"VRN","DelfiName":"-","THID":"-","LastOperationDate":"","SEV":"nein","longitude":"9,381628","latitude":"49,378759","geojson_lng":9.381628,"geojson_lat":49.378759},"geometry":{"type":"Point","coordinates":[9.381628,49.378759]}},{"type":"Feature","properties":{"SeqNo":"780254","Type":"Q","DHID":"de:08225:6155:1:1","Parent":"de:08225:6155:1","Name":"Gleis 1","MunicipalityCode":"00000000","Municipality":"-","DistrictCode":"-","District":"-","Description":"Gleis 1","Authority":"VRN","DelfiName":"-","THID":"-","LastOperationDate":"","SEV":"nein","longitude":"9,380478","latitude":"49,378777","geojson_lng":9.380478,"geojson_lat":49.378777},"geometry":{"type":"Point","coordinates":[9.380478,49.378777]}},{"type":"Feature","properties":{"SeqNo":"780255","Type":"Q","DHID":"de:08225:6155:2:2","Parent":"de:08225:6155:2","Name":"2","MunicipalityCode":"00000000","Municipality":"-","DistrictCode":"-","District":"-","Description":"","Authority":"VRN","DelfiName":"-","THID":"-","LastOperationDate":"","SEV":"nein","longitude":"9,381915","latitude":"49,37866","geojson_lng":9.381915,"geojson_lat":49.37866},"geometry":{"type":"Point","coordinates":[9.381915,49.37866]}},{"type":"Feature","properties":{"SeqNo":"780256","Type":"Q","DHID":"de:08225:6155:2:GeoS1","Parent":"de:08225:6155:2","Name":"Bus","MunicipalityCode":"00000000","Municipality":"-","DistrictCode":"-","District":"-","Description":"Bus","Authority":"VRN","DelfiName":"-","THID":"-","LastOperationDate":"","SEV":"nein","longitude":"9,381259","latitude":"49,379017","geojson_lng":9.381259,"geojson_lat":49.379017},"geometry":{"type":"Point","coordinates":[9.381259,49.379017]}}]}