{"type":"FeatureCollection","features":[{"type":"Feature","properties":{"SeqNo":"74800","Type":"S","DHID":"de:08415:21513","Parent":"de:08415:21513","Name":"Bad Urach Thermalbad","MunicipalityCode":"08415078","Municipality":"Bad Urach","DistrictCode":"-","District":"-","Description":"","Authority":"NVBW","DelfiName":"-","THID":"D920DF005409","LastOperationDate":"2025-06-14T00:00:00","SEV":"nein","longitude":"9,376866","latitude":"48,502233","geojson_lng":9.376866,"geojson_lat":48.502233},"geometry":{"type":"Point","coordinates":[9.376866,48.502233]}},{"type":"Feature","properties":{"SeqNo":"74801","Type":"Q","DHID":"de:08415:21513:0:1","Parent":"de:08415:21513","Name":"1","MunicipalityCode":"00000000","Municipality":"-","DistrictCode":"-","District":"-","Description":"FR Bad Urach Bf/Marktplatz/Dettingen","Authority":"NVBW","DelfiName":"-","THID":"-","LastOperationDate":"","SEV":"nein","longitude":"9,376813","latitude":"48,502305","geojson_lng":9.376813,"geojson_lat":48.502305},"geometry":{"type":"Point","coordinates":[9.376813,48.502305]}},{"type":"Feature","properties":{"SeqNo":"74802","Type":"Q","DHID":"de:08415:21513:0:2","Parent":"de:08415:21513","Name":"2","MunicipalityCode":"00000000","Municipality":"-","DistrictCode":"-","District":"-","Description":"FR Bad Urach Gymnasium","Authority":"NVBW","DelfiName":"-","THID":"-","LastOperationDate":"","SEV":"nein","longitude":"9,37692","latitude":"48,50237","geojson_lng":9.37692,"geojson_lat":48.50237},"geometry":{"type":"Point","coordinates":[9.37692,48.50237]}},{"type":"Feature","properties":{"SeqNo":"75358","Type":"S","DHID":"de:08415:28113","Parent":"de:08415:28113","Name":"Bad Urach Im Kolzental","MunicipalityCode":"08415078","Municipality":"Bad Urach","DistrictCode":"-","District":"-","Description":"","Authority":"NVBW","DelfiName":"-","THID":"D920DF006DD1","LastOperationDate":"2025-06-14T00:00:00","SEV":"nein","longitude":"9,377567","latitude":"48,507501","geojson_lng":9.377567,"geojson_lat":48.507501},"geometry":{"type":"Point","coordinates":[9.377567,48.507501]}},{"type":"Feature","properties":{"SeqNo":"75359","Type":"Q","DHID":"de:08415:28113:0:1","Parent":"de:08415:28113","Name":"1","MunicipalityCode":"00000000","Municipality":"-","DistrictCode":"-","District":"-","Description":"FR Bad Urach Bf","Authority":"NVBW","DelfiName":"-","THID":"-","LastOperationDate":"","SEV":"nein","longitude":"9,377495","latitude":"48,507286","geojson_lng":9.377495,"geojson_lat":48.507286},"geometry":{"type":"Point","coordinates":[9.377495,48.507286]}},{"type":"Feature","properties":{"SeqNo":"75360","Type":"Q","DHID":"de:08415:28113:0:2","Parent":"de:08415:28113","Name":"2","MunicipalityCode":"00000000","Municipality":"-","DistrictCode":"-","District":"-","Description":"FR Bad Urach Breitenstein","Authority":"NVBW","DelfiName":"-","THID":"-","LastOperationDate":"","SEV":"nein","longitude":"9,377576","latitude":"48,507328","geojson_lng":9.377576,"geojson_lat":48.507328},"geometry":{"type":"Point","coordinates":[9.377576,48.507328]}},{"type":"Feature","properties":{"SeqNo":"75361","Type":"S","DHID":"de:08415:28114","Parent":"de:08415:28114","Name":"Bad Urach Hangweg","MunicipalityCode":"08415078","Municipality":"Bad Urach","DistrictCode":"-","District":"-","Description":"","Authority":"NVBW","DelfiName":"-","THID":"D920DF006DD2","LastOperationDate":"2025-06-14T00:00:00","SEV":"nein","longitude":"9,379022","latitude":"48,507066","geojson_lng":9.379022,"geojson_lat":48.507066},"geometry":{"type":"Point","coordinates":[9.379022,48.507066]}},{"type":"Feature","properties":{"SeqNo":"75362","Type":"Q","DHID":"de:08415:28114:0:1","Parent":"de:08415:28114","Name":"1","MunicipalityCode":"00000000","Municipality":"-","DistrictCode":"-","District":"-","Description":"FR Bad Urach Schönblick","Authority":"NVBW","DelfiName":"-","THID":"-","LastOperationDate":"","SEV":"nein","longitude":"9,378986","latitude":"48,507084","geojson_lng":9.378986,"geojson_lat":48.507084},"geometry":{"type":"Point","coordinates":[9.378986,48.507084]}},{"type":"Feature","properties":{"SeqNo":"75363","Type":"Q","DHID":"de:08415:28114:0:2","Parent":"de:08415:28114","Name":"2","MunicipalityCode":"00000000","Municipality":"-","DistrictCode":"-","District":"-","Description":"FR Bad Urach Im Kolzental","Authority":"NVBW","DelfiName":"-","THID":"-","LastOperationDate":"","SEV":"nein","longitude":"9,379067","latitude":"48,50709","geojson_lng":9.379067,"geojson_lat":48.50709},"geometry":{"type":"Point","coordinates":[9.379067,48.50709]}},{"type":"Feature","properties":{"SeqNo":"75364","Type":"S","DHID":"de:08415:28115","Parent":"de:08415:28115","Name":"Bad Urach Eichhaldestraße","MunicipalityCode":"08415078","Municipality":"Bad Urach","DistrictCode":"","District":"","Description":"","Authority":"NVBW","DelfiName":"-","THID":"D920DF006DD3","LastOperationDate":"2025-06-14T00:00:00","SEV":"nein","longitude":"9,379732","latitude":"48,503924","geojson_lng":9.379732,"geojson_lat":48.503924},"geometry":{"type":"Point","coordinates":[9.379732,48.503924]}},{"type":"Feature","properties":{"SeqNo":"75365","Type":"Q","DHID":"de:08415:28115:0:0","Parent":"de:08415:28115","Name":"alle Richtungen","MunicipalityCode":"00000000","Municipality":"-","DistrictCode":"-","District":"-","Description":"","Authority":"NVBW","DelfiName":"-","THID":"-","LastOperationDate":"","SEV":"nein","longitude":"9,379624","latitude":"48,504001","geojson_lng":9.379624,"geojson_lat":48.504001},"geometry":{"type":"Point","coordinates":[9.379624,48.504001]}},{"type":"Feature","properties":{"SeqNo":"75366","Type":"Q","DHID":"de:08415:28115:0:1","Parent":"de:08415:28115","Name":"FR Bad Urach Breitenstein","MunicipalityCode":"00000000","Municipality":"-","DistrictCode":"-","District":"-","Description":"","Authority":"NVBW","DelfiName":"-","THID":"-","LastOperationDate":"","SEV":"nein","longitude":"9,37966","latitude":"48,503995","geojson_lng":9.37966,"geojson_lat":48.503995},"geometry":{"type":"Point","coordinates":[9.37966,48.503995]}},{"type":"Feature","properties":{"SeqNo":"75367","Type":"Q","DHID":"de:08415:28115:0:2","Parent":"de:08415:28115","Name":"FR Bad Urach Im Kolzental","MunicipalityCode":"00000000","Municipality":"-","DistrictCode":"-","District":"-","Description":"","Authority":"NVBW","DelfiName":"-","THID":"-","LastOperationDate":"","SEV":"nein","longitude":"9,379732","latitude":"48,504031","geojson_lng":9.379732,"geojson_lat":48.504031},"geometry":{"type":"Point","coordinates":[9.379732,48.504031]}},{"type":"Feature","properties":{"SeqNo":"75368","Type":"S","DHID":"de:08415:28116","Parent":"de:08415:28116","Name":"Bad Urach Am Schönblick","MunicipalityCode":"08415078","Municipality":"Bad Urach","DistrictCode":"-","District":"-","Description":"","Authority":"NVBW","DelfiName":"-","THID":"D920DF006DD4","LastOperationDate":"2025-06-14T00:00:00","SEV":"nein","longitude":"9,381421","latitude":"48,503816","geojson_lng":9.381421,"geojson_lat":48.503816},"geometry":{"type":"Point","coordinates":[9.381421,48.503816]}},{"type":"Feature","properties":{"SeqNo":"75369","Type":"Q","DHID":"de:08415:28116:0:0","Parent":"de:08415:28116","Name":"0","MunicipalityCode":"00000000","Municipality":"-","DistrictCode":"-","District":"-","Description":"Alle Richtungen","Authority":"NVBW","DelfiName":"-","THID":"-","LastOperationDate":"","SEV":"nein","longitude":"9,381493","latitude":"48,503745","geojson_lng":9.381493,"geojson_lat":48.503745},"geometry":{"type":"Point","coordinates":[9.381493,48.503745]}},{"type":"Feature","properties":{"SeqNo":"75375","Type":"S","DHID":"de:08415:28119","Parent":"de:08415:28119","Name":"Bad Urach Kurmittelhaus","MunicipalityCode":"08415078","Municipality":"Bad Urach","DistrictCode":"-","District":"-","Description":"","Authority":"NVBW","DelfiName":"-","THID":"D920DF006DD7","LastOperationDate":"2025-06-14T00:00:00","SEV":"nein","longitude":"9,377361","latitude":"48,505066","geojson_lng":9.377361,"geojson_lat":48.505066},"geometry":{"type":"Point","coordinates":[9.377361,48.505066]}},{"type":"Feature","properties":{"SeqNo":"75376","Type":"Q","DHID":"de:08415:28119:0:1","Parent":"de:08415:28119","Name":"1","MunicipalityCode":"00000000","Municipality":"-","DistrictCode":"-","District":"-","Description":"FR Bad Urach Marktplatz","Authority":"NVBW","DelfiName":"-","THID":"-","LastOperationDate":"","SEV":"nein","longitude":"9,377387","latitude":"48,505013","geojson_lng":9.377387,"geojson_lat":48.505013},"geometry":{"type":"Point","coordinates":[9.377387,48.505013]}},{"type":"Feature","properties":{"SeqNo":"75377","Type":"Q","DHID":"de:08415:28119:0:2","Parent":"de:08415:28119","Name":"2","MunicipalityCode":"00000000","Municipality":"-","DistrictCode":"-","District":"-","Description":"FR Bad Urach Im Kolzental","Authority":"NVBW","DelfiName":"-","THID":"-","LastOperationDate":"","SEV":"nein","longitude":"9,377477","latitude":"48,504965","geojson_lng":9.377477,"geojson_lat":48.504965},"geometry":{"type":"Point","coordinates":[9.377477,48.504965]}},{"type":"Feature","properties":{"SeqNo":"75689","Type":"S","DHID":"de:08415:28347","Parent":"de:08415:28347","Name":"Bad Urach Gymnasium","MunicipalityCode":"08415078","Municipality":"Bad Urach","DistrictCode":"-","District":"-","Description":"","Authority":"NVBW","DelfiName":"-","THID":"D920DF006EBB","LastOperationDate":"2025-06-13T00:00:00","SEV":"nein","longitude":"9,37781","latitude":"48,504174","geojson_lng":9.37781,"geojson_lat":48.504174},"geometry":{"type":"Point","coordinates":[9.37781,48.504174]}},{"type":"Feature","properties":{"SeqNo":"75690","Type":"Q","DHID":"de:08415:28347:0:0","Parent":"de:08415:28347","Name":"0","MunicipalityCode":"00000000","Municipality":"-","DistrictCode":"-","District":"-","Description":"Alle Richtungen","Authority":"NVBW","DelfiName":"-","THID":"-","LastOperationDate":"","SEV":"nein","longitude":"9,37781","latitude":"48,504055","geojson_lng":9.37781,"geojson_lat":48.504055},"geometry":{"type":"Point","coordinates":[9.37781,48.504055]}}]}