{"type":"FeatureCollection","features":[{"type":"Feature","properties":{"SeqNo":"138374","Type":"S","DHID":"de:09187:41666","Parent":"de:09187:41666","Name":"Bad Endorf","MunicipalityCode":"09187128","Municipality":"Bad Endorf","DistrictCode":"","District":"","Description":"","Authority":"BEG","DelfiName":"-","THID":"D923E300A2C2","LastOperationDate":"2025-02-28T00:00:00","SEV":"nein","longitude":"12,302122","latitude":"47,904767","geojson_lng":12.302122,"geojson_lat":47.904767},"geometry":{"type":"Point","coordinates":[12.302122,47.904767]}},{"type":"Feature","properties":{"SeqNo":"138375","Type":"A","DHID":"de:09187:41666:1","Parent":"de:09187:41666","Name":"Bahnsteig Gleis 1/2","MunicipalityCode":"00000000","Municipality":"-","DistrictCode":"-","District":"-","Description":"","Authority":"BEG","DelfiName":"-","THID":"-","LastOperationDate":"","SEV":"nein","longitude":"12,301781","latitude":"47,904989","geojson_lng":12.301781,"geojson_lat":47.904989},"geometry":{"type":"Point","coordinates":[12.301781,47.904989]}},{"type":"Feature","properties":{"SeqNo":"138376","Type":"A","DHID":"de:09187:41666:2","Parent":"de:09187:41666","Name":"Bahnsteig Gl 4","MunicipalityCode":"00000000","Municipality":"-","DistrictCode":"-","District":"-","Description":"","Authority":"BEG","DelfiName":"-","THID":"-","LastOperationDate":"","SEV":"nein","longitude":"12,301646","latitude":"47,904839","geojson_lng":12.301646,"geojson_lat":47.904839},"geometry":{"type":"Point","coordinates":[12.301646,47.904839]}},{"type":"Feature","properties":{"SeqNo":"138377","Type":"A","DHID":"de:09187:41666:30","Parent":"de:09187:41666","Name":"Busbahnhof","MunicipalityCode":"00000000","Municipality":"-","DistrictCode":"-","District":"-","Description":"","Authority":"BEG","DelfiName":"-","THID":"-","LastOperationDate":"","SEV":"nein","longitude":"12,302616","latitude":"47,904676","geojson_lng":12.302616,"geojson_lat":47.904676},"geometry":{"type":"Point","coordinates":[12.302616,47.904676]}},{"type":"Feature","properties":{"SeqNo":"138378","Type":"A","DHID":"de:09187:41666:31","Parent":"de:09187:41666","Name":"Bus Süd","MunicipalityCode":"00000000","Municipality":"-","DistrictCode":"-","District":"-","Description":"","Authority":"BEG","DelfiName":"-","THID":"-","LastOperationDate":"","SEV":"nein","longitude":"12,3017","latitude":"47,904616","geojson_lng":12.3017,"geojson_lat":47.904616},"geometry":{"type":"Point","coordinates":[12.3017,47.904616]}},{"type":"Feature","properties":{"SeqNo":"138379","Type":"A","DHID":"de:09187:41666:70","Parent":"de:09187:41666","Name":"Zwischengeschoss","MunicipalityCode":"00000000","Municipality":"-","DistrictCode":"-","District":"-","Description":"","Authority":"BEG","DelfiName":"-","THID":"-","LastOperationDate":"","SEV":"nein","longitude":"12,301395","latitude":"47,905164","geojson_lng":12.301395,"geojson_lat":47.905164},"geometry":{"type":"Point","coordinates":[12.301395,47.905164]}},{"type":"Feature","properties":{"SeqNo":"138380","Type":"A","DHID":"de:09187:41666:80","Parent":"de:09187:41666","Name":"P+R West Geigel","MunicipalityCode":"00000000","Municipality":"-","DistrictCode":"-","District":"-","Description":"","Authority":"BEG","DelfiName":"-","THID":"-","LastOperationDate":"","SEV":"nein","longitude":"12,302113","latitude":"47,904279","geojson_lng":12.302113,"geojson_lat":47.904279},"geometry":{"type":"Point","coordinates":[12.302113,47.904279]}},{"type":"Feature","properties":{"SeqNo":"138381","Type":"A","DHID":"de:09187:41666:81","Parent":"de:09187:41666","Name":"B+R Ost BBH","MunicipalityCode":"00000000","Municipality":"-","DistrictCode":"-","District":"-","Description":"","Authority":"BEG","DelfiName":"-","THID":"-","LastOperationDate":"","SEV":"nein","longitude":"12,302347","latitude":"47,90467","geojson_lng":12.302347,"geojson_lat":47.90467},"geometry":{"type":"Point","coordinates":[12.302347,47.90467]}},{"type":"Feature","properties":{"SeqNo":"138382","Type":"A","DHID":"de:09187:41666:82","Parent":"de:09187:41666","Name":"B+R West","MunicipalityCode":"00000000","Municipality":"-","DistrictCode":"-","District":"-","Description":"","Authority":"BEG","DelfiName":"-","THID":"-","LastOperationDate":"","SEV":"nein","longitude":"12,301754","latitude":"47,904622","geojson_lng":12.301754,"geojson_lat":47.904622},"geometry":{"type":"Point","coordinates":[12.301754,47.904622]}},{"type":"Feature","properties":{"SeqNo":"138383","Type":"A","DHID":"de:09187:41666:83","Parent":"de:09187:41666","Name":"B+R Nordost","MunicipalityCode":"00000000","Municipality":"-","DistrictCode":"-","District":"-","Description":"","Authority":"BEG","DelfiName":"-","THID":"-","LastOperationDate":"","SEV":"nein","longitude":"12,301754","latitude":"47,905188","geojson_lng":12.301754,"geojson_lat":47.905188},"geometry":{"type":"Point","coordinates":[12.301754,47.905188]}},{"type":"Feature","properties":{"SeqNo":"138384","Type":"A","DHID":"de:09187:41666:84","Parent":"de:09187:41666","Name":"Taxi","MunicipalityCode":"00000000","Municipality":"-","DistrictCode":"-","District":"-","Description":"","Authority":"BEG","DelfiName":"-","THID":"-","LastOperationDate":"","SEV":"nein","longitude":"12,302329","latitude":"47,90502","geojson_lng":12.302329,"geojson_lat":47.90502},"geometry":{"type":"Point","coordinates":[12.302329,47.90502]}},{"type":"Feature","properties":{"SeqNo":"138385","Type":"A","DHID":"de:09187:41666:85","Parent":"de:09187:41666","Name":"P+R Ost Vomper","MunicipalityCode":"00000000","Municipality":"-","DistrictCode":"-","District":"-","Description":"","Authority":"BEG","DelfiName":"-","THID":"-","LastOperationDate":"","SEV":"nein","longitude":"12,303236","latitude":"47,90414","geojson_lng":12.303236,"geojson_lat":47.90414},"geometry":{"type":"Point","coordinates":[12.303236,47.90414]}},{"type":"Feature","properties":{"SeqNo":"138386","Type":"A","DHID":"de:09187:41666:90","Parent":"de:09187:41666","Name":"Zugang Ost BBH","MunicipalityCode":"00000000","Municipality":"-","DistrictCode":"-","District":"-","Description":"","Authority":"BEG","DelfiName":"-","THID":"-","LastOperationDate":"","SEV":"nein","longitude":"12,302167","latitude":"47,904791","geojson_lng":12.302167,"geojson_lat":47.904791},"geometry":{"type":"Point","coordinates":[12.302167,47.904791]}},{"type":"Feature","properties":{"SeqNo":"138387","Type":"A","DHID":"de:09187:41666:91","Parent":"de:09187:41666","Name":"Zugang Nordost","MunicipalityCode":"00000000","Municipality":"-","DistrictCode":"-","District":"-","Description":"","Authority":"BEG","DelfiName":"-","THID":"-","LastOperationDate":"","SEV":"nein","longitude":"12,30153","latitude":"47,905339","geojson_lng":12.30153,"geojson_lat":47.905339},"geometry":{"type":"Point","coordinates":[12.30153,47.905339]}},{"type":"Feature","properties":{"SeqNo":"138388","Type":"A","DHID":"de:09187:41666:92","Parent":"de:09187:41666","Name":"Zugang West","MunicipalityCode":"00000000","Municipality":"-","DistrictCode":"-","District":"-","Description":"","Authority":"BEG","DelfiName":"-","THID":"-","LastOperationDate":"","SEV":"nein","longitude":"12,301592","latitude":"47,904803","geojson_lng":12.301592,"geojson_lat":47.904803},"geometry":{"type":"Point","coordinates":[12.301592,47.904803]}},{"type":"Feature","properties":{"SeqNo":"138389","Type":"A","DHID":"de:09187:41666:93","Parent":"de:09187:41666","Name":"Zugang Nordwest","MunicipalityCode":"00000000","Municipality":"-","DistrictCode":"-","District":"-","Description":"","Authority":"BEG","DelfiName":"-","THID":"-","LastOperationDate":"","SEV":"nein","longitude":"12,301035","latitude":"47,905152","geojson_lng":12.301035,"geojson_lat":47.905152},"geometry":{"type":"Point","coordinates":[12.301035,47.905152]}},{"type":"Feature","properties":{"SeqNo":"138390","Type":"A","DHID":"de:09187:41666:94","Parent":"de:09187:41666","Name":"Taxi","MunicipalityCode":"00000000","Municipality":"-","DistrictCode":"-","District":"-","Description":"","Authority":"BEG","DelfiName":"-","THID":"-","LastOperationDate":"","SEV":"nein","longitude":"12,302329","latitude":"47,90502","geojson_lng":12.302329,"geojson_lat":47.90502},"geometry":{"type":"Point","coordinates":[12.302329,47.90502]}},{"type":"Feature","properties":{"SeqNo":"138391","Type":"A","DHID":"de:09187:41666:95","Parent":"de:09187:41666","Name":"Zugang Südwest","MunicipalityCode":"00000000","Municipality":"-","DistrictCode":"-","District":"-","Description":"","Authority":"BEG","DelfiName":"-","THID":"-","LastOperationDate":"","SEV":"nein","longitude":"12,302482","latitude":"47,904002","geojson_lng":12.302482,"geojson_lat":47.904002},"geometry":{"type":"Point","coordinates":[12.302482,47.904002]}},{"type":"Feature","properties":{"SeqNo":"138392","Type":"Q","DHID":"de:09187:41666:1:1","Parent":"de:09187:41666:1","Name":"Gleis 1","MunicipalityCode":"00000000","Municipality":"-","DistrictCode":"-","District":"-","Description":"","Authority":"BEG","DelfiName":"-","THID":"-","LastOperationDate":"","SEV":"nein","longitude":"12,301368","latitude":"47,905273","geojson_lng":12.301368,"geojson_lat":47.905273},"geometry":{"type":"Point","coordinates":[12.301368,47.905273]}},{"type":"Feature","properties":{"SeqNo":"138393","Type":"Q","DHID":"de:09187:41666:1:2","Parent":"de:09187:41666:1","Name":"Gleis 2","MunicipalityCode":"00000000","Municipality":"-","DistrictCode":"-","District":"-","Description":"","Authority":"BEG","DelfiName":"-","THID":"-","LastOperationDate":"","SEV":"nein","longitude":"12,301799","latitude":"47,904923","geojson_lng":12.301799,"geojson_lat":47.904923},"geometry":{"type":"Point","coordinates":[12.301799,47.904923]}},{"type":"Feature","properties":{"SeqNo":"138394","Type":"Q","DHID":"de:09187:41666:2:4","Parent":"de:09187:41666:2","Name":"Gleis 4","MunicipalityCode":"00000000","Municipality":"-","DistrictCode":"-","District":"-","Description":"","Authority":"BEG","DelfiName":"-","THID":"-","LastOperationDate":"","SEV":"nein","longitude":"12,301646","latitude":"47,904839","geojson_lng":12.301646,"geojson_lat":47.904839},"geometry":{"type":"Point","coordinates":[12.301646,47.904839]}},{"type":"Feature","properties":{"SeqNo":"138395","Type":"Q","DHID":"de:09187:41666:30:1","Parent":"de:09187:41666:30","Name":"SEV/9425/9427","MunicipalityCode":"00000000","Municipality":"-","DistrictCode":"-","District":"-","Description":"","Authority":"BEG","DelfiName":"-","THID":"-","LastOperationDate":"","SEV":"nein","longitude":"12,302428","latitude":"47,904761","geojson_lng":12.302428,"geojson_lat":47.904761},"geometry":{"type":"Point","coordinates":[12.302428,47.904761]}},{"type":"Feature","properties":{"SeqNo":"138396","Type":"Q","DHID":"de:09187:41666:30:2","Parent":"de:09187:41666:30","Name":"9510 Rosenheim","MunicipalityCode":"00000000","Municipality":"-","DistrictCode":"-","District":"-","Description":"","Authority":"BEG","DelfiName":"-","THID":"-","LastOperationDate":"","SEV":"nein","longitude":"12,302545","latitude":"47,904682","geojson_lng":12.302545,"geojson_lat":47.904682},"geometry":{"type":"Point","coordinates":[12.302545,47.904682]}},{"type":"Feature","properties":{"SeqNo":"138397","Type":"Q","DHID":"de:09187:41666:30:3","Parent":"de:09187:41666:30","Name":"9414 Amerang/Wasserburg","MunicipalityCode":"00000000","Municipality":"-","DistrictCode":"-","District":"-","Description":"","Authority":"BEG","DelfiName":"-","THID":"-","LastOperationDate":"","SEV":"nein","longitude":"12,302625","latitude":"47,904712","geojson_lng":12.302625,"geojson_lat":47.904712},"geometry":{"type":"Point","coordinates":[12.302625,47.904712]}},{"type":"Feature","properties":{"SeqNo":"138398","Type":"Q","DHID":"de:09187:41666:30:4","Parent":"de:09187:41666:30","Name":"9480","MunicipalityCode":"00000000","Municipality":"-","DistrictCode":"-","District":"-","Description":"","Authority":"BEG","DelfiName":"-","THID":"-","LastOperationDate":"","SEV":"nein","longitude":"12,302679","latitude":"47,904592","geojson_lng":12.302679,"geojson_lat":47.904592},"geometry":{"type":"Point","coordinates":[12.302679,47.904592]}},{"type":"Feature","properties":{"SeqNo":"138399","Type":"Q","DHID":"de:09187:41666:30:5","Parent":"de:09187:41666:30","Name":"9414Prien/9510Prien/9511/9586","MunicipalityCode":"00000000","Municipality":"-","DistrictCode":"-","District":"-","Description":"","Authority":"BEG","DelfiName":"-","THID":"-","LastOperationDate":"","SEV":"nein","longitude":"12,302769","latitude":"47,904616","geojson_lng":12.302769,"geojson_lat":47.904616},"geometry":{"type":"Point","coordinates":[12.302769,47.904616]}},{"type":"Feature","properties":{"SeqNo":"138400","Type":"Q","DHID":"de:09187:41666:31:6","Parent":"de:09187:41666:31","Name":"Bus 6","MunicipalityCode":"00000000","Municipality":"-","DistrictCode":"-","District":"-","Description":"","Authority":"BEG","DelfiName":"-","THID":"-","LastOperationDate":"","SEV":"nein","longitude":"12,301673","latitude":"47,904598","geojson_lng":12.301673,"geojson_lat":47.904598},"geometry":{"type":"Point","coordinates":[12.301673,47.904598]}},{"type":"Feature","properties":{"SeqNo":"138405","Type":"Q","DHID":"de:09187:41668:0:1","Parent":"de:09187:41668","Name":"Ri N / Simssee Klinik","MunicipalityCode":"00000000","Municipality":"-","DistrictCode":"-","District":"-","Description":"","Authority":"BEG","DelfiName":"-","THID":"-","LastOperationDate":"","SEV":"nein","longitude":"12,300308","latitude":"47,901575","geojson_lng":12.300308,"geojson_lat":47.901575},"geometry":{"type":"Point","coordinates":[12.300308,47.901575]}},{"type":"Feature","properties":{"SeqNo":"138407","Type":"S","DHID":"de:09187:41669","Parent":"de:09187:41669","Name":"Bad Endorf, Volkstheater","MunicipalityCode":"09187128","Municipality":"Bad Endorf","DistrictCode":"","District":"","Description":"","Authority":"BEG","DelfiName":"-","THID":"D923E300A2C5","LastOperationDate":"2025-06-14T00:00:00","SEV":"nein","longitude":"12,296445","latitude":"47,908831","geojson_lng":12.296445,"geojson_lat":47.908831},"geometry":{"type":"Point","coordinates":[12.296445,47.908831]}},{"type":"Feature","properties":{"SeqNo":"138408","Type":"Q","DHID":"de:09187:41669:0:1","Parent":"de:09187:41669","Name":"Ri NO / Davanzo Optik, Bahnhof","MunicipalityCode":"00000000","Municipality":"-","DistrictCode":"-","District":"-","Description":"","Authority":"BEG","DelfiName":"-","THID":"-","LastOperationDate":"","SEV":"nein","longitude":"12,296508","latitude":"47,908777","geojson_lng":12.296508,"geojson_lat":47.908777},"geometry":{"type":"Point","coordinates":[12.296508,47.908777]}},{"type":"Feature","properties":{"SeqNo":"138409","Type":"Q","DHID":"de:09187:41669:0:2","Parent":"de:09187:41669","Name":"Ri SW / Heubergstraße","MunicipalityCode":"00000000","Municipality":"-","DistrictCode":"-","District":"-","Description":"","Authority":"BEG","DelfiName":"-","THID":"-","LastOperationDate":"","SEV":"nein","longitude":"12,296418","latitude":"47,908861","geojson_lng":12.296418,"geojson_lat":47.908861},"geometry":{"type":"Point","coordinates":[12.296418,47.908861]}},{"type":"Feature","properties":{"SeqNo":"140046","Type":"S","DHID":"de:09187:66642","Parent":"de:09187:66642","Name":"Geigelsteinstr. Bad Endorf","MunicipalityCode":"09187128","Municipality":"Bad Endorf","DistrictCode":"-","District":"-","Description":"","Authority":"BEG","DelfiName":"-","THID":"D923E3010452","LastOperationDate":"1999-12-31T00:00:00","SEV":"nein","longitude":"12,303137","latitude":"47,902978","geojson_lng":12.303137,"geojson_lat":47.902978},"geometry":{"type":"Point","coordinates":[12.303137,47.902978]}},{"type":"Feature","properties":{"SeqNo":"140047","Type":"Q","DHID":"de:09187:66642:0:1","Parent":"de:09187:66642","Name":"Bad Endorf Geigelsteinstr, Mast 1","MunicipalityCode":"00000000","Municipality":"-","DistrictCode":"-","District":"-","Description":"Bad Endorf Geigelsteinstr, Mast 1","Authority":"BEG","DelfiName":"-","THID":"-","LastOperationDate":"","SEV":"nein","longitude":"12,303137","latitude":"47,902978","geojson_lng":12.303137,"geojson_lat":47.902978},"geometry":{"type":"Point","coordinates":[12.303137,47.902978]}},{"type":"Feature","properties":{"SeqNo":"140048","Type":"S","DHID":"de:09187:66643","Parent":"de:09187:66643","Name":"Simssee Klinik Haupteingang (A/B)","MunicipalityCode":"09187128","Municipality":"Bad Endorf","DistrictCode":"","District":"","Description":"","Authority":"BEG","DelfiName":"-","THID":"D923E3010453","LastOperationDate":"1999-12-31T00:00:00","SEV":"nein","longitude":"12,297721","latitude":"47,902274","geojson_lng":12.297721,"geojson_lat":47.902274},"geometry":{"type":"Point","coordinates":[12.297721,47.902274]}},{"type":"Feature","properties":{"SeqNo":"140049","Type":"Q","DHID":"de:09187:66643:0:1","Parent":"de:09187:66643","Name":"Simssee Klinik Haupteingang (A/B), Mast1","MunicipalityCode":"00000000","Municipality":"-","DistrictCode":"-","District":"-","Description":"","Authority":"BEG","DelfiName":"-","THID":"-","LastOperationDate":"","SEV":"nein","longitude":"12,297721","latitude":"47,902274","geojson_lng":12.297721,"geojson_lat":47.902274},"geometry":{"type":"Point","coordinates":[12.297721,47.902274]}},{"type":"Feature","properties":{"SeqNo":"140050","Type":"Q","DHID":"de:09187:66643:0:2","Parent":"de:09187:66643","Name":"Simssee Klinik Haupteingang (A/B), Mast2","MunicipalityCode":"00000000","Municipality":"-","DistrictCode":"-","District":"-","Description":"","Authority":"BEG","DelfiName":"-","THID":"-","LastOperationDate":"","SEV":"nein","longitude":"12,297658","latitude":"47,90228","geojson_lng":12.297658,"geojson_lat":47.90228},"geometry":{"type":"Point","coordinates":[12.297658,47.90228]}},{"type":"Feature","properties":{"SeqNo":"140053","Type":"S","DHID":"de:09187:66645","Parent":"de:09187:66645","Name":"Davanzo Optik","MunicipalityCode":"09187128","Municipality":"Bad Endorf","DistrictCode":"-","District":"-","Description":"","Authority":"BEG","DelfiName":"-","THID":"D923E3010455","LastOperationDate":"1999-12-31T00:00:00","SEV":"nein","longitude":"12,30038","latitude":"47,906134","geojson_lng":12.30038,"geojson_lat":47.906134},"geometry":{"type":"Point","coordinates":[12.30038,47.906134]}},{"type":"Feature","properties":{"SeqNo":"140054","Type":"Q","DHID":"de:09187:66645:0:1","Parent":"de:09187:66645","Name":"Davanzo Optik, Mast1","MunicipalityCode":"00000000","Municipality":"-","DistrictCode":"-","District":"-","Description":"Davanzo Optik, Mast1","Authority":"BEG","DelfiName":"-","THID":"-","LastOperationDate":"","SEV":"nein","longitude":"12,30038","latitude":"47,906134","geojson_lng":12.30038,"geojson_lat":47.906134},"geometry":{"type":"Point","coordinates":[12.30038,47.906134]}},{"type":"Feature","properties":{"SeqNo":"140055","Type":"S","DHID":"de:09187:66646","Parent":"de:09187:66646","Name":"Katharinenheim","MunicipalityCode":"09187128","Municipality":"Bad Endorf","DistrictCode":"","District":"","Description":"","Authority":"BEG","DelfiName":"-","THID":"D923E3010456","LastOperationDate":"1999-12-31T00:00:00","SEV":"nein","longitude":"12,300658","latitude":"47,90859","geojson_lng":12.300658,"geojson_lat":47.90859},"geometry":{"type":"Point","coordinates":[12.300658,47.90859]}},{"type":"Feature","properties":{"SeqNo":"140056","Type":"Q","DHID":"de:09187:66646:0:1","Parent":"de:09187:66646","Name":"Katharinenheim, Mast1","MunicipalityCode":"00000000","Municipality":"-","DistrictCode":"-","District":"-","Description":"","Authority":"BEG","DelfiName":"-","THID":"-","LastOperationDate":"","SEV":"nein","longitude":"12,300658","latitude":"47,90859","geojson_lng":12.300658,"geojson_lat":47.90859},"geometry":{"type":"Point","coordinates":[12.300658,47.90859]}},{"type":"Feature","properties":{"SeqNo":"140068","Type":"S","DHID":"de:09187:66651","Parent":"de:09187:66651","Name":"Bad Endorf Kirchplatz","MunicipalityCode":"09187128","Municipality":"Bad Endorf","DistrictCode":"-","District":"-","Description":"","Authority":"BEG","DelfiName":"-","THID":"D923E301045B","LastOperationDate":"1999-12-31T00:00:00","SEV":"nein","longitude":"12,297325","latitude":"47,908566","geojson_lng":12.297325,"geojson_lat":47.908566},"geometry":{"type":"Point","coordinates":[12.297325,47.908566]}},{"type":"Feature","properties":{"SeqNo":"140069","Type":"Q","DHID":"de:09187:66651:0:1","Parent":"de:09187:66651","Name":"Bad Endorf Kirchplatz, Mast1","MunicipalityCode":"00000000","Municipality":"-","DistrictCode":"-","District":"-","Description":"Bad Endorf Kirchplatz, Mast1","Authority":"BEG","DelfiName":"-","THID":"-","LastOperationDate":"","SEV":"nein","longitude":"12,297325","latitude":"47,908566","geojson_lng":12.297325,"geojson_lat":47.908566},"geometry":{"type":"Point","coordinates":[12.297325,47.908566]}},{"type":"Feature","properties":{"SeqNo":"140070","Type":"S","DHID":"de:09187:66652","Parent":"de:09187:66652","Name":"Bad Endorf Schulstraße","MunicipalityCode":"09187128","Municipality":"Bad Endorf","DistrictCode":"-","District":"-","Description":"","Authority":"BEG","DelfiName":"-","THID":"D923E301045C","LastOperationDate":"1999-12-31T00:00:00","SEV":"nein","longitude":"12,297289","latitude":"47,908584","geojson_lng":12.297289,"geojson_lat":47.908584},"geometry":{"type":"Point","coordinates":[12.297289,47.908584]}},{"type":"Feature","properties":{"SeqNo":"140071","Type":"Q","DHID":"de:09187:66652:0:1","Parent":"de:09187:66652","Name":"Bad Endorf Schulstraße, Mast1","MunicipalityCode":"00000000","Municipality":"-","DistrictCode":"-","District":"-","Description":"Bad Endorf Schulstraße, Mast1","Authority":"BEG","DelfiName":"-","THID":"-","LastOperationDate":"","SEV":"nein","longitude":"12,297289","latitude":"47,908584","geojson_lng":12.297289,"geojson_lat":47.908584},"geometry":{"type":"Point","coordinates":[12.297289,47.908584]}},{"type":"Feature","properties":{"SeqNo":"140072","Type":"S","DHID":"de:09187:66653","Parent":"de:09187:66653","Name":"Wiebelpark / Blumenweg","MunicipalityCode":"09187128","Municipality":"Bad Endorf","DistrictCode":"","District":"","Description":"","Authority":"BEG","DelfiName":"-","THID":"D923E301045D","LastOperationDate":"1999-12-31T00:00:00","SEV":"nein","longitude":"12,304368","latitude":"47,903189","geojson_lng":12.304368,"geojson_lat":47.903189},"geometry":{"type":"Point","coordinates":[12.304368,47.903189]}},{"type":"Feature","properties":{"SeqNo":"140073","Type":"Q","DHID":"de:09187:66653:0:1","Parent":"de:09187:66653","Name":"Wiebelpark / Blumenweg, Mast1","MunicipalityCode":"00000000","Municipality":"-","DistrictCode":"-","District":"-","Description":"","Authority":"BEG","DelfiName":"-","THID":"-","LastOperationDate":"","SEV":"nein","longitude":"12,304368","latitude":"47,903189","geojson_lng":12.304368,"geojson_lat":47.903189},"geometry":{"type":"Point","coordinates":[12.304368,47.903189]}},{"type":"Feature","properties":{"SeqNo":"140076","Type":"S","DHID":"de:09187:66655","Parent":"de:09187:66655","Name":"Bad Endorf Rathaus","MunicipalityCode":"09187128","Municipality":"Bad Endorf","DistrictCode":"-","District":"-","Description":"","Authority":"BEG","DelfiName":"-","THID":"D923E301045F","LastOperationDate":"1999-12-31T00:00:00","SEV":"nein","longitude":"12,299185","latitude":"47,907766","geojson_lng":12.299185,"geojson_lat":47.907766},"geometry":{"type":"Point","coordinates":[12.299185,47.907766]}},{"type":"Feature","properties":{"SeqNo":"140077","Type":"Q","DHID":"de:09187:66655:0:1","Parent":"de:09187:66655","Name":"Bad Endorf Rathaus, Mast1","MunicipalityCode":"00000000","Municipality":"-","DistrictCode":"-","District":"-","Description":"Bad Endorf Rathaus, Mast1","Authority":"BEG","DelfiName":"-","THID":"-","LastOperationDate":"","SEV":"nein","longitude":"12,299185","latitude":"47,907766","geojson_lng":12.299185,"geojson_lat":47.907766},"geometry":{"type":"Point","coordinates":[12.299185,47.907766]}},{"type":"Feature","properties":{"SeqNo":"140086","Type":"S","DHID":"de:09187:66660","Parent":"de:09187:66660","Name":"Hastreiter","MunicipalityCode":"09187128","Municipality":"Bad Endorf","DistrictCode":"-","District":"-","Description":"","Authority":"BEG","DelfiName":"-","THID":"D923E3010464","LastOperationDate":"1999-12-31T00:00:00","SEV":"nein","longitude":"12,299365","latitude":"47,907489","geojson_lng":12.299365,"geojson_lat":47.907489},"geometry":{"type":"Point","coordinates":[12.299365,47.907489]}},{"type":"Feature","properties":{"SeqNo":"140087","Type":"Q","DHID":"de:09187:66660:0:1","Parent":"de:09187:66660","Name":"Hastreiter, Mast1","MunicipalityCode":"00000000","Municipality":"-","DistrictCode":"-","District":"-","Description":"Hastreiter, Mast1","Authority":"BEG","DelfiName":"-","THID":"-","LastOperationDate":"","SEV":"nein","longitude":"12,299365","latitude":"47,907489","geojson_lng":12.299365,"geojson_lat":47.907489},"geometry":{"type":"Point","coordinates":[12.299365,47.907489]}},{"type":"Feature","properties":{"SeqNo":"140091","Type":"S","DHID":"de:09187:66662","Parent":"de:09187:66662","Name":"Apparthotel","MunicipalityCode":"09187128","Municipality":"Bad Endorf","DistrictCode":"","District":"","Description":"","Authority":"BEG","DelfiName":"-","THID":"D923E3010466","LastOperationDate":"1999-12-31T00:00:00","SEV":"nein","longitude":"12,294595","latitude":"47,902171","geojson_lng":12.294595,"geojson_lat":47.902171},"geometry":{"type":"Point","coordinates":[12.294595,47.902171]}},{"type":"Feature","properties":{"SeqNo":"140092","Type":"Q","DHID":"de:09187:66662:0:1","Parent":"de:09187:66662","Name":"Apparthotel, Mast1","MunicipalityCode":"00000000","Municipality":"-","DistrictCode":"-","District":"-","Description":"","Authority":"BEG","DelfiName":"-","THID":"-","LastOperationDate":"","SEV":"nein","longitude":"12,294595","latitude":"47,902171","geojson_lng":12.294595,"geojson_lat":47.902171},"geometry":{"type":"Point","coordinates":[12.294595,47.902171]}},{"type":"Feature","properties":{"SeqNo":"140093","Type":"Q","DHID":"de:09187:66662:0:2","Parent":"de:09187:66662","Name":"Apparthotel, Mast2","MunicipalityCode":"00000000","Municipality":"-","DistrictCode":"-","District":"-","Description":"","Authority":"BEG","DelfiName":"-","THID":"-","LastOperationDate":"","SEV":"nein","longitude":"12,294603","latitude":"47,902177","geojson_lng":12.294603,"geojson_lat":47.902177},"geometry":{"type":"Point","coordinates":[12.294603,47.902177]}}]}