{"type":"FeatureCollection","features":[{"type":"Feature","properties":{"SeqNo":"5048","Type":"S","DHID":"de:08115:3179","Parent":"de:08115:3179","Name":"Maichingen Bf (Schlüsseläcker)","MunicipalityCode":"08115045","Municipality":"Sindelfingen","DistrictCode":"","District":"","Description":"","Authority":"NVBW","DelfiName":"-","THID":"D91FB3000C6B","LastOperationDate":"2025-02-28T00:00:00","SEV":"nein","longitude":"8,970379","latitude":"48,723051","geojson_lng":8.970379,"geojson_lat":48.723051},"geometry":{"type":"Point","coordinates":[8.970379,48.723051]}},{"type":"Feature","properties":{"SeqNo":"5049","Type":"Q","DHID":"de:08115:3179:0:3","Parent":"de:08115:3179","Name":"Rtg Nord/Grünäckerstr.","MunicipalityCode":"00000000","Municipality":"-","DistrictCode":"-","District":"-","Description":"","Authority":"NVBW","DelfiName":"-","THID":"-","LastOperationDate":"","SEV":"nein","longitude":"8,970406","latitude":"48,723051","geojson_lng":8.970406,"geojson_lat":48.723051},"geometry":{"type":"Point","coordinates":[8.970406,48.723051]}},{"type":"Feature","properties":{"SeqNo":"5050","Type":"Q","DHID":"de:08115:3179:0:4","Parent":"de:08115:3179","Name":"Rtg Süd/Teuchelweg","MunicipalityCode":"00000000","Municipality":"-","DistrictCode":"-","District":"-","Description":"","Authority":"NVBW","DelfiName":"-","THID":"-","LastOperationDate":"","SEV":"nein","longitude":"8,97037","latitude":"48,723051","geojson_lng":8.97037,"geojson_lat":48.723051},"geometry":{"type":"Point","coordinates":[8.97037,48.723051]}},{"type":"Feature","properties":{"SeqNo":"5051","Type":"S","DHID":"de:08115:3180","Parent":"de:08115:3180","Name":"Maichingen Altes Rathaus","MunicipalityCode":"08115045","Municipality":"Sindelfingen","DistrictCode":"","District":"","Description":"","Authority":"NVBW","DelfiName":"-","THID":"D91FB3000C6C","LastOperationDate":"2025-02-28T00:00:00","SEV":"nein","longitude":"8,964701","latitude":"48,723851","geojson_lng":8.964701,"geojson_lat":48.723851},"geometry":{"type":"Point","coordinates":[8.964701,48.723851]}},{"type":"Feature","properties":{"SeqNo":"5052","Type":"Q","DHID":"de:08115:3180:0:3","Parent":"de:08115:3180","Name":"Rtg Nord","MunicipalityCode":"00000000","Municipality":"-","DistrictCode":"-","District":"-","Description":"","Authority":"NVBW","DelfiName":"-","THID":"-","LastOperationDate":"","SEV":"nein","longitude":"8,964737","latitude":"48,723869","geojson_lng":8.964737,"geojson_lat":48.723869},"geometry":{"type":"Point","coordinates":[8.964737,48.723869]}},{"type":"Feature","properties":{"SeqNo":"5053","Type":"Q","DHID":"de:08115:3180:0:4","Parent":"de:08115:3180","Name":"Rtg Süd","MunicipalityCode":"00000000","Municipality":"-","DistrictCode":"-","District":"-","Description":"","Authority":"NVBW","DelfiName":"-","THID":"-","LastOperationDate":"","SEV":"nein","longitude":"8,964674","latitude":"48,723739","geojson_lng":8.964674,"geojson_lat":48.723739},"geometry":{"type":"Point","coordinates":[8.964674,48.723739]}},{"type":"Feature","properties":{"SeqNo":"5057","Type":"S","DHID":"de:08115:3182","Parent":"de:08115:3182","Name":"Maichingen Zeppelinstr.","MunicipalityCode":"08115045","Municipality":"Sindelfingen","DistrictCode":"","District":"","Description":"","Authority":"NVBW","DelfiName":"-","THID":"D91FB3000C6E","LastOperationDate":"1999-12-31T00:00:00","SEV":"nein","longitude":"8,965681","latitude":"48,72544","geojson_lng":8.965681,"geojson_lat":48.72544},"geometry":{"type":"Point","coordinates":[8.965681,48.72544]}},{"type":"Feature","properties":{"SeqNo":"5058","Type":"Q","DHID":"de:08115:3182:0:3","Parent":"de:08115:3182","Name":"Rtg Rathaus","MunicipalityCode":"00000000","Municipality":"-","DistrictCode":"-","District":"-","Description":"","Authority":"NVBW","DelfiName":"-","THID":"-","LastOperationDate":"","SEV":"nein","longitude":"8,965815","latitude":"48,72544","geojson_lng":8.965815,"geojson_lat":48.72544},"geometry":{"type":"Point","coordinates":[8.965815,48.72544]}},{"type":"Feature","properties":{"SeqNo":"5059","Type":"Q","DHID":"de:08115:3182:0:4","Parent":"de:08115:3182","Name":"Rtg Solo","MunicipalityCode":"00000000","Municipality":"-","DistrictCode":"-","District":"-","Description":"","Authority":"NVBW","DelfiName":"-","THID":"-","LastOperationDate":"","SEV":"nein","longitude":"8,96595","latitude":"48,72544","geojson_lng":8.96595,"geojson_lat":48.72544},"geometry":{"type":"Point","coordinates":[8.96595,48.72544]}},{"type":"Feature","properties":{"SeqNo":"5069","Type":"S","DHID":"de:08115:3186","Parent":"de:08115:3186","Name":"Maichingen Maichingen Ostseite","MunicipalityCode":"08115045","Municipality":"Sindelfingen","DistrictCode":"","District":"","Description":"","Authority":"NVBW","DelfiName":"-","THID":"D91FB3000C72","LastOperationDate":"1999-12-31T00:00:00","SEV":"nein","longitude":"8,970505","latitude":"48,722797","geojson_lng":8.970505,"geojson_lat":48.722797},"geometry":{"type":"Point","coordinates":[8.970505,48.722797]}},{"type":"Feature","properties":{"SeqNo":"5070","Type":"Q","DHID":"de:08115:3186:0:3","Parent":"de:08115:3186","Name":"Rtg Grünäckerstr.","MunicipalityCode":"00000000","Municipality":"-","DistrictCode":"-","District":"-","Description":"","Authority":"NVBW","DelfiName":"-","THID":"-","LastOperationDate":"","SEV":"nein","longitude":"8,970514","latitude":"48,722797","geojson_lng":8.970514,"geojson_lat":48.722797},"geometry":{"type":"Point","coordinates":[8.970514,48.722797]}},{"type":"Feature","properties":{"SeqNo":"5071","Type":"Q","DHID":"de:08115:3186:0:4","Parent":"de:08115:3186","Name":"Rtg Allmendstr.","MunicipalityCode":"00000000","Municipality":"-","DistrictCode":"-","District":"-","Description":"","Authority":"NVBW","DelfiName":"-","THID":"-","LastOperationDate":"","SEV":"nein","longitude":"8,970514","latitude":"48,722797","geojson_lng":8.970514,"geojson_lat":48.722797},"geometry":{"type":"Point","coordinates":[8.970514,48.722797]}},{"type":"Feature","properties":{"SeqNo":"5133","Type":"S","DHID":"de:08115:3198","Parent":"de:08115:3198","Name":"Maichingen","MunicipalityCode":"08115045","Municipality":"Sindelfingen","DistrictCode":"","District":"","Description":"","Authority":"NVBW","DelfiName":"-","THID":"D91FB3000C7E","LastOperationDate":"2025-02-28T00:00:00","SEV":"nein","longitude":"8,969606","latitude":"48,721623","geojson_lng":8.969606,"geojson_lat":48.721623},"geometry":{"type":"Point","coordinates":[8.969606,48.721623]}},{"type":"Feature","properties":{"SeqNo":"5134","Type":"A","DHID":"de:08115:3198:1","Parent":"de:08115:3198","Name":"S-Bahn","MunicipalityCode":"00000000","Municipality":"-","DistrictCode":"-","District":"-","Description":"","Authority":"NVBW","DelfiName":"-","THID":"-","LastOperationDate":"","SEV":"nein","longitude":"8,969651","latitude":"48,721605","geojson_lng":8.969651,"geojson_lat":48.721605},"geometry":{"type":"Point","coordinates":[8.969651,48.721605]}},{"type":"Feature","properties":{"SeqNo":"5135","Type":"A","DHID":"de:08115:3198:2","Parent":"de:08115:3198","Name":"Bus","MunicipalityCode":"00000000","Municipality":"-","DistrictCode":"-","District":"-","Description":"Bus","Authority":"NVBW","DelfiName":"-","THID":"-","LastOperationDate":"","SEV":"nein","longitude":"8,969121","latitude":"48,722494","geojson_lng":8.969121,"geojson_lat":48.722494},"geometry":{"type":"Point","coordinates":[8.969121,48.722494]}},{"type":"Feature","properties":{"SeqNo":"5136","Type":"A","DHID":"de:08115:3198:80","Parent":"de:08115:3198","Name":"Unterführung","MunicipalityCode":"00000000","Municipality":"-","DistrictCode":"-","District":"-","Description":"","Authority":"NVBW","DelfiName":"-","THID":"-","LastOperationDate":"","SEV":"nein","longitude":"8,969813","latitude":"48,722305","geojson_lng":8.969813,"geojson_lat":48.722305},"geometry":{"type":"Point","coordinates":[8.969813,48.722305]}},{"type":"Feature","properties":{"SeqNo":"5137","Type":"A","DHID":"de:08115:3198:90","Parent":"de:08115:3198","Name":"Zg Schlüsseläcker","MunicipalityCode":"00000000","Municipality":"-","DistrictCode":"-","District":"-","Description":"","Authority":"NVBW","DelfiName":"-","THID":"-","LastOperationDate":"","SEV":"nein","longitude":"8,970118","latitude":"48,722287","geojson_lng":8.970118,"geojson_lat":48.722287},"geometry":{"type":"Point","coordinates":[8.970118,48.722287]}},{"type":"Feature","properties":{"SeqNo":"5138","Type":"A","DHID":"de:08115:3198:91","Parent":"de:08115:3198","Name":"Zg Austr","MunicipalityCode":"00000000","Municipality":"-","DistrictCode":"-","District":"-","Description":"","Authority":"NVBW","DelfiName":"-","THID":"-","LastOperationDate":"","SEV":"nein","longitude":"8,96957","latitude":"48,720841","geojson_lng":8.96957,"geojson_lat":48.720841},"geometry":{"type":"Point","coordinates":[8.96957,48.720841]}},{"type":"Feature","properties":{"SeqNo":"5139","Type":"A","DHID":"de:08115:3198:92","Parent":"de:08115:3198","Name":"Zg Talstr","MunicipalityCode":"00000000","Municipality":"-","DistrictCode":"-","District":"-","Description":"","Authority":"NVBW","DelfiName":"-","THID":"-","LastOperationDate":"","SEV":"nein","longitude":"8,969337","latitude":"48,722364","geojson_lng":8.969337,"geojson_lat":48.722364},"geometry":{"type":"Point","coordinates":[8.969337,48.722364]}},{"type":"Feature","properties":{"SeqNo":"5140","Type":"A","DHID":"de:08115:3198:93","Parent":"de:08115:3198","Name":"Zg Rampe","MunicipalityCode":"00000000","Municipality":"-","DistrictCode":"-","District":"-","Description":"","Authority":"NVBW","DelfiName":"-","THID":"-","LastOperationDate":"","SEV":"nein","longitude":"8,969418","latitude":"48,722583","geojson_lng":8.969418,"geojson_lat":48.722583},"geometry":{"type":"Point","coordinates":[8.969418,48.722583]}},{"type":"Feature","properties":{"SeqNo":"5141","Type":"A","DHID":"de:08115:3198:94","Parent":"de:08115:3198","Name":"Zg Parkplatz","MunicipalityCode":"00000000","Municipality":"-","DistrictCode":"-","District":"-","Description":"","Authority":"NVBW","DelfiName":"-","THID":"-","LastOperationDate":"","SEV":"nein","longitude":"8,969705","latitude":"48,722909","geojson_lng":8.969705,"geojson_lat":48.722909},"geometry":{"type":"Point","coordinates":[8.969705,48.722909]}},{"type":"Feature","properties":{"SeqNo":"5142","Type":"Q","DHID":"de:08115:3198:1:1","Parent":"de:08115:3198:1","Name":"Gleis 1","MunicipalityCode":"00000000","Municipality":"-","DistrictCode":"-","District":"-","Description":"","Authority":"NVBW","DelfiName":"-","THID":"-","LastOperationDate":"","SEV":"nein","longitude":"8,969597","latitude":"48,721623","geojson_lng":8.969597,"geojson_lat":48.721623},"geometry":{"type":"Point","coordinates":[8.969597,48.721623]}},{"type":"Feature","properties":{"SeqNo":"5143","Type":"Q","DHID":"de:08115:3198:2:3","Parent":"de:08115:3198:2","Name":"Pos 2 in Laurentiusstraße","MunicipalityCode":"00000000","Municipality":"-","DistrictCode":"-","District":"-","Description":"Rtg Solo","Authority":"NVBW","DelfiName":"-","THID":"-","LastOperationDate":"","SEV":"nein","longitude":"8,969121","latitude":"48,722494","geojson_lng":8.969121,"geojson_lat":48.722494},"geometry":{"type":"Point","coordinates":[8.969121,48.722494]}},{"type":"Feature","properties":{"SeqNo":"5144","Type":"Q","DHID":"de:08115:3198:2:4","Parent":"de:08115:3198:2","Name":"Pos 3 Talstraße ggü Bf","MunicipalityCode":"00000000","Municipality":"-","DistrictCode":"-","District":"-","Description":"Rtg M Rathaus","Authority":"NVBW","DelfiName":"-","THID":"-","LastOperationDate":"","SEV":"nein","longitude":"8,969364","latitude":"48,722601","geojson_lng":8.969364,"geojson_lat":48.722601},"geometry":{"type":"Point","coordinates":[8.969364,48.722601]}},{"type":"Feature","properties":{"SeqNo":"5145","Type":"Q","DHID":"de:08115:3198:2:5","Parent":"de:08115:3198:2","Name":"Pos 1 Talstraße am Bahnhof","MunicipalityCode":"00000000","Municipality":"-","DistrictCode":"-","District":"-","Description":"748 Rtg Rathaus","Authority":"NVBW","DelfiName":"-","THID":"-","LastOperationDate":"","SEV":"nein","longitude":"8,969211","latitude":"48,722198","geojson_lng":8.969211,"geojson_lat":48.722198},"geometry":{"type":"Point","coordinates":[8.969211,48.722198]}},{"type":"Feature","properties":{"SeqNo":"5194","Type":"S","DHID":"de:08115:3209","Parent":"de:08115:3209","Name":"Maichingen Rathaus","MunicipalityCode":"08115045","Municipality":"Sindelfingen","DistrictCode":"","District":"","Description":"","Authority":"NVBW","DelfiName":"-","THID":"D91FB3000C89","LastOperationDate":"2024-12-31T00:00:00","SEV":"nein","longitude":"8,964764","latitude":"48,723146","geojson_lng":8.964764,"geojson_lat":48.723146},"geometry":{"type":"Point","coordinates":[8.964764,48.723146]}},{"type":"Feature","properties":{"SeqNo":"5195","Type":"Q","DHID":"de:08115:3209:0:3","Parent":"de:08115:3209","Name":"eRtg Hallenbad","MunicipalityCode":"00000000","Municipality":"-","DistrictCode":"-","District":"-","Description":"","Authority":"NVBW","DelfiName":"-","THID":"-","LastOperationDate":"","SEV":"nein","longitude":"8,964728","latitude":"48,723128","geojson_lng":8.964728,"geojson_lat":48.723128},"geometry":{"type":"Point","coordinates":[8.964728,48.723128]}},{"type":"Feature","properties":{"SeqNo":"5196","Type":"Q","DHID":"de:08115:3209:0:4","Parent":"de:08115:3209","Name":"eRtg Maichingen","MunicipalityCode":"00000000","Municipality":"-","DistrictCode":"-","District":"-","Description":"","Authority":"NVBW","DelfiName":"-","THID":"-","LastOperationDate":"","SEV":"nein","longitude":"8,964809","latitude":"48,723235","geojson_lng":8.964809,"geojson_lat":48.723235},"geometry":{"type":"Point","coordinates":[8.964809,48.723235]}},{"type":"Feature","properties":{"SeqNo":"5197","Type":"S","DHID":"de:08115:3210","Parent":"de:08115:3210","Name":"Maichingen Solo","MunicipalityCode":"08115045","Municipality":"Sindelfingen","DistrictCode":"-","District":"-","Description":"","Authority":"NVBW","DelfiName":"-","THID":"D91FB3000C8A","LastOperationDate":"2025-02-28T00:00:00","SEV":"nein","longitude":"8,973271","latitude":"48,726583","geojson_lng":8.973271,"geojson_lat":48.726583},"geometry":{"type":"Point","coordinates":[8.973271,48.726583]}},{"type":"Feature","properties":{"SeqNo":"5198","Type":"Q","DHID":"de:08115:3210:0:4","Parent":"de:08115:3210","Name":"4","MunicipalityCode":"00000000","Municipality":"-","DistrictCode":"-","District":"-","Description":"Rtg Rathaus","Authority":"NVBW","DelfiName":"-","THID":"-","LastOperationDate":"","SEV":"nein","longitude":"8,973271","latitude":"48,726595","geojson_lng":8.973271,"geojson_lat":48.726595},"geometry":{"type":"Point","coordinates":[8.973271,48.726595]}},{"type":"Feature","properties":{"SeqNo":"5199","Type":"Q","DHID":"de:08115:3210:0:5","Parent":"de:08115:3210","Name":"5","MunicipalityCode":"00000000","Municipality":"-","DistrictCode":"-","District":"-","Description":"Rtg Landhaus/Waldfriedhof","Authority":"NVBW","DelfiName":"-","THID":"-","LastOperationDate":"","SEV":"nein","longitude":"8,973271","latitude":"48,726595","geojson_lng":8.973271,"geojson_lat":48.726595},"geometry":{"type":"Point","coordinates":[8.973271,48.726595]}},{"type":"Feature","properties":{"SeqNo":"5226","Type":"S","DHID":"de:08115:3215","Parent":"de:08115:3215","Name":"Maichingen Bürgerhaus","MunicipalityCode":"08115045","Municipality":"Sindelfingen","DistrictCode":"","District":"","Description":"","Authority":"NVBW","DelfiName":"-","THID":"D91FB3000C8F","LastOperationDate":"2025-02-28T00:00:00","SEV":"nein","longitude":"8,965824","latitude":"48,722008","geojson_lng":8.965824,"geojson_lat":48.722008},"geometry":{"type":"Point","coordinates":[8.965824,48.722008]}},{"type":"Feature","properties":{"SeqNo":"5227","Type":"Q","DHID":"de:08115:3215:0:3","Parent":"de:08115:3215","Name":"Rtg Nord / Rathaus","MunicipalityCode":"00000000","Municipality":"-","DistrictCode":"-","District":"-","Description":"","Authority":"NVBW","DelfiName":"-","THID":"-","LastOperationDate":"","SEV":"nein","longitude":"8,966139","latitude":"48,721854","geojson_lng":8.966139,"geojson_lat":48.721854},"geometry":{"type":"Point","coordinates":[8.966139,48.721854]}},{"type":"Feature","properties":{"SeqNo":"5228","Type":"Q","DHID":"de:08115:3215:0:4","Parent":"de:08115:3215","Name":"Rtg Süd / Hallenbad","MunicipalityCode":"00000000","Municipality":"-","DistrictCode":"-","District":"-","Description":"","Authority":"NVBW","DelfiName":"-","THID":"-","LastOperationDate":"","SEV":"nein","longitude":"8,965519","latitude":"48,722103","geojson_lng":8.965519,"geojson_lat":48.722103},"geometry":{"type":"Point","coordinates":[8.965519,48.722103]}},{"type":"Feature","properties":{"SeqNo":"6589","Type":"S","DHID":"de:08115:5921","Parent":"de:08115:5921","Name":"Sindelfingen Grünäckerstr.","MunicipalityCode":"08115045","Municipality":"Sindelfingen","DistrictCode":"-","District":"-","Description":"","Authority":"NVBW","DelfiName":"-","THID":"D91FB3001721","LastOperationDate":"2025-02-28T00:00:00","SEV":"nein","longitude":"8,973604","latitude":"48,724877","geojson_lng":8.973604,"geojson_lat":48.724877},"geometry":{"type":"Point","coordinates":[8.973604,48.724877]}},{"type":"Feature","properties":{"SeqNo":"6590","Type":"Q","DHID":"de:08115:5921:0:3","Parent":"de:08115:5921","Name":"eRtg Bartenweg","MunicipalityCode":"00000000","Municipality":"-","DistrictCode":"-","District":"-","Description":"eRtg Bartenweg","Authority":"NVBW","DelfiName":"-","THID":"-","LastOperationDate":"","SEV":"nein","longitude":"8,973604","latitude":"48,724877","geojson_lng":8.973604,"geojson_lat":48.724877},"geometry":{"type":"Point","coordinates":[8.973604,48.724877]}},{"type":"Feature","properties":{"SeqNo":"6591","Type":"Q","DHID":"de:08115:5921:0:4","Parent":"de:08115:5921","Name":"eRtg Schlüsseläcker","MunicipalityCode":"00000000","Municipality":"-","DistrictCode":"-","District":"-","Description":"eRtg Schlüsseläcker","Authority":"NVBW","DelfiName":"-","THID":"-","LastOperationDate":"","SEV":"nein","longitude":"8,973604","latitude":"48,724877","geojson_lng":8.973604,"geojson_lat":48.724877},"geometry":{"type":"Point","coordinates":[8.973604,48.724877]}},{"type":"Feature","properties":{"SeqNo":"7251","Type":"S","DHID":"de:08115:7444","Parent":"de:08115:7444","Name":"Maichingen Ulmenstraße","MunicipalityCode":"08115045","Municipality":"Sindelfingen","DistrictCode":"","District":"","Description":"","Authority":"NVBW","DelfiName":"-","THID":"D91FB3001D14","LastOperationDate":"2025-02-28T00:00:00","SEV":"nein","longitude":"8,968492","latitude":"48,72624","geojson_lng":8.968492,"geojson_lat":48.72624},"geometry":{"type":"Point","coordinates":[8.968492,48.72624]}},{"type":"Feature","properties":{"SeqNo":"7252","Type":"Q","DHID":"de:08115:7444:0:3","Parent":"de:08115:7444","Name":"Rtg Nordost","MunicipalityCode":"00000000","Municipality":"-","DistrictCode":"-","District":"-","Description":"","Authority":"NVBW","DelfiName":"-","THID":"-","LastOperationDate":"","SEV":"nein","longitude":"8,968654","latitude":"48,726198","geojson_lng":8.968654,"geojson_lat":48.726198},"geometry":{"type":"Point","coordinates":[8.968654,48.726198]}},{"type":"Feature","properties":{"SeqNo":"7253","Type":"Q","DHID":"de:08115:7444:0:4","Parent":"de:08115:7444","Name":"Rtg Südwest","MunicipalityCode":"00000000","Municipality":"-","DistrictCode":"-","District":"-","Description":"","Authority":"NVBW","DelfiName":"-","THID":"-","LastOperationDate":"","SEV":"nein","longitude":"8,968627","latitude":"48,726317","geojson_lng":8.968627,"geojson_lat":48.726317},"geometry":{"type":"Point","coordinates":[8.968627,48.726317]}}]}