{"type":"FeatureCollection","features":[{"type":"Feature","properties":{"highway":"bus_stop","public_transport":"platform","name":"Dyksterhuzen","ref:IFOPT":"NL:Q:20171400","_quaycode":"NL:Q:20171400","_town":"Bitgummole","_status":"available","_mode":"bus","_direction":286,"_visuallyAccessible":false,"_disabledAccessible":false,"geojson_lng":5.72058490068168,"geojson_lat":53.233498194768224},"geometry":{"type":"Point","coordinates":[5.72058490068168,53.233498194768224]}},{"type":"Feature","properties":{"highway":"bus_stop","public_transport":"platform","name":"Ingelum","ref:IFOPT":"NL:Q:20170600","_quaycode":"NL:Q:20170600","_town":"Ingelum","_status":"available","_mode":"bus","_direction":18,"_visuallyAccessible":true,"_disabledAccessible":true,"geojson_lng":5.7166312165578965,"geojson_lat":53.2256377550877},"geometry":{"type":"Point","coordinates":[5.7166312165578965,53.2256377550877]}},{"type":"Feature","properties":{"highway":"bus_stop","public_transport":"platform","name":"Hegedyk","ref:IFOPT":"NL:Q:20240300","_quaycode":"NL:Q:20240300","_town":"Stiens","_status":"available","_mode":"bus","_direction":295,"_visuallyAccessible":true,"_disabledAccessible":false,"geojson_lng":5.732558763472728,"geojson_lat":53.2663513177844},"geometry":{"type":"Point","coordinates":[5.732558763472728,53.2663513177844]}},{"type":"Feature","properties":{"highway":"bus_stop","public_transport":"platform","name":"Weg naar Koarnjum","ref:IFOPT":"NL:Q:20140400","_quaycode":"NL:Q:20140400","_town":"Koarnjum","_status":"available","_mode":"bus","_direction":325,"_visuallyAccessible":false,"_disabledAccessible":false,"geojson_lng":5.77410944663767,"geojson_lat":53.24191876746383},"geometry":{"type":"Point","coordinates":[5.77410944663767,53.24191876746383]}},{"type":"Feature","properties":{"highway":"bus_stop","public_transport":"platform","name":"De Boskrane","ref:IFOPT":"NL:Q:20140810","_quaycode":"NL:Q:20140810","_town":"Stiens","_status":"available","_mode":"bus","_direction":135,"_visuallyAccessible":false,"_disabledAccessible":false,"geojson_lng":5.7663380463558935,"geojson_lat":53.26439838789313},"geometry":{"type":"Point","coordinates":[5.7663380463558935,53.26439838789313]}},{"type":"Feature","properties":{"highway":"bus_stop","public_transport":"platform","name":"Lege Hearewei","ref:IFOPT":"NL:Q:20141100","_quaycode":"NL:Q:20141100","_town":"Stiens","_status":"available","_mode":"bus","_direction":7,"_visuallyAccessible":false,"_disabledAccessible":false,"geojson_lng":5.75945296825618,"geojson_lat":53.26541732189298},"geometry":{"type":"Point","coordinates":[5.75945296825618,53.26541732189298]}},{"type":"Feature","properties":{"highway":"bus_stop","public_transport":"platform","name":"Feinsum","ref:IFOPT":"NL:Q:20240110","_quaycode":"NL:Q:20240110","_town":"Feinsum","_status":"available","_mode":"bus","_direction":214,"_visuallyAccessible":true,"_disabledAccessible":false,"geojson_lng":5.761322419070248,"geojson_lat":53.27706565838883},"geometry":{"type":"Point","coordinates":[5.761322419070248,53.27706565838883]}},{"type":"Feature","properties":{"highway":"bus_stop","public_transport":"platform","name":"Lege Hearewei","ref:IFOPT":"NL:Q:20141110","_quaycode":"NL:Q:20141110","_town":"Stiens","_status":"available","_mode":"bus","_direction":180,"_visuallyAccessible":false,"_disabledAccessible":false,"geojson_lng":5.759303644387822,"geojson_lat":53.26548068315789},"geometry":{"type":"Point","coordinates":[5.759303644387822,53.26548068315789]}},{"type":"Feature","properties":{"highway":"bus_stop","public_transport":"platform","name":"Langebuorren","ref:IFOPT":"NL:Q:20141200","_quaycode":"NL:Q:20141200","_town":"Stiens","_status":"available","_mode":"bus","_direction":292,"_visuallyAccessible":false,"_disabledAccessible":false,"geojson_lng":5.758548411929499,"geojson_lat":53.26131375554869},"geometry":{"type":"Point","coordinates":[5.758548411929499,53.26131375554869]}},{"type":"Feature","properties":{"highway":"bus_stop","public_transport":"platform","name":"De Boskrane","ref:IFOPT":"NL:Q:20140800","_quaycode":"NL:Q:20140800","_town":"Stiens","_status":"available","_mode":"bus","_direction":302,"_visuallyAccessible":false,"_disabledAccessible":false,"geojson_lng":5.766309415620114,"geojson_lat":53.26455123158808},"geometry":{"type":"Point","coordinates":[5.766309415620114,53.26455123158808]}},{"type":"Feature","properties":{"highway":"bus_stop","public_transport":"platform","name":"Feinsum","ref:IFOPT":"NL:Q:20240100","_quaycode":"NL:Q:20240100","_town":"Feinsum","_status":"available","_mode":"bus","_direction":35,"_visuallyAccessible":false,"_disabledAccessible":false,"geojson_lng":5.76206570565384,"geojson_lat":53.27806971026236},"geometry":{"type":"Point","coordinates":[5.76206570565384,53.27806971026236]}},{"type":"Feature","properties":{"highway":"bus_stop","public_transport":"platform","name":"Menno van Coehoornwei","ref:IFOPT":"NL:Q:20140210","_quaycode":"NL:Q:20140210","_town":"Stiens","_status":"available","_mode":"bus","_direction":153,"_visuallyAccessible":false,"_disabledAccessible":false,"geojson_lng":5.7703359612220915,"geojson_lat":53.252183376437074},"geometry":{"type":"Point","coordinates":[5.7703359612220915,53.252183376437074]}},{"type":"Feature","properties":{"highway":"bus_stop","public_transport":"platform","name":"Jelsum","ref:IFOPT":"NL:Q:20140510","_quaycode":"NL:Q:20140510","_town":"Jelsum","_status":"available","_mode":"bus","_direction":192,"_visuallyAccessible":true,"_disabledAccessible":false,"geojson_lng":5.776412153604926,"geojson_lat":53.236484038611025},"geometry":{"type":"Point","coordinates":[5.776412153604926,53.236484038611025]}},{"type":"Feature","properties":{"highway":"bus_stop","public_transport":"platform","name":"Langebuorren","ref:IFOPT":"NL:Q:20141210","_quaycode":"NL:Q:20141210","_town":"Stiens","_status":"available","_mode":"bus","_direction":122,"_visuallyAccessible":false,"_disabledAccessible":false,"geojson_lng":5.758264079464633,"geojson_lat":53.26135956219101},"geometry":{"type":"Point","coordinates":[5.758264079464633,53.26135956219101]}},{"type":"Feature","properties":{"highway":"bus_stop","public_transport":"platform","name":"Koarnjum","ref:IFOPT":"NL:Q:20140300","_quaycode":"NL:Q:20140300","_town":"Koarnjum","_status":"available","_mode":"bus","_direction":331,"_visuallyAccessible":true,"_disabledAccessible":true,"geojson_lng":5.7809777769996264,"geojson_lat":53.24443934140733},"geometry":{"type":"Point","coordinates":[5.7809777769996264,53.24443934140733]}},{"type":"Feature","properties":{"highway":"bus_stop","public_transport":"platform","name":"Griene Leane","ref:IFOPT":"NL:Q:20140910","_quaycode":"NL:Q:20140910","_town":"Stiens","_status":"available","_mode":"bus","_direction":160,"_visuallyAccessible":false,"_disabledAccessible":false,"geojson_lng":5.777277896551512,"geojson_lat":53.256060735163146},"geometry":{"type":"Point","coordinates":[5.777277896551512,53.256060735163146]}},{"type":"Feature","properties":{"highway":"bus_stop","public_transport":"platform","name":"Weg naar Koarnjum","ref:IFOPT":"NL:Q:20140410","_quaycode":"NL:Q:20140410","_town":"Koarnjum","_status":"available","_mode":"bus","_direction":148,"_visuallyAccessible":false,"_disabledAccessible":true,"geojson_lng":5.773145402931512,"geojson_lat":53.242991152806155},"geometry":{"type":"Point","coordinates":[5.773145402931512,53.242991152806155]}},{"type":"Feature","properties":{"highway":"bus_stop","public_transport":"platform","name":"Jelsum","ref:IFOPT":"NL:Q:20140500","_quaycode":"NL:Q:20140500","_town":"Jelsum","_status":"available","_mode":"bus","_direction":0,"_visuallyAccessible":true,"_disabledAccessible":true,"geojson_lng":5.776536981072846,"geojson_lat":53.23537840760176},"geometry":{"type":"Point","coordinates":[5.776536981072846,53.23537840760176]}},{"type":"Feature","properties":{"highway":"bus_stop","public_transport":"platform","name":"Nije Poarte","ref:IFOPT":"NL:Q:20141400","_quaycode":"NL:Q:20141400","_town":"Stiens","_status":"available","_mode":"bus","_direction":8,"_visuallyAccessible":false,"_disabledAccessible":true,"geojson_lng":5.756052168712658,"geojson_lat":53.26381043139998},"geometry":{"type":"Point","coordinates":[5.756052168712658,53.26381043139998]}},{"type":"Feature","properties":{"highway":"bus_stop","public_transport":"platform","name":"Vijverzathe","ref:IFOPT":"NL:Q:20140610","_quaycode":"NL:Q:20140610","_town":"Jelsum","_status":"available","_mode":"bus","_direction":152,"_visuallyAccessible":true,"_disabledAccessible":false,"geojson_lng":5.778130935663139,"geojson_lat":53.229469693434},"geometry":{"type":"Point","coordinates":[5.778130935663139,53.229469693434]}},{"type":"Feature","properties":{"highway":"bus_stop","public_transport":"platform","name":"Koarnjum","ref:IFOPT":"NL:Q:20140310","_quaycode":"NL:Q:20140310","_town":"Koarnjum","_status":"available","_mode":"bus","_direction":150,"_visuallyAccessible":true,"_disabledAccessible":true,"geojson_lng":5.781019765085996,"geojson_lat":53.24411572365556},"geometry":{"type":"Point","coordinates":[5.781019765085996,53.24411572365556]}},{"type":"Feature","properties":{"highway":"bus_stop","public_transport":"platform","name":"Maartenswouden","ref:IFOPT":"NL:Q:20141310","_quaycode":"NL:Q:20141310","_town":"Stiens","_status":"available","_mode":"bus","_direction":137,"_visuallyAccessible":false,"_disabledAccessible":true,"geojson_lng":5.773618350184008,"geojson_lat":53.26069112276897},"geometry":{"type":"Point","coordinates":[5.773618350184008,53.26069112276897]}},{"type":"Feature","properties":{"highway":"bus_stop","public_transport":"platform","name":"Uniawei","ref:IFOPT":"NL:Q:20141510","_quaycode":"NL:Q:20141510","_town":"Stiens","_status":"available","_mode":"bus","_direction":133,"_visuallyAccessible":true,"_disabledAccessible":false,"geojson_lng":5.760187930956494,"geojson_lat":53.25855012495772},"geometry":{"type":"Point","coordinates":[5.760187930956494,53.25855012495772]}},{"type":"Feature","properties":{"highway":"bus_stop","public_transport":"platform","name":"Uniawei","ref:IFOPT":"NL:Q:20141500","_quaycode":"NL:Q:20141500","_town":"Stiens","_status":"available","_mode":"bus","_direction":313,"_visuallyAccessible":true,"_disabledAccessible":true,"geojson_lng":5.760367431038714,"geojson_lat":53.25851362509732},"geometry":{"type":"Point","coordinates":[5.760367431038714,53.25851362509732]}},{"type":"Feature","properties":{"highway":"bus_stop","public_transport":"platform","name":"Vrouwbuurtstermolen","ref:IFOPT":"NL:Q:20320400","_quaycode":"NL:Q:20320400","_town":"Vrouwbuurtstermolen","_status":"available","_mode":"bus","_direction":350,"_visuallyAccessible":true,"_disabledAccessible":true,"geojson_lng":5.72194657515269,"geojson_lat":53.27779289094323},"geometry":{"type":"Point","coordinates":[5.72194657515269,53.27779289094323]}},{"type":"Feature","properties":{"highway":"bus_stop","public_transport":"platform","name":"Nije Poarte","ref:IFOPT":"NL:Q:20141410","_quaycode":"NL:Q:20141410","_town":"Stiens","_status":"available","_mode":"bus","_direction":171,"_visuallyAccessible":true,"_disabledAccessible":false,"geojson_lng":5.755958567260165,"geojson_lat":53.26337941565044},"geometry":{"type":"Point","coordinates":[5.755958567260165,53.26337941565044]}},{"type":"Feature","properties":{"highway":"bus_stop","public_transport":"platform","name":"Maartenswouden","ref:IFOPT":"NL:Q:20141300","_quaycode":"NL:Q:20141300","_town":"Stiens","_status":"available","_mode":"bus","_direction":319,"_visuallyAccessible":true,"_disabledAccessible":true,"geojson_lng":5.773293423092873,"geojson_lat":53.2612223127661},"geometry":{"type":"Point","coordinates":[5.773293423092873,53.2612223127661]}},{"type":"Feature","properties":{"highway":"bus_stop","public_transport":"platform","name":"Vrouwbuurtstermolen","ref:IFOPT":"NL:Q:20320410","_quaycode":"NL:Q:20320410","_town":"Vrouwbuurtstermolen","_status":"available","_mode":"bus","_direction":187,"_visuallyAccessible":true,"_disabledAccessible":false,"geojson_lng":5.72170107626994,"geojson_lat":53.277065755376476},"geometry":{"type":"Point","coordinates":[5.72170107626994,53.277065755376476]}},{"type":"Feature","properties":{"highway":"bus_stop","public_transport":"platform","name":"Britsum","ref:IFOPT":"NL:Q:20140100","_quaycode":"NL:Q:20140100","_town":"Britsum","_status":"available","_mode":"bus","_direction":8,"_visuallyAccessible":true,"_disabledAccessible":true,"geojson_lng":5.7828930954234945,"geojson_lat":53.25238524818246},"geometry":{"type":"Point","coordinates":[5.7828930954234945,53.25238524818246]}},{"type":"Feature","properties":{"highway":"bus_stop","public_transport":"platform","name":"Hegedyk","ref:IFOPT":"NL:Q:20240310","_quaycode":"NL:Q:20240310","_town":"Stiens","_status":"available","_mode":"bus","_direction":115,"_visuallyAccessible":true,"_disabledAccessible":false,"geojson_lng":5.734498392836952,"geojson_lat":53.26526746627135},"geometry":{"type":"Point","coordinates":[5.734498392836952,53.26526746627135]}},{"type":"Feature","properties":{"highway":"bus_stop","public_transport":"platform","name":"Wythusterwei","ref:IFOPT":"NL:Q:20141610","_quaycode":"NL:Q:20141610","_town":"Stiens","_status":"available","_mode":"bus","_direction":126,"_visuallyAccessible":true,"_disabledAccessible":false,"geojson_lng":5.765580381622522,"geojson_lat":53.25661035059129},"geometry":{"type":"Point","coordinates":[5.765580381622522,53.25661035059129]}},{"type":"Feature","properties":{"highway":"bus_stop","public_transport":"platform","name":"Britsum","ref:IFOPT":"NL:Q:20140110","_quaycode":"NL:Q:20140110","_town":"Britsum","_status":"available","_mode":"bus","_direction":194,"_visuallyAccessible":true,"_disabledAccessible":false,"geojson_lng":5.7826491029168325,"geojson_lat":53.25191880456809},"geometry":{"type":"Point","coordinates":[5.7826491029168325,53.25191880456809]}},{"type":"Feature","properties":{"highway":"bus_stop","public_transport":"platform","name":"Dyksterhuzen","ref:IFOPT":"NL:Q:20171410","_quaycode":"NL:Q:20171410","_town":"Bitgummole","_status":"available","_mode":"bus","_direction":108,"_visuallyAccessible":false,"_disabledAccessible":false,"geojson_lng":5.720569300978137,"geojson_lat":53.233417368066135},"geometry":{"type":"Point","coordinates":[5.720569300978137,53.233417368066135]}},{"type":"Feature","properties":{"highway":"bus_stop","public_transport":"platform","name":"Vijverzathe","ref:IFOPT":"NL:Q:20140600","_quaycode":"NL:Q:20140600","_town":"Jelsum","_status":"available","_mode":"bus","_direction":332,"_visuallyAccessible":true,"_disabledAccessible":true,"geojson_lng":5.7782092216976055,"geojson_lat":53.22984683344151},"geometry":{"type":"Point","coordinates":[5.7782092216976055,53.22984683344151]}},{"type":"Feature","properties":{"highway":"bus_stop","public_transport":"platform","name":"Britsenburgh","ref:IFOPT":"NL:Q:20140710","_quaycode":"NL:Q:20140710","_town":"Britsum","_status":"available","_mode":"bus","_direction":84,"_visuallyAccessible":false,"_disabledAccessible":false,"geojson_lng":5.779075767529477,"geojson_lat":53.2527392212676},"geometry":{"type":"Point","coordinates":[5.779075767529477,53.2527392212676]}},{"type":"Feature","properties":{"highway":"bus_stop","public_transport":"platform","name":"Britsenburgh","ref:IFOPT":"NL:Q:20140700","_quaycode":"NL:Q:20140700","_town":"Britsum","_status":"available","_mode":"bus","_direction":261,"_visuallyAccessible":false,"_disabledAccessible":false,"geojson_lng":5.77877661268355,"geojson_lat":53.252794110700876},"geometry":{"type":"Point","coordinates":[5.77877661268355,53.252794110700876]}},{"type":"Feature","properties":{"highway":"bus_stop","public_transport":"platform","name":"Griene Leane","ref:IFOPT":"NL:Q:20140900","_quaycode":"NL:Q:20140900","_town":"Stiens","_status":"available","_mode":"bus","_direction":347,"_visuallyAccessible":false,"_disabledAccessible":false,"geojson_lng":5.777297832751877,"geojson_lat":53.256608786920104},"geometry":{"type":"Point","coordinates":[5.777297832751877,53.256608786920104]}},{"type":"Feature","properties":{"highway":"bus_stop","public_transport":"platform","name":"Wythusterwei","ref:IFOPT":"NL:Q:20141600","_quaycode":"NL:Q:20141600","_town":"Stiens","_status":"available","_mode":"bus","_direction":307,"_visuallyAccessible":false,"_disabledAccessible":true,"geojson_lng":5.765477622636935,"geojson_lat":53.25685328322722},"geometry":{"type":"Point","coordinates":[5.765477622636935,53.25685328322722]}},{"type":"Feature","properties":{"highway":"bus_stop","public_transport":"platform","name":"Menno van Coehoornwei","ref:IFOPT":"NL:Q:20140200","_quaycode":"NL:Q:20140200","_town":"Stiens","_status":"available","_mode":"bus","_direction":331,"_visuallyAccessible":false,"_disabledAccessible":false,"geojson_lng":5.770411987804478,"geojson_lat":53.252308931109674},"geometry":{"type":"Point","coordinates":[5.770411987804478,53.252308931109674]}},{"type":"Feature","properties":{"highway":"bus_stop","public_transport":"platform","name":"Ingelum","ref:IFOPT":"NL:Q:20170610","_quaycode":"NL:Q:20170610","_town":"Ingelum","_status":"available","_mode":"bus","_direction":186,"_visuallyAccessible":false,"_disabledAccessible":true,"geojson_lng":5.716526543373749,"geojson_lat":53.22565601362623},"geometry":{"type":"Point","coordinates":[5.716526543373749,53.22565601362623]}}]}