{"type":"FeatureCollection","features":[{"type":"Feature","properties":{"SeqNo":"146259","Type":"S","DHID":"de:09261:109","Parent":"de:09261:109","Name":"Landshut, Möwenweg","MunicipalityCode":"09261000","Municipality":"Landshut","DistrictCode":"","District":"","Description":"","Authority":"BEG","DelfiName":"-","THID":"D9242D00006D","LastOperationDate":"2025-02-28T00:00:00","SEV":"nein","longitude":"12,13844","latitude":"48,522865","geojson_lng":12.13844,"geojson_lat":48.522865},"geometry":{"type":"Point","coordinates":[12.13844,48.522865]}},{"type":"Feature","properties":{"SeqNo":"146260","Type":"Q","DHID":"de:09261:109:0:109","Parent":"de:09261:109","Name":"Möwenweg","MunicipalityCode":"00000000","Municipality":"-","DistrictCode":"-","District":"-","Description":"","Authority":"BEG","DelfiName":"-","THID":"-","LastOperationDate":"","SEV":"nein","longitude":"12,13844","latitude":"48,522865","geojson_lng":12.13844,"geojson_lat":48.522865},"geometry":{"type":"Point","coordinates":[12.13844,48.522865]}},{"type":"Feature","properties":{"SeqNo":"146261","Type":"Q","DHID":"de:09261:109:0:386","Parent":"de:09261:109","Name":"Möwenweg","MunicipalityCode":"00000000","Municipality":"-","DistrictCode":"-","District":"-","Description":"","Authority":"BEG","DelfiName":"-","THID":"-","LastOperationDate":"","SEV":"nein","longitude":"12,138413","latitude":"48,522937","geojson_lng":12.138413,"geojson_lat":48.522937},"geometry":{"type":"Point","coordinates":[12.138413,48.522937]}},{"type":"Feature","properties":{"SeqNo":"146362","Type":"S","DHID":"de:09261:147","Parent":"de:09261:147","Name":"Landshut, Spechtweg","MunicipalityCode":"09261000","Municipality":"Landshut","DistrictCode":"","District":"","Description":"","Authority":"BEG","DelfiName":"-","THID":"D9242D000093","LastOperationDate":"2025-02-28T00:00:00","SEV":"nein","longitude":"12,135323","latitude":"48,520652","geojson_lng":12.135323,"geojson_lat":48.520652},"geometry":{"type":"Point","coordinates":[12.135323,48.520652]}},{"type":"Feature","properties":{"SeqNo":"146363","Type":"Q","DHID":"de:09261:147:0:1","Parent":"de:09261:147","Name":"Spechtweg","MunicipalityCode":"00000000","Municipality":"-","DistrictCode":"-","District":"-","Description":"","Authority":"BEG","DelfiName":"-","THID":"-","LastOperationDate":"","SEV":"nein","longitude":"12,135323","latitude":"48,520652","geojson_lng":12.135323,"geojson_lat":48.520652},"geometry":{"type":"Point","coordinates":[12.135323,48.520652]}},{"type":"Feature","properties":{"SeqNo":"146364","Type":"Q","DHID":"de:09261:147:0:2","Parent":"de:09261:147","Name":"Spechtweg","MunicipalityCode":"00000000","Municipality":"-","DistrictCode":"-","District":"-","Description":"","Authority":"BEG","DelfiName":"-","THID":"-","LastOperationDate":"","SEV":"nein","longitude":"12,135278","latitude":"48,52061","geojson_lng":12.135278,"geojson_lat":48.52061},"geometry":{"type":"Point","coordinates":[12.135278,48.52061]}},{"type":"Feature","properties":{"SeqNo":"146484","Type":"S","DHID":"de:09261:2","Parent":"de:09261:2","Name":"Landshut, Adlerstraße","MunicipalityCode":"09261000","Municipality":"Landshut","DistrictCode":"","District":"","Description":"","Authority":"BEG","DelfiName":"-","THID":"D9242D000002","LastOperationDate":"2025-02-28T00:00:00","SEV":"nein","longitude":"12,134497","latitude":"48,522526","geojson_lng":12.134497,"geojson_lat":48.522526},"geometry":{"type":"Point","coordinates":[12.134497,48.522526]}},{"type":"Feature","properties":{"SeqNo":"146485","Type":"Q","DHID":"de:09261:2:0:1","Parent":"de:09261:2","Name":"Adlerstraße","MunicipalityCode":"00000000","Municipality":"-","DistrictCode":"-","District":"-","Description":"","Authority":"BEG","DelfiName":"-","THID":"-","LastOperationDate":"","SEV":"nein","longitude":"12,134497","latitude":"48,522526","geojson_lng":12.134497,"geojson_lat":48.522526},"geometry":{"type":"Point","coordinates":[12.134497,48.522526]}},{"type":"Feature","properties":{"SeqNo":"146486","Type":"Q","DHID":"de:09261:2:0:2","Parent":"de:09261:2","Name":"Adlerstraße","MunicipalityCode":"00000000","Municipality":"-","DistrictCode":"-","District":"-","Description":"","Authority":"BEG","DelfiName":"-","THID":"-","LastOperationDate":"","SEV":"nein","longitude":"12,134946","latitude":"48,522556","geojson_lng":12.134946,"geojson_lat":48.522556},"geometry":{"type":"Point","coordinates":[12.134946,48.522556]}},{"type":"Feature","properties":{"SeqNo":"146623","Type":"Q","DHID":"de:09261:48:0:389","Parent":"de:09261:48","Name":"Falkenstraße","MunicipalityCode":"00000000","Municipality":"-","DistrictCode":"-","District":"-","Description":"","Authority":"BEG","DelfiName":"-","THID":"-","LastOperationDate":"","SEV":"nein","longitude":"12,139932","latitude":"48,520057","geojson_lng":12.139932,"geojson_lat":48.520057},"geometry":{"type":"Point","coordinates":[12.139932,48.520057]}},{"type":"Feature","properties":{"SeqNo":"146781","Type":"S","DHID":"de:09261:8","Parent":"de:09261:8","Name":"Landshut, Am Birkenberg","MunicipalityCode":"09261000","Municipality":"Landshut","DistrictCode":"","District":"","Description":"","Authority":"BEG","DelfiName":"-","THID":"D9242D000008","LastOperationDate":"2025-02-28T00:00:00","SEV":"nein","longitude":"12,137883","latitude":"48,521288","geojson_lng":12.137883,"geojson_lat":48.521288},"geometry":{"type":"Point","coordinates":[12.137883,48.521288]}},{"type":"Feature","properties":{"SeqNo":"146782","Type":"Q","DHID":"de:09261:8:0:1","Parent":"de:09261:8","Name":"Am Birkenberg","MunicipalityCode":"00000000","Municipality":"-","DistrictCode":"-","District":"-","Description":"","Authority":"BEG","DelfiName":"-","THID":"-","LastOperationDate":"","SEV":"nein","longitude":"12,137883","latitude":"48,521288","geojson_lng":12.137883,"geojson_lat":48.521288},"geometry":{"type":"Point","coordinates":[12.137883,48.521288]}},{"type":"Feature","properties":{"SeqNo":"146783","Type":"Q","DHID":"de:09261:8:0:2","Parent":"de:09261:8","Name":"Am Birkenberg","MunicipalityCode":"00000000","Municipality":"-","DistrictCode":"-","District":"-","Description":"","Authority":"BEG","DelfiName":"-","THID":"-","LastOperationDate":"","SEV":"nein","longitude":"12,13836","latitude":"48,521336","geojson_lng":12.13836,"geojson_lat":48.521336},"geometry":{"type":"Point","coordinates":[12.13836,48.521336]}},{"type":"Feature","properties":{"SeqNo":"146805","Type":"S","DHID":"de:09261:86","Parent":"de:09261:86","Name":"Landshut, Klausenberg","MunicipalityCode":"09261000","Municipality":"Landshut","DistrictCode":"","District":"","Description":"","Authority":"BEG","DelfiName":"-","THID":"D9242D000056","LastOperationDate":"2025-02-28T00:00:00","SEV":"nein","longitude":"12,131685","latitude":"48,523418","geojson_lng":12.131685,"geojson_lat":48.523418},"geometry":{"type":"Point","coordinates":[12.131685,48.523418]}},{"type":"Feature","properties":{"SeqNo":"146806","Type":"Q","DHID":"de:09261:86:0:1","Parent":"de:09261:86","Name":"Klausenberg","MunicipalityCode":"00000000","Municipality":"-","DistrictCode":"-","District":"-","Description":"","Authority":"BEG","DelfiName":"-","THID":"-","LastOperationDate":"","SEV":"nein","longitude":"12,131685","latitude":"48,523418","geojson_lng":12.131685,"geojson_lat":48.523418},"geometry":{"type":"Point","coordinates":[12.131685,48.523418]}},{"type":"Feature","properties":{"SeqNo":"146807","Type":"Q","DHID":"de:09261:86:0:2","Parent":"de:09261:86","Name":"Klausenberg","MunicipalityCode":"00000000","Municipality":"-","DistrictCode":"-","District":"-","Description":"","Authority":"BEG","DelfiName":"-","THID":"-","LastOperationDate":"","SEV":"nein","longitude":"12,131577","latitude":"48,523508","geojson_lng":12.131577,"geojson_lat":48.523508},"geometry":{"type":"Point","coordinates":[12.131577,48.523508]}}]}