{"type":"FeatureCollection","features":[{"type":"Feature","properties":{"highway":"bus_stop","public_transport":"platform","name":"Akeleiweide","ref:IFOPT":"NL:Q:51400410","_quaycode":"NL:Q:51400410","_town":"Woerden","_status":"available","_mode":"bus","_direction":173,"_visuallyAccessible":false,"_disabledAccessible":false,"geojson_lng":4.858334200367239,"geojson_lat":52.075619723105},"geometry":{"type":"Point","coordinates":[4.858334200367239,52.075619723105]}},{"type":"Feature","properties":{"highway":"bus_stop","public_transport":"platform","name":"Molenvlietbrink","ref:IFOPT":"NL:Q:51400640","_quaycode":"NL:Q:51400640","_town":"Woerden","_status":"available","_mode":"bus","_direction":22,"_visuallyAccessible":false,"_disabledAccessible":false,"geojson_lng":4.861361567435274,"geojson_lat":52.07743091187989},"geometry":{"type":"Point","coordinates":[4.861361567435274,52.07743091187989]}},{"type":"Feature","properties":{"highway":"bus_stop","public_transport":"platform","name":"Stromenlaan","ref:IFOPT":"NL:Q:51400580","_quaycode":"NL:Q:51400580","_town":"Woerden","_status":"available","_mode":"bus","_direction":230,"_visuallyAccessible":false,"_disabledAccessible":false,"geojson_lng":4.873962569287933,"geojson_lat":52.076380914365124},"geometry":{"type":"Point","coordinates":[4.873962569287933,52.076380914365124]}},{"type":"Feature","properties":{"highway":"bus_stop","public_transport":"platform","name":"Molenvlietbrink","ref:IFOPT":"NL:Q:51400630","_quaycode":"NL:Q:51400630","_town":"Woerden","_status":"available","_mode":"bus","_direction":199,"_visuallyAccessible":false,"_disabledAccessible":false,"geojson_lng":4.861201008322359,"geojson_lat":52.077439183571535},"geometry":{"type":"Point","coordinates":[4.861201008322359,52.077439183571535]}},{"type":"Feature","properties":{"highway":"bus_stop","public_transport":"platform","name":"Stromenlaan","ref:IFOPT":"NL:Q:51400570","_quaycode":"NL:Q:51400570","_town":"Woerden","_status":"available","_mode":"bus","_direction":60,"_visuallyAccessible":true,"_disabledAccessible":false,"geojson_lng":4.874007668477044,"geojson_lat":52.076264264162404},"geometry":{"type":"Point","coordinates":[4.874007668477044,52.076264264162404]}},{"type":"Feature","properties":{"highway":"bus_stop","public_transport":"platform","name":"Akeleiweide","ref:IFOPT":"NL:Q:51400400","_quaycode":"NL:Q:51400400","_town":"Woerden","_status":"available","_mode":"bus","_direction":355,"_visuallyAccessible":false,"_disabledAccessible":false,"geojson_lng":4.858478043312477,"geojson_lat":52.075791144555176},"geometry":{"type":"Point","coordinates":[4.858478043312477,52.075791144555176]}},{"type":"Feature","properties":{"highway":"bus_stop","public_transport":"platform","name":"Polderbaan","ref:IFOPT":"NL:Q:51400550","_quaycode":"NL:Q:51400550","_town":"Woerden","_status":"available","_mode":"bus","_direction":60,"_visuallyAccessible":false,"_disabledAccessible":false,"geojson_lng":4.869801645168372,"geojson_lat":52.074169597975505},"geometry":{"type":"Point","coordinates":[4.869801645168372,52.074169597975505]}},{"type":"Feature","properties":{"highway":"bus_stop","public_transport":"platform","name":"Polderbaan","ref:IFOPT":"NL:Q:51400560","_quaycode":"NL:Q:51400560","_town":"Woerden","_status":"available","_mode":"bus","_direction":240,"_visuallyAccessible":false,"_disabledAccessible":false,"geojson_lng":4.868637607179115,"geojson_lat":52.073921799902095},"geometry":{"type":"Point","coordinates":[4.868637607179115,52.073921799902095]}},{"type":"Feature","properties":{"highway":"bus_stop","public_transport":"platform","name":"Waardsedijk","ref:IFOPT":"NL:Q:51400450","_quaycode":"NL:Q:51400450","_town":"Woerden","_status":"available","_mode":"bus","_direction":82,"_visuallyAccessible":false,"_disabledAccessible":false,"geojson_lng":4.864929833431124,"geojson_lat":52.07291672267517},"geometry":{"type":"Point","coordinates":[4.864929833431124,52.07291672267517]}},{"type":"Feature","properties":{"highway":"bus_stop","public_transport":"platform","name":"Waardsedijk","ref:IFOPT":"NL:Q:51400440","_quaycode":"NL:Q:51400440","_town":"Woerden","_status":"available","_mode":"bus","_direction":250,"_visuallyAccessible":false,"_disabledAccessible":false,"geojson_lng":4.865715130663506,"geojson_lat":52.073117941091326},"geometry":{"type":"Point","coordinates":[4.865715130663506,52.073117941091326]}}]}