{"type":"FeatureCollection","features":[{"type":"Feature","properties":{"SeqNo":"171756","Type":"S","DHID":"de:09362:12002","Parent":"de:09362:12002","Name":"An der Schauergrube","MunicipalityCode":"09362000","Municipality":"Regensburg","DistrictCode":"","District":"","Description":"","Authority":"BEG","DelfiName":"-","THID":"D92492002EE2","LastOperationDate":"2025-06-14T00:00:00","SEV":"nein","longitude":"12,151547","latitude":"49,038856","geojson_lng":12.151547,"geojson_lat":49.038856},"geometry":{"type":"Point","coordinates":[12.151547,49.038856]}},{"type":"Feature","properties":{"SeqNo":"171757","Type":"Q","DHID":"de:09362:12002:0:1","Parent":"de:09362:12002","Name":"An der Schauergrube","MunicipalityCode":"00000000","Municipality":"-","DistrictCode":"-","District":"-","Description":"","Authority":"BEG","DelfiName":"-","THID":"-","LastOperationDate":"","SEV":"nein","longitude":"12,151691","latitude":"49,038856","geojson_lng":12.151691,"geojson_lat":49.038856},"geometry":{"type":"Point","coordinates":[12.151691,49.038856]}},{"type":"Feature","properties":{"SeqNo":"171758","Type":"Q","DHID":"de:09362:12002:0:2","Parent":"de:09362:12002","Name":"An der Schauergrube","MunicipalityCode":"00000000","Municipality":"-","DistrictCode":"-","District":"-","Description":"","Authority":"BEG","DelfiName":"-","THID":"-","LastOperationDate":"","SEV":"nein","longitude":"12,151403","latitude":"49,038856","geojson_lng":12.151403,"geojson_lat":49.038856},"geometry":{"type":"Point","coordinates":[12.151403,49.038856]}},{"type":"Feature","properties":{"SeqNo":"171803","Type":"S","DHID":"de:09362:12018","Parent":"de:09362:12018","Name":"Brombeerweg","MunicipalityCode":"09362000","Municipality":"Regensburg","DistrictCode":"","District":"","Description":"","Authority":"BEG","DelfiName":"-","THID":"D92492002EF2","LastOperationDate":"2025-06-14T00:00:00","SEV":"nein","longitude":"12,160853","latitude":"49,043484","geojson_lng":12.160853,"geojson_lat":49.043484},"geometry":{"type":"Point","coordinates":[12.160853,49.043484]}},{"type":"Feature","properties":{"SeqNo":"171804","Type":"Q","DHID":"de:09362:12018:0:1","Parent":"de:09362:12018","Name":"Brombeerweg","MunicipalityCode":"00000000","Municipality":"-","DistrictCode":"-","District":"-","Description":"","Authority":"BEG","DelfiName":"-","THID":"-","LastOperationDate":"","SEV":"nein","longitude":"12,160844","latitude":"49,043526","geojson_lng":12.160844,"geojson_lat":49.043526},"geometry":{"type":"Point","coordinates":[12.160844,49.043526]}},{"type":"Feature","properties":{"SeqNo":"171805","Type":"Q","DHID":"de:09362:12018:0:2","Parent":"de:09362:12018","Name":"Brombeerweg","MunicipalityCode":"00000000","Municipality":"-","DistrictCode":"-","District":"-","Description":"","Authority":"BEG","DelfiName":"-","THID":"-","LastOperationDate":"","SEV":"nein","longitude":"12,160871","latitude":"49,043449","geojson_lng":12.160871,"geojson_lat":49.043449},"geometry":{"type":"Point","coordinates":[12.160871,49.043449]}},{"type":"Feature","properties":{"SeqNo":"171845","Type":"S","DHID":"de:09362:12031","Parent":"de:09362:12031","Name":"Keilberger Hauptstraße","MunicipalityCode":"09362000","Municipality":"Regensburg","DistrictCode":"","District":"","Description":"","Authority":"BEG","DelfiName":"-","THID":"D92492002EFF","LastOperationDate":"2025-06-14T00:00:00","SEV":"nein","longitude":"12,156658","latitude":"49,038485","geojson_lng":12.156658,"geojson_lat":49.038485},"geometry":{"type":"Point","coordinates":[12.156658,49.038485]}},{"type":"Feature","properties":{"SeqNo":"171846","Type":"Q","DHID":"de:09362:12031:0:0","Parent":"de:09362:12031","Name":"Ausrückdummy","MunicipalityCode":"00000000","Municipality":"-","DistrictCode":"-","District":"-","Description":"","Authority":"BEG","DelfiName":"-","THID":"-","LastOperationDate":"","SEV":"nein","longitude":"12,156694","latitude":"49,038455","geojson_lng":12.156694,"geojson_lat":49.038455},"geometry":{"type":"Point","coordinates":[12.156694,49.038455]}},{"type":"Feature","properties":{"SeqNo":"171847","Type":"Q","DHID":"de:09362:12031:0:1","Parent":"de:09362:12031","Name":"Keilberger Hauptstraße","MunicipalityCode":"00000000","Municipality":"-","DistrictCode":"-","District":"-","Description":"","Authority":"BEG","DelfiName":"-","THID":"-","LastOperationDate":"","SEV":"nein","longitude":"12,15655","latitude":"49,038497","geojson_lng":12.15655,"geojson_lat":49.038497},"geometry":{"type":"Point","coordinates":[12.15655,49.038497]}},{"type":"Feature","properties":{"SeqNo":"171848","Type":"Q","DHID":"de:09362:12031:0:2","Parent":"de:09362:12031","Name":"Keilberger Hauptstraße","MunicipalityCode":"00000000","Municipality":"-","DistrictCode":"-","District":"-","Description":"","Authority":"BEG","DelfiName":"-","THID":"-","LastOperationDate":"","SEV":"nein","longitude":"12,156766","latitude":"49,038467","geojson_lng":12.156766,"geojson_lat":49.038467},"geometry":{"type":"Point","coordinates":[12.156766,49.038467]}},{"type":"Feature","properties":{"SeqNo":"171849","Type":"S","DHID":"de:09362:12032","Parent":"de:09362:12032","Name":"Keilberg","MunicipalityCode":"09362000","Municipality":"Regensburg","DistrictCode":"-","District":"-","Description":"","Authority":"BEG","DelfiName":"-","THID":"D92492002F00","LastOperationDate":"2025-06-14T00:00:00","SEV":"nein","longitude":"12,158706","latitude":"49,038414","geojson_lng":12.158706,"geojson_lat":49.038414},"geometry":{"type":"Point","coordinates":[12.158706,49.038414]}},{"type":"Feature","properties":{"SeqNo":"171850","Type":"Q","DHID":"de:09362:12032:0:1","Parent":"de:09362:12032","Name":"Keilberg","MunicipalityCode":"00000000","Municipality":"-","DistrictCode":"-","District":"-","Description":"KBHS","Authority":"BEG","DelfiName":"-","THID":"-","LastOperationDate":"","SEV":"nein","longitude":"12,158643","latitude":"49,038385","geojson_lng":12.158643,"geojson_lat":49.038385},"geometry":{"type":"Point","coordinates":[12.158643,49.038385]}},{"type":"Feature","properties":{"SeqNo":"171851","Type":"Q","DHID":"de:09362:12032:0:2","Parent":"de:09362:12032","Name":"Keilberg","MunicipalityCode":"00000000","Municipality":"-","DistrictCode":"-","District":"-","Description":"HOLI","Authority":"BEG","DelfiName":"-","THID":"-","LastOperationDate":"","SEV":"nein","longitude":"12,158778","latitude":"49,038438","geojson_lng":12.158778,"geojson_lat":49.038438},"geometry":{"type":"Point","coordinates":[12.158778,49.038438]}},{"type":"Feature","properties":{"SeqNo":"172684","Type":"S","DHID":"de:09362:17005","Parent":"de:09362:17005","Name":"Zur Hohen Linie","MunicipalityCode":"09362000","Municipality":"Regensburg","DistrictCode":"","District":"","Description":"","Authority":"BEG","DelfiName":"-","THID":"D9249200426D","LastOperationDate":"2025-06-14T00:00:00","SEV":"nein","longitude":"12,160763","latitude":"49,04067","geojson_lng":12.160763,"geojson_lat":49.04067},"geometry":{"type":"Point","coordinates":[12.160763,49.04067]}},{"type":"Feature","properties":{"SeqNo":"172685","Type":"Q","DHID":"de:09362:17005:0:1","Parent":"de:09362:17005","Name":"Zur Hohen Linie","MunicipalityCode":"00000000","Municipality":"-","DistrictCode":"-","District":"-","Description":"","Authority":"BEG","DelfiName":"-","THID":"-","LastOperationDate":"","SEV":"nein","longitude":"12,160683","latitude":"49,040593","geojson_lng":12.160683,"geojson_lat":49.040593},"geometry":{"type":"Point","coordinates":[12.160683,49.040593]}},{"type":"Feature","properties":{"SeqNo":"172686","Type":"Q","DHID":"de:09362:17005:0:2","Parent":"de:09362:17005","Name":"Zur Hohen Linie","MunicipalityCode":"00000000","Municipality":"-","DistrictCode":"-","District":"-","Description":"","Authority":"BEG","DelfiName":"-","THID":"-","LastOperationDate":"","SEV":"nein","longitude":"12,160853","latitude":"49,04074","geojson_lng":12.160853,"geojson_lat":49.04074},"geometry":{"type":"Point","coordinates":[12.160853,49.04074]}}]}