{"type":"FeatureCollection","features":[{"type":"Feature","properties":{"SeqNo":"80365","Type":"S","DHID":"de:08337:6608","Parent":"de:08337:6608","Name":"Lauchringen Bahnhof","Latitude":"47,628896","Longitude":"8,322711","MunicipalityCode":"08337065","Municipality":"Lauchringen","DistrictCode":"-","District":"-","Description":"","Authority":"NVBW","DelfiName":"-","THID":"D920910019D0","TariffProvider":"-","LastOperationDate":"2025-12-13T00:00:00","SEV":"nein","geojson_lng":8.322711,"geojson_lat":47.628896},"geometry":{"type":"Point","coordinates":[8.322711,47.628896]}},{"type":"Feature","properties":{"SeqNo":"80366","Type":"A","DHID":"de:08337:6608:1","Parent":"de:08337:6608","Name":"Gleis 1","Latitude":"47,629036","Longitude":"8,322181","MunicipalityCode":"00000000","Municipality":"-","DistrictCode":"-","District":"-","Description":"","Authority":"NVBW","DelfiName":"-","THID":"-","TariffProvider":"-","LastOperationDate":"","SEV":"nein","geojson_lng":8.322181,"geojson_lat":47.629036},"geometry":{"type":"Point","coordinates":[8.322181,47.629036]}},{"type":"Feature","properties":{"SeqNo":"80367","Type":"A","DHID":"de:08337:6608:10","Parent":"de:08337:6608","Name":"Bus","Latitude":"47,628788","Longitude":"8,321831","MunicipalityCode":"00000000","Municipality":"-","DistrictCode":"-","District":"-","Description":"","Authority":"NVBW","DelfiName":"-","THID":"-","TariffProvider":"-","LastOperationDate":"","SEV":"nein","geojson_lng":8.321831,"geojson_lat":47.628788},"geometry":{"type":"Point","coordinates":[8.321831,47.628788]}},{"type":"Feature","properties":{"SeqNo":"80368","Type":"A","DHID":"de:08337:6608:11","Parent":"de:08337:6608","Name":"Zugang Gl 1 Zentral","Latitude":"47,628939","Longitude":"8,322379","MunicipalityCode":"00000000","Municipality":"-","DistrictCode":"-","District":"-","Description":"","Authority":"NVBW","DelfiName":"-","THID":"-","TariffProvider":"-","LastOperationDate":"","SEV":"nein","geojson_lng":8.322379,"geojson_lat":47.628939},"geometry":{"type":"Point","coordinates":[8.322379,47.628939]}},{"type":"Feature","properties":{"SeqNo":"80369","Type":"A","DHID":"de:08337:6608:12","Parent":"de:08337:6608","Name":"Zugang Gleis 1 Ost","Latitude":"47,628781","Longitude":"8,322855","MunicipalityCode":"00000000","Municipality":"-","DistrictCode":"-","District":"-","Description":"","Authority":"NVBW","DelfiName":"-","THID":"-","TariffProvider":"-","LastOperationDate":"","SEV":"nein","geojson_lng":8.322855,"geojson_lat":47.628781},"geometry":{"type":"Point","coordinates":[8.322855,47.628781]}},{"type":"Feature","properties":{"SeqNo":"80370","Type":"A","DHID":"de:08337:6608:30","Parent":"de:08337:6608","Name":"B+R Dach West","Latitude":"47,629078","Longitude":"8,321804","MunicipalityCode":"00000000","Municipality":"-","DistrictCode":"-","District":"-","Description":"","Authority":"NVBW","DelfiName":"-","THID":"-","TariffProvider":"-","LastOperationDate":"","SEV":"nein","geojson_lng":8.321804,"geojson_lat":47.629078},"geometry":{"type":"Point","coordinates":[8.321804,47.629078]}},{"type":"Feature","properties":{"SeqNo":"80371","Type":"A","DHID":"de:08337:6608:31","Parent":"de:08337:6608","Name":"B+R Dach OST","Latitude":"47,628878","Longitude":"8,322433","MunicipalityCode":"00000000","Municipality":"-","DistrictCode":"-","District":"-","Description":"","Authority":"NVBW","DelfiName":"-","THID":"-","TariffProvider":"-","LastOperationDate":"","SEV":"nein","geojson_lng":8.322433,"geojson_lat":47.628878},"geometry":{"type":"Point","coordinates":[8.322433,47.628878]}},{"type":"Feature","properties":{"SeqNo":"80372","Type":"A","DHID":"de:08337:6608:32","Parent":"de:08337:6608","Name":"B+R Boxen","Latitude":"47,628909","Longitude":"8,322442","MunicipalityCode":"00000000","Municipality":"-","DistrictCode":"-","District":"-","Description":"","Authority":"NVBW","DelfiName":"-","THID":"-","TariffProvider":"-","LastOperationDate":"","SEV":"nein","geojson_lng":8.322442,"geojson_lat":47.628909},"geometry":{"type":"Point","coordinates":[8.322442,47.628909]}},{"type":"Feature","properties":{"SeqNo":"80373","Type":"A","DHID":"de:08337:6608:50","Parent":"de:08337:6608","Name":"P+R Südwest","Latitude":"47,629048","Longitude":"8,321678","MunicipalityCode":"00000000","Municipality":"-","DistrictCode":"-","District":"-","Description":"","Authority":"NVBW","DelfiName":"-","THID":"-","TariffProvider":"-","LastOperationDate":"","SEV":"nein","geojson_lng":8.321678,"geojson_lat":47.629048},"geometry":{"type":"Point","coordinates":[8.321678,47.629048]}},{"type":"Feature","properties":{"SeqNo":"80374","Type":"A","DHID":"de:08337:6608:51","Parent":"de:08337:6608","Name":"P+R Südost","Latitude":"47,628757","Longitude":"8,322613","MunicipalityCode":"00000000","Municipality":"-","DistrictCode":"-","District":"-","Description":"","Authority":"NVBW","DelfiName":"-","THID":"-","TariffProvider":"-","LastOperationDate":"","SEV":"nein","geojson_lng":8.322613,"geojson_lat":47.628757},"geometry":{"type":"Point","coordinates":[8.322613,47.628757]}},{"type":"Feature","properties":{"SeqNo":"80375","Type":"A","DHID":"de:08337:6608:90","Parent":"de:08337:6608","Name":"Zugang Gleis 1 West","Latitude":"47,62906","Longitude":"8,321903","MunicipalityCode":"00000000","Municipality":"-","DistrictCode":"-","District":"-","Description":"","Authority":"NVBW","DelfiName":"-","THID":"-","TariffProvider":"-","LastOperationDate":"","SEV":"nein","geojson_lng":8.321903,"geojson_lat":47.62906},"geometry":{"type":"Point","coordinates":[8.321903,47.62906]}},{"type":"Feature","properties":{"SeqNo":"80376","Type":"Q","DHID":"de:08337:6608:1:1","Parent":"de:08337:6608:1","Name":"Gleis 1","Latitude":"47,629042","Longitude":"8,322271","MunicipalityCode":"00000000","Municipality":"-","DistrictCode":"-","District":"-","Description":"","Authority":"NVBW","DelfiName":"-","THID":"-","TariffProvider":"-","LastOperationDate":"","SEV":"nein","geojson_lng":8.322271,"geojson_lat":47.629042},"geometry":{"type":"Point","coordinates":[8.322271,47.629042]}},{"type":"Feature","properties":{"SeqNo":"80377","Type":"Q","DHID":"de:08337:6608:10:1","Parent":"de:08337:6608:10","Name":"Ri. Osten","Latitude":"47,628739","Longitude":"8,321858","MunicipalityCode":"00000000","Municipality":"-","DistrictCode":"-","District":"-","Description":"","Authority":"NVBW","DelfiName":"-","THID":"-","TariffProvider":"-","LastOperationDate":"","SEV":"nein","geojson_lng":8.321858,"geojson_lat":47.628739},"geometry":{"type":"Point","coordinates":[8.321858,47.628739]}},{"type":"Feature","properties":{"SeqNo":"80378","Type":"Q","DHID":"de:08337:6608:10:2","Parent":"de:08337:6608:10","Name":"Ri. Westen","Latitude":"47,628896","Longitude":"8,321472","MunicipalityCode":"00000000","Municipality":"-","DistrictCode":"-","District":"-","Description":"","Authority":"NVBW","DelfiName":"-","THID":"-","TariffProvider":"-","LastOperationDate":"","SEV":"nein","geojson_lng":8.321472,"geojson_lat":47.628896},"geometry":{"type":"Point","coordinates":[8.321472,47.628896]}}]}