{"type":"FeatureCollection","features":[{"type":"Feature","properties":{"SeqNo":"779806","Type":"S","DHID":"de:08225:2783","Parent":"de:08225:2783","Name":"Mörtelstein, Schule","MunicipalityCode":"08225074","Municipality":"Obrigheim","DistrictCode":"08225","District":"","Description":"","Authority":"VRN","DelfiName":"-","THID":"D92021000ADF","LastOperationDate":"1999-12-31T00:00:00","SEV":"nein","longitude":"9,047436","latitude":"49,358993","geojson_lng":9.047436,"geojson_lat":49.358993},"geometry":{"type":"Point","coordinates":[9.047436,49.358993]}},{"type":"Feature","properties":{"SeqNo":"779807","Type":"S","DHID":"de:08225:2784","Parent":"de:08225:2784","Name":"Mörtelstein, Berg","MunicipalityCode":"08225074","Municipality":"Obrigheim","DistrictCode":"08225","District":"","Description":"","Authority":"VRN","DelfiName":"-","THID":"D92021000AE0","LastOperationDate":"2025-06-14T00:00:00","SEV":"nein","longitude":"9,043295","latitude":"49,358168","geojson_lng":9.043295,"geojson_lat":49.358168},"geometry":{"type":"Point","coordinates":[9.043295,49.358168]}},{"type":"Feature","properties":{"SeqNo":"779808","Type":"Q","DHID":"de:08225:2784:0:RiO","Parent":"de:08225:2784","Name":"RiO Mitte","MunicipalityCode":"00000000","Municipality":"-","DistrictCode":"-","District":"-","Description":"","Authority":"VRN","DelfiName":"-","THID":"-","LastOperationDate":"","SEV":"nein","longitude":"9,043511","latitude":"49,357993","geojson_lng":9.043511,"geojson_lat":49.357993},"geometry":{"type":"Point","coordinates":[9.043511,49.357993]}},{"type":"Feature","properties":{"SeqNo":"779809","Type":"Q","DHID":"de:08225:2784:0:RiS","Parent":"de:08225:2784","Name":"RiS Asbach/Breitenbronn","MunicipalityCode":"00000000","Municipality":"-","DistrictCode":"-","District":"-","Description":"","Authority":"VRN","DelfiName":"-","THID":"-","LastOperationDate":"","SEV":"nein","longitude":"9,042738","latitude":"49,358162","geojson_lng":9.042738,"geojson_lat":49.358162},"geometry":{"type":"Point","coordinates":[9.042738,49.358162]}},{"type":"Feature","properties":{"SeqNo":"779847","Type":"S","DHID":"de:08225:2798","Parent":"de:08225:2798","Name":"Mörtelstein, Gunzenboden","MunicipalityCode":"08225074","Municipality":"Obrigheim","DistrictCode":"08225","District":"","Description":"","Authority":"VRN","DelfiName":"-","THID":"D92021000AEE","LastOperationDate":"2025-06-14T00:00:00","SEV":"nein","longitude":"9,051371","latitude":"49,360737","geojson_lng":9.051371,"geojson_lat":49.360737},"geometry":{"type":"Point","coordinates":[9.051371,49.360737]}},{"type":"Feature","properties":{"SeqNo":"779848","Type":"Q","DHID":"de:08225:2798:0:RiO","Parent":"de:08225:2798","Name":"RiO Obrigheim","MunicipalityCode":"00000000","Municipality":"-","DistrictCode":"-","District":"-","Description":"","Authority":"VRN","DelfiName":"-","THID":"-","LastOperationDate":"","SEV":"nein","longitude":"9,051353","latitude":"49,360707","geojson_lng":9.051353,"geojson_lat":49.360707},"geometry":{"type":"Point","coordinates":[9.051353,49.360707]}},{"type":"Feature","properties":{"SeqNo":"779849","Type":"Q","DHID":"de:08225:2798:0:RiW","Parent":"de:08225:2798","Name":"RiW Mitte","MunicipalityCode":"00000000","Municipality":"-","DistrictCode":"-","District":"-","Description":"","Authority":"VRN","DelfiName":"-","THID":"-","LastOperationDate":"","SEV":"nein","longitude":"9,051344","latitude":"49,360754","geojson_lng":9.051344,"geojson_lat":49.360754},"geometry":{"type":"Point","coordinates":[9.051344,49.360754]}},{"type":"Feature","properties":{"SeqNo":"780538","Type":"S","DHID":"de:08225:7147","Parent":"de:08225:7147","Name":"Mörtelstein, Mitte","MunicipalityCode":"08225074","Municipality":"Obrigheim","DistrictCode":"08225","District":"","Description":"","Authority":"VRN","DelfiName":"-","THID":"D92021001BEB","LastOperationDate":"2025-06-14T00:00:00","SEV":"nein","longitude":"9,046385","latitude":"49,358209","geojson_lng":9.046385,"geojson_lat":49.358209},"geometry":{"type":"Point","coordinates":[9.046385,49.358209]}},{"type":"Feature","properties":{"SeqNo":"780539","Type":"Q","DHID":"de:08225:7147:0:RiO","Parent":"de:08225:7147","Name":"RiO Gunzenboden/Obrigheim","MunicipalityCode":"00000000","Municipality":"-","DistrictCode":"-","District":"-","Description":"","Authority":"VRN","DelfiName":"-","THID":"-","LastOperationDate":"","SEV":"nein","longitude":"9,046646","latitude":"49,358385","geojson_lng":9.046646,"geojson_lat":49.358385},"geometry":{"type":"Point","coordinates":[9.046646,49.358385]}},{"type":"Feature","properties":{"SeqNo":"780540","Type":"Q","DHID":"de:08225:7147:0:RiW","Parent":"de:08225:7147","Name":"RiW Berg/Asbach","MunicipalityCode":"00000000","Municipality":"-","DistrictCode":"-","District":"-","Description":"","Authority":"VRN","DelfiName":"-","THID":"-","LastOperationDate":"","SEV":"nein","longitude":"9,046125","latitude":"49,358051","geojson_lng":9.046125,"geojson_lat":49.358051},"geometry":{"type":"Point","coordinates":[9.046125,49.358051]}}]}