{"type":"FeatureCollection","features":[{"type":"Feature","properties":{"highway":"bus_stop","public_transport":"platform","name":"Buiting","ref:IFOPT":"NL:Q:41890060","_quaycode":"NL:Q:41890060","_town":"Braamt","_status":"available","_mode":"bus","_direction":0,"_visuallyAccessible":false,"_disabledAccessible":true,"geojson_lng":6.269466275343357,"geojson_lat":51.924335209173044},"geometry":{"type":"Point","coordinates":[6.269466275343357,51.924335209173044]}},{"type":"Feature","properties":{"highway":"bus_stop","public_transport":"platform","name":"Stroombroek","ref:IFOPT":"NL:Q:41890090","_quaycode":"NL:Q:41890090","_town":"Wijnbergen","_status":"available","_mode":"bus","_direction":178,"_visuallyAccessible":false,"_disabledAccessible":true,"geojson_lng":6.272964809077698,"geojson_lat":51.933657140670746},"geometry":{"type":"Point","coordinates":[6.272964809077698,51.933657140670746]}},{"type":"Feature","properties":{"highway":"bus_stop","public_transport":"platform","name":"Buiting","ref:IFOPT":"NL:Q:41890050","_quaycode":"NL:Q:41890050","_town":"Braamt","_status":"available","_mode":"bus","_direction":197,"_visuallyAccessible":false,"_disabledAccessible":true,"geojson_lng":6.269214397788832,"geojson_lat":51.924094405031},"geometry":{"type":"Point","coordinates":[6.269214397788832,51.924094405031]}},{"type":"Feature","properties":{"highway":"bus_stop","public_transport":"platform","name":"McDonald's","ref:IFOPT":"NL:Q:41820130","_quaycode":"NL:Q:41820130","_town":"Doetinchem","_status":"available","_mode":"bus","_direction":332,"_visuallyAccessible":false,"_disabledAccessible":false,"geojson_lng":6.309567437021962,"geojson_lat":51.945096871620144},"geometry":{"type":"Point","coordinates":[6.309567437021962,51.945096871620144]}},{"type":"Feature","properties":{"highway":"bus_stop","public_transport":"platform","name":"Kilderseweg","ref:IFOPT":"NL:Q:41790190","_quaycode":"NL:Q:41790190","_town":"Zeddam","_status":"available","_mode":"bus","_direction":167,"_visuallyAccessible":false,"_disabledAccessible":true,"geojson_lng":6.25611021311562,"geojson_lat":51.90878540320258},"geometry":{"type":"Point","coordinates":[6.25611021311562,51.90878540320258]}},{"type":"Feature","properties":{"highway":"bus_stop","public_transport":"platform","name":"Stroombroek","ref:IFOPT":"NL:Q:41890100","_quaycode":"NL:Q:41890100","_town":"Wijnbergen","_status":"available","_mode":"bus","_direction":350,"_visuallyAccessible":false,"_disabledAccessible":true,"geojson_lng":6.273272257136274,"geojson_lat":51.933762687418216},"geometry":{"type":"Point","coordinates":[6.273272257136274,51.933762687418216]}},{"type":"Feature","properties":{"highway":"bus_stop","public_transport":"platform","name":"Kilderseweg","ref:IFOPT":"NL:Q:41790200","_quaycode":"NL:Q:41790200","_town":"Zeddam","_status":"available","_mode":"bus","_direction":342,"_visuallyAccessible":false,"_disabledAccessible":true,"geojson_lng":6.256159193559469,"geojson_lat":51.90906369092335},"geometry":{"type":"Point","coordinates":[6.256159193559469,51.90906369092335]}},{"type":"Feature","properties":{"highway":"bus_stop","public_transport":"platform","name":"De Pol","ref:IFOPT":"NL:Q:41820090","_quaycode":"NL:Q:41820090","_town":"Doetinchem","_status":"available","_mode":"bus","_direction":290,"_visuallyAccessible":false,"_disabledAccessible":false,"geojson_lng":6.327714152314734,"geojson_lat":51.935811515958065},"geometry":{"type":"Point","coordinates":[6.327714152314734,51.935811515958065]}},{"type":"Feature","properties":{"highway":"bus_stop","public_transport":"platform","name":"Hertenkamp","ref:IFOPT":"NL:Q:41790150","_quaycode":"NL:Q:41790150","_town":"Zeddam","_status":"available","_mode":"bus","_direction":166,"_visuallyAccessible":false,"_disabledAccessible":true,"geojson_lng":6.2573422247691015,"geojson_lat":51.90411114157766},"geometry":{"type":"Point","coordinates":[6.2573422247691015,51.90411114157766]}},{"type":"Feature","properties":{"highway":"bus_stop","public_transport":"platform","name":"De Pol","ref:IFOPT":"NL:Q:41820100","_quaycode":"NL:Q:41820100","_town":"Doetinchem","_status":"available","_mode":"bus","_direction":111,"_visuallyAccessible":false,"_disabledAccessible":false,"geojson_lng":6.327784214654092,"geojson_lat":51.93568511269751},"geometry":{"type":"Point","coordinates":[6.327784214654092,51.93568511269751]}},{"type":"Feature","properties":{"highway":"bus_stop","public_transport":"platform","name":"Tolhuis","ref:IFOPT":"NL:Q:41790140","_quaycode":"NL:Q:41790140","_town":"Zeddam","_status":"available","_mode":"bus","_direction":354,"_visuallyAccessible":false,"_disabledAccessible":false,"geojson_lng":6.257827215422124,"geojson_lat":51.898390721587795},"geometry":{"type":"Point","coordinates":[6.257827215422124,51.898390721587795]}},{"type":"Feature","properties":{"highway":"bus_stop","public_transport":"platform","name":"Hertenkamp","ref:IFOPT":"NL:Q:41790160","_quaycode":"NL:Q:41790160","_town":"Zeddam","_status":"available","_mode":"bus","_direction":349,"_visuallyAccessible":false,"_disabledAccessible":true,"geojson_lng":6.257547552795732,"geojson_lat":51.904208496327016},"geometry":{"type":"Point","coordinates":[6.257547552795732,51.904208496327016]}},{"type":"Feature","properties":{"highway":"bus_stop","public_transport":"platform","name":"Tolhuis","ref:IFOPT":"NL:Q:41790130","_quaycode":"NL:Q:41790130","_town":"Zeddam","_status":"available","_mode":"bus","_direction":180,"_visuallyAccessible":false,"_disabledAccessible":true,"geojson_lng":6.257475505148605,"geojson_lat":51.897485466868005},"geometry":{"type":"Point","coordinates":[6.257475505148605,51.897485466868005]}},{"type":"Feature","properties":{"highway":"bus_stop","public_transport":"platform","name":"McDonald's","ref:IFOPT":"NL:Q:41820140","_quaycode":"NL:Q:41820140","_town":"Doetinchem","_status":"available","_mode":"bus","_direction":125,"_visuallyAccessible":false,"_disabledAccessible":false,"geojson_lng":6.310138371719463,"geojson_lat":51.94386093487107},"geometry":{"type":"Point","coordinates":[6.310138371719463,51.94386093487107]}}]}