{"type":"FeatureCollection","features":[{"type":"Feature","properties":{"highway":"bus_stop","public_transport":"platform","name":"Zuivelfabriek","ref:IFOPT":"NL:Q:43590060","_quaycode":"NL:Q:43590060","_town":"Vriezenveen","_status":"available","_mode":"bus","_direction":180,"_visuallyAccessible":true,"_disabledAccessible":true,"geojson_lng":6.631198784604307,"geojson_lat":52.40684489437969},"geometry":{"type":"Point","coordinates":[6.631198784604307,52.40684489437969]}},{"type":"Feature","properties":{"highway":"bus_stop","public_transport":"platform","name":"De Nachtegaal","ref:IFOPT":"NL:Q:43590340","_quaycode":"NL:Q:43590340","_town":"Vriezenveen","_status":"available","_mode":"bus","_direction":159,"_visuallyAccessible":true,"_disabledAccessible":true,"geojson_lng":6.6162044398337425,"geojson_lat":52.40529410207961},"geometry":{"type":"Point","coordinates":[6.6162044398337425,52.40529410207961]}},{"type":"Feature","properties":{"highway":"bus_stop","public_transport":"platform","name":"Petersburgstraat","ref:IFOPT":"NL:Q:43590800","_quaycode":"NL:Q:43590800","_town":"Vriezenveen","_status":"available","_mode":"bus","_direction":125,"_visuallyAccessible":false,"_disabledAccessible":false,"geojson_lng":6.62036776677512,"geojson_lat":52.4086124799394},"geometry":{"type":"Point","coordinates":[6.62036776677512,52.4086124799394]}},{"type":"Feature","properties":{"highway":"bus_stop","public_transport":"platform","name":"Prinsenweg","ref:IFOPT":"NL:Q:43590550","_quaycode":"NL:Q:43590550","_town":"Vriezenveen","_status":"available","_mode":"bus","_direction":346,"_visuallyAccessible":false,"_disabledAccessible":false,"geojson_lng":6.619233910281459,"geojson_lat":52.41117699006937},"geometry":{"type":"Point","coordinates":[6.619233910281459,52.41117699006937]}},{"type":"Feature","properties":{"highway":"bus_stop","public_transport":"platform","name":"Broekland","ref:IFOPT":"NL:Q:43590760","_quaycode":"NL:Q:43590760","_town":"Vriezenveen","_status":"available","_mode":"bus","_direction":168,"_visuallyAccessible":true,"_disabledAccessible":true,"geojson_lng":6.618537075275853,"geojson_lat":52.41413243303366},"geometry":{"type":"Point","coordinates":[6.618537075275853,52.41413243303366]}},{"type":"Feature","properties":{"highway":"bus_stop","public_transport":"platform","name":"Broekland","ref:IFOPT":"NL:Q:43590770","_quaycode":"NL:Q:43590770","_town":"Vriezenveen","_status":"available","_mode":"bus","_direction":0,"_visuallyAccessible":true,"_disabledAccessible":true,"geojson_lng":6.618728612519187,"geojson_lat":52.414148418037755},"geometry":{"type":"Point","coordinates":[6.618728612519187,52.414148418037755]}},{"type":"Feature","properties":{"highway":"bus_stop","public_transport":"platform","name":"'t Midden","ref:IFOPT":"NL:Q:43590080","_quaycode":"NL:Q:43590080","_town":"Vriezenveen","_status":"available","_mode":"bus","_direction":153,"_visuallyAccessible":false,"_disabledAccessible":false,"geojson_lng":6.627903514576139,"geojson_lat":52.413711086063905},"geometry":{"type":"Point","coordinates":[6.627903514576139,52.413711086063905]}},{"type":"Feature","properties":{"highway":"bus_stop","public_transport":"platform","name":"'t Midden","ref:IFOPT":"NL:Q:43590070","_quaycode":"NL:Q:43590070","_town":"Vriezenveen","_status":"available","_mode":"bus","_direction":334,"_visuallyAccessible":false,"_disabledAccessible":false,"geojson_lng":6.628021074590326,"geojson_lat":52.413709854290886},"geometry":{"type":"Point","coordinates":[6.628021074590326,52.413709854290886]}},{"type":"Feature","properties":{"highway":"bus_stop","public_transport":"platform","name":"Prinsenweg","ref:IFOPT":"NL:Q:43590540","_quaycode":"NL:Q:43590540","_town":"Vriezenveen","_status":"available","_mode":"bus","_direction":167,"_visuallyAccessible":false,"_disabledAccessible":false,"geojson_lng":6.619156189375386,"geojson_lat":52.41102499585087},"geometry":{"type":"Point","coordinates":[6.619156189375386,52.41102499585087]}},{"type":"Feature","properties":{"highway":"bus_stop","public_transport":"platform","name":"De Zuivering","ref:IFOPT":"NL:Q:43590030","_quaycode":"NL:Q:43590030","_town":"Vriezenveen","_status":"available","_mode":"bus","_direction":256,"_visuallyAccessible":true,"_disabledAccessible":false,"geojson_lng":6.633183707401819,"geojson_lat":52.406573931261164},"geometry":{"type":"Point","coordinates":[6.633183707401819,52.406573931261164]}},{"type":"Feature","properties":{"highway":"bus_stop","public_transport":"platform","name":"Westerweilandweg","ref:IFOPT":"NL:Q:43590310","_quaycode":"NL:Q:43590310","_town":"Vriezenveen","_status":"available","_mode":"bus","_direction":319,"_visuallyAccessible":false,"_disabledAccessible":false,"geojson_lng":6.617375410441568,"geojson_lat":52.40247755678777},"geometry":{"type":"Point","coordinates":[6.617375410441568,52.40247755678777]}},{"type":"Feature","properties":{"highway":"bus_stop","public_transport":"platform","name":"Petersburgstraat","ref:IFOPT":"NL:Q:43590810","_quaycode":"NL:Q:43590810","_town":"Vriezenveen","_status":"available","_mode":"bus","_direction":306,"_visuallyAccessible":false,"_disabledAccessible":false,"geojson_lng":6.620413348192469,"geojson_lat":52.40866593567485},"geometry":{"type":"Point","coordinates":[6.620413348192469,52.40866593567485]}},{"type":"Feature","properties":{"highway":"bus_stop","public_transport":"platform","name":"Zuivelfabriek","ref:IFOPT":"NL:Q:43590050","_quaycode":"NL:Q:43590050","_town":"Vriezenveen","_status":"available","_mode":"bus","_direction":225,"_visuallyAccessible":false,"_disabledAccessible":true,"geojson_lng":6.6305112535058655,"geojson_lat":52.408164845517724},"geometry":{"type":"Point","coordinates":[6.6305112535058655,52.408164845517724]}},{"type":"Feature","properties":{"highway":"bus_stop","public_transport":"platform","name":"De Nachtegaal","ref:IFOPT":"NL:Q:43590330","_quaycode":"NL:Q:43590330","_town":"Vriezenveen","_status":"available","_mode":"bus","_direction":339,"_visuallyAccessible":true,"_disabledAccessible":true,"geojson_lng":6.616485138035479,"geojson_lat":52.40489990686257},"geometry":{"type":"Point","coordinates":[6.616485138035479,52.40489990686257]}},{"type":"Feature","properties":{"highway":"bus_stop","public_transport":"platform","name":"De Zuivering","ref:IFOPT":"NL:Q:43590040","_quaycode":"NL:Q:43590040","_town":"Vriezenveen","_status":"available","_mode":"bus","_direction":76,"_visuallyAccessible":true,"_disabledAccessible":true,"geojson_lng":6.632663419126663,"geojson_lat":52.40629959950668},"geometry":{"type":"Point","coordinates":[6.632663419126663,52.40629959950668]}}]}