{"type":"FeatureCollection","features":[{"type":"Feature","properties":{"SeqNo":"519191","Type":"S","DHID":"de:05113:9403","Parent":"de:05113:9403","Name":"Essen Krayer Markt","MunicipalityCode":"05113000","Municipality":"Essen","DistrictCode":"-","District":"-","Description":"","Authority":"VRR","DelfiName":"-","THID":"D913F90024BB","LastOperationDate":"2025-06-14T00:00:00","SEV":"nein","longitude":"7,078105","latitude":"51,466972","geojson_lng":7.078105,"geojson_lat":51.466972},"geometry":{"type":"Point","coordinates":[7.078105,51.466972]}},{"type":"Feature","properties":{"SeqNo":"519192","Type":"A","DHID":"de:05113:9403:1","Parent":"de:05113:9403","Name":"1","MunicipalityCode":"00000000","Municipality":"-","DistrictCode":"-","District":"-","Description":"Bus","Authority":"VRR","DelfiName":"-","THID":"-","LastOperationDate":"","SEV":"nein","longitude":"7,078123","latitude":"51,466977","geojson_lng":7.078123,"geojson_lat":51.466977},"geometry":{"type":"Point","coordinates":[7.078123,51.466977]}},{"type":"Feature","properties":{"SeqNo":"519193","Type":"Q","DHID":"de:05113:9403:1:1","Parent":"de:05113:9403:1","Name":"1","MunicipalityCode":"00000000","Municipality":"-","DistrictCode":"-","District":"-","Description":"Alle","Authority":"VRR","DelfiName":"-","THID":"-","LastOperationDate":"","SEV":"nein","longitude":"7,078105","latitude":"51,466949","geojson_lng":7.078105,"geojson_lat":51.466949},"geometry":{"type":"Point","coordinates":[7.078105,51.466949]}},{"type":"Feature","properties":{"SeqNo":"519211","Type":"S","DHID":"de:05113:9405","Parent":"de:05113:9405","Name":"Essen Kray Mitte","MunicipalityCode":"05113000","Municipality":"Essen","DistrictCode":"-","District":"-","Description":"","Authority":"VRR","DelfiName":"-","THID":"D913F90024BD","LastOperationDate":"2025-06-14T00:00:00","SEV":"nein","longitude":"7,080252","latitude":"51,465393","geojson_lng":7.080252,"geojson_lat":51.465393},"geometry":{"type":"Point","coordinates":[7.080252,51.465393]}},{"type":"Feature","properties":{"SeqNo":"519212","Type":"A","DHID":"de:05113:9405:1","Parent":"de:05113:9405","Name":"Ri HBF","MunicipalityCode":"00000000","Municipality":"-","DistrictCode":"-","District":"-","Description":"Ri HBF","Authority":"VRR","DelfiName":"-","THID":"-","LastOperationDate":"","SEV":"nein","longitude":"7,079722","latitude":"51,465393","geojson_lng":7.079722,"geojson_lat":51.465393},"geometry":{"type":"Point","coordinates":[7.079722,51.465393]}},{"type":"Feature","properties":{"SeqNo":"519213","Type":"A","DHID":"de:05113:9405:2","Parent":"de:05113:9405","Name":"Ri KNB","MunicipalityCode":"00000000","Municipality":"-","DistrictCode":"-","District":"-","Description":"Ri KNB","Authority":"VRR","DelfiName":"-","THID":"-","LastOperationDate":"","SEV":"nein","longitude":"7,080413","latitude":"51,465595","geojson_lng":7.080413,"geojson_lat":51.465595},"geometry":{"type":"Point","coordinates":[7.080413,51.465595]}},{"type":"Feature","properties":{"SeqNo":"519214","Type":"A","DHID":"de:05113:9405:3","Parent":"de:05113:9405","Name":"Bus Ri KNB Steig 3","MunicipalityCode":"00000000","Municipality":"-","DistrictCode":"-","District":"-","Description":"Bus Ri KNB Steig 3","Authority":"VRR","DelfiName":"-","THID":"-","LastOperationDate":"","SEV":"nein","longitude":"7,080458","latitude":"51,46602","geojson_lng":7.080458,"geojson_lat":51.46602},"geometry":{"type":"Point","coordinates":[7.080458,51.46602]}},{"type":"Feature","properties":{"SeqNo":"519215","Type":"Q","DHID":"de:05113:9405:1:1","Parent":"de:05113:9405:1","Name":"Kray NE Ri Ostschule","MunicipalityCode":"00000000","Municipality":"-","DistrictCode":"-","District":"-","Description":"Kray NE Ri Ostschule","Authority":"VRR","DelfiName":"-","THID":"-","LastOperationDate":"","SEV":"nein","longitude":"7,079802","latitude":"51,465349","geojson_lng":7.079802,"geojson_lat":51.465349},"geometry":{"type":"Point","coordinates":[7.079802,51.465349]}},{"type":"Feature","properties":{"SeqNo":"519216","Type":"Q","DHID":"de:05113:9405:1:2","Parent":"de:05113:9405:1","Name":"Kray Ri Kiwittstr","MunicipalityCode":"00000000","Municipality":"-","DistrictCode":"-","District":"-","Description":"Kray Ri Kiwittstr","Authority":"VRR","DelfiName":"-","THID":"-","LastOperationDate":"","SEV":"nein","longitude":"7,079668","latitude":"51,465444","geojson_lng":7.079668,"geojson_lat":51.465444},"geometry":{"type":"Point","coordinates":[7.079668,51.465444]}},{"type":"Feature","properties":{"SeqNo":"519217","Type":"Q","DHID":"de:05113:9405:2:4","Parent":"de:05113:9405:2","Name":"Kray Ri Kray Nord","MunicipalityCode":"00000000","Municipality":"-","DistrictCode":"-","District":"-","Description":"Kray Ri Kray Nord","Authority":"VRR","DelfiName":"-","THID":"-","LastOperationDate":"","SEV":"nein","longitude":"7,080386","latitude":"51,4656","geojson_lng":7.080386,"geojson_lat":51.4656},"geometry":{"type":"Point","coordinates":[7.080386,51.4656]}},{"type":"Feature","properties":{"SeqNo":"519218","Type":"Q","DHID":"de:05113:9405:2:3","Parent":"de:05113:9405:3","Name":"Kray L144+170","MunicipalityCode":"00000000","Municipality":"-","DistrictCode":"-","District":"-","Description":"Kray L144+170","Authority":"VRR","DelfiName":"-","THID":"-","LastOperationDate":"","SEV":"nein","longitude":"7,080413","latitude":"51,466015","geojson_lng":7.080413,"geojson_lat":51.466015},"geometry":{"type":"Point","coordinates":[7.080413,51.466015]}},{"type":"Feature","properties":{"SeqNo":"519678","Type":"S","DHID":"de:05113:9481","Parent":"de:05113:9481","Name":"Essen Ottostr.","MunicipalityCode":"05113000","Municipality":"Essen","DistrictCode":"-","District":"-","Description":"","Authority":"VRR","DelfiName":"-","THID":"D913F9002509","LastOperationDate":"2025-06-14T00:00:00","SEV":"nein","longitude":"7,08592","latitude":"51,467363","geojson_lng":7.08592,"geojson_lat":51.467363},"geometry":{"type":"Point","coordinates":[7.08592,51.467363]}},{"type":"Feature","properties":{"SeqNo":"519679","Type":"A","DHID":"de:05113:9481:1","Parent":"de:05113:9481","Name":"1","MunicipalityCode":"00000000","Municipality":"-","DistrictCode":"-","District":"-","Description":"Bus","Authority":"VRR","DelfiName":"-","THID":"-","LastOperationDate":"","SEV":"nein","longitude":"7,08592","latitude":"51,467363","geojson_lng":7.08592,"geojson_lat":51.467363},"geometry":{"type":"Point","coordinates":[7.08592,51.467363]}},{"type":"Feature","properties":{"SeqNo":"519680","Type":"Q","DHID":"de:05113:9481:1:1","Parent":"de:05113:9481:1","Name":"1","MunicipalityCode":"00000000","Municipality":"-","DistrictCode":"-","District":"-","Description":"170 Ri BOB","Authority":"VRR","DelfiName":"-","THID":"-","LastOperationDate":"","SEV":"nein","longitude":"7,085821","latitude":"51,467346","geojson_lng":7.085821,"geojson_lat":51.467346},"geometry":{"type":"Point","coordinates":[7.085821,51.467346]}},{"type":"Feature","properties":{"SeqNo":"519681","Type":"Q","DHID":"de:05113:9481:1:2","Parent":"de:05113:9481:1","Name":"2","MunicipalityCode":"00000000","Municipality":"-","DistrictCode":"-","District":"-","Description":"170 Ri SSB","Authority":"VRR","DelfiName":"-","THID":"-","LastOperationDate":"","SEV":"nein","longitude":"7,08601","latitude":"51,467296","geojson_lng":7.08601,"geojson_lat":51.467296},"geometry":{"type":"Point","coordinates":[7.08601,51.467296]}},{"type":"Feature","properties":{"SeqNo":"519682","Type":"Q","DHID":"de:05113:9481:1:3","Parent":"de:05113:9481:1","Name":"3","MunicipalityCode":"00000000","Municipality":"-","DistrictCode":"-","District":"-","Description":"NE3 Ri EHB","Authority":"VRR","DelfiName":"-","THID":"-","LastOperationDate":"","SEV":"nein","longitude":"7,085839","latitude":"51,467436","geojson_lng":7.085839,"geojson_lat":51.467436},"geometry":{"type":"Point","coordinates":[7.085839,51.467436]}},{"type":"Feature","properties":{"SeqNo":"520930","Type":"S","DHID":"de:05113:9687","Parent":"de:05113:9687","Name":"Essen Kiwittstr.","MunicipalityCode":"05113000","Municipality":"Essen","DistrictCode":"-","District":"-","Description":"","Authority":"VRR","DelfiName":"-","THID":"D913F90025D7","LastOperationDate":"2025-06-14T00:00:00","SEV":"nein","longitude":"7,07841","latitude":"51,461845","geojson_lng":7.07841,"geojson_lat":51.461845},"geometry":{"type":"Point","coordinates":[7.07841,51.461845]}},{"type":"Feature","properties":{"SeqNo":"520931","Type":"A","DHID":"de:05113:9687:1","Parent":"de:05113:9687","Name":"1","MunicipalityCode":"00000000","Municipality":"-","DistrictCode":"-","District":"-","Description":"Bus","Authority":"VRR","DelfiName":"-","THID":"-","LastOperationDate":"","SEV":"nein","longitude":"7,078626","latitude":"51,462192","geojson_lng":7.078626,"geojson_lat":51.462192},"geometry":{"type":"Point","coordinates":[7.078626,51.462192]}},{"type":"Feature","properties":{"SeqNo":"520932","Type":"Q","DHID":"de:05113:9687:1:1","Parent":"de:05113:9687:1","Name":"1","MunicipalityCode":"00000000","Municipality":"-","DistrictCode":"-","District":"-","Description":"194 Ri ERB","Authority":"VRR","DelfiName":"-","THID":"-","LastOperationDate":"","SEV":"nein","longitude":"7,078356","latitude":"51,461756","geojson_lng":7.078356,"geojson_lat":51.461756},"geometry":{"type":"Point","coordinates":[7.078356,51.461756]}},{"type":"Feature","properties":{"SeqNo":"520933","Type":"Q","DHID":"de:05113:9687:1:2","Parent":"de:05113:9687:1","Name":"2","MunicipalityCode":"00000000","Municipality":"-","DistrictCode":"-","District":"-","Description":"194 Ri GE","Authority":"VRR","DelfiName":"-","THID":"-","LastOperationDate":"","SEV":"nein","longitude":"7,07841","latitude":"51,461812","geojson_lng":7.07841,"geojson_lat":51.461812},"geometry":{"type":"Point","coordinates":[7.07841,51.461812]}}]}