{"type":"FeatureCollection","features":[{"type":"Feature","properties":{"SeqNo":"529959","Type":"S","DHID":"de:05122:13709","Parent":"de:05122:13709","Name":"Solingen Buscher Feld","MunicipalityCode":"05122000","Municipality":"Solingen","DistrictCode":"","District":"","Description":"","Authority":"VRR","DelfiName":"-","THID":"D9140200358D","LastOperationDate":"2025-01-06T00:00:00","SEV":"nein","longitude":"7,083971","latitude":"51,19195","geojson_lng":7.083971,"geojson_lat":51.19195},"geometry":{"type":"Point","coordinates":[7.083971,51.19195]}},{"type":"Feature","properties":{"SeqNo":"529960","Type":"Q","DHID":"de:05122:13709:0:1","Parent":"de:05122:13709","Name":"Ri. Abteiweg","MunicipalityCode":"00000000","Municipality":"-","DistrictCode":"-","District":"-","Description":"","Authority":"VRR","DelfiName":"-","THID":"-","LastOperationDate":"","SEV":"nein","longitude":"7,084033","latitude":"51,192023","geojson_lng":7.084033,"geojson_lat":51.192023},"geometry":{"type":"Point","coordinates":[7.084033,51.192023]}},{"type":"Feature","properties":{"SeqNo":"529961","Type":"Q","DHID":"de:05122:13709:0:2","Parent":"de:05122:13709","Name":"Ri. GWP","MunicipalityCode":"00000000","Municipality":"-","DistrictCode":"-","District":"-","Description":"","Authority":"VRR","DelfiName":"-","THID":"-","LastOperationDate":"","SEV":"nein","longitude":"7,083935","latitude":"51,191911","geojson_lng":7.083935,"geojson_lat":51.191911},"geometry":{"type":"Point","coordinates":[7.083935,51.191911]}},{"type":"Feature","properties":{"SeqNo":"529962","Type":"S","DHID":"de:05122:13710","Parent":"de:05122:13710","Name":"Solingen Alleestraße","MunicipalityCode":"05122000","Municipality":"Solingen","DistrictCode":"","District":"","Description":"","Authority":"VRR","DelfiName":"-","THID":"D9140200358E","LastOperationDate":"2025-01-06T00:00:00","SEV":"nein","longitude":"7,082776","latitude":"51,190194","geojson_lng":7.082776,"geojson_lat":51.190194},"geometry":{"type":"Point","coordinates":[7.082776,51.190194]}},{"type":"Feature","properties":{"SeqNo":"529963","Type":"Q","DHID":"de:05122:13710:0:1","Parent":"de:05122:13710","Name":"Ri. Abteiweg","MunicipalityCode":"00000000","Municipality":"-","DistrictCode":"-","District":"-","Description":"","Authority":"VRR","DelfiName":"-","THID":"-","LastOperationDate":"","SEV":"nein","longitude":"7,082911","latitude":"51,190425","geojson_lng":7.082911,"geojson_lat":51.190425},"geometry":{"type":"Point","coordinates":[7.082911,51.190425]}},{"type":"Feature","properties":{"SeqNo":"529964","Type":"Q","DHID":"de:05122:13710:0:2","Parent":"de:05122:13710","Name":"Ri. GWP","MunicipalityCode":"00000000","Municipality":"-","DistrictCode":"-","District":"-","Description":"","Authority":"VRR","DelfiName":"-","THID":"-","LastOperationDate":"","SEV":"nein","longitude":"7,082605","latitude":"51,189985","geojson_lng":7.082605,"geojson_lat":51.189985},"geometry":{"type":"Point","coordinates":[7.082605,51.189985]}},{"type":"Feature","properties":{"SeqNo":"529965","Type":"S","DHID":"de:05122:13711","Parent":"de:05122:13711","Name":"Solingen Industriestraße","MunicipalityCode":"05122000","Municipality":"Solingen","DistrictCode":"","District":"","Description":"","Authority":"VRR","DelfiName":"-","THID":"D9140200358F","LastOperationDate":"2025-01-06T00:00:00","SEV":"nein","longitude":"7,079398","latitude":"51,18824","geojson_lng":7.079398,"geojson_lat":51.18824},"geometry":{"type":"Point","coordinates":[7.079398,51.18824]}},{"type":"Feature","properties":{"SeqNo":"529966","Type":"Q","DHID":"de:05122:13711:0:1","Parent":"de:05122:13711","Name":"Ri. Abteiweg","MunicipalityCode":"00000000","Municipality":"-","DistrictCode":"-","District":"-","Description":"","Authority":"VRR","DelfiName":"-","THID":"-","LastOperationDate":"","SEV":"nein","longitude":"7,07921","latitude":"51,188066","geojson_lng":7.07921,"geojson_lat":51.188066},"geometry":{"type":"Point","coordinates":[7.07921,51.188066]}},{"type":"Feature","properties":{"SeqNo":"529967","Type":"Q","DHID":"de:05122:13711:0:2","Parent":"de:05122:13711","Name":"Ri. GWP","MunicipalityCode":"00000000","Municipality":"-","DistrictCode":"-","District":"-","Description":"","Authority":"VRR","DelfiName":"-","THID":"-","LastOperationDate":"","SEV":"nein","longitude":"7,079506","latitude":"51,188364","geojson_lng":7.079506,"geojson_lat":51.188364},"geometry":{"type":"Point","coordinates":[7.079506,51.188364]}},{"type":"Feature","properties":{"SeqNo":"530107","Type":"Q","DHID":"de:05122:13754:0:3","Parent":"de:05122:13754","Name":"Rtg. GWP","MunicipalityCode":"00000000","Municipality":"-","DistrictCode":"-","District":"-","Description":"","Authority":"VRR","DelfiName":"-","THID":"-","LastOperationDate":"","SEV":"nein","longitude":"7,075077","latitude":"51,191973","geojson_lng":7.075077,"geojson_lat":51.191973},"geometry":{"type":"Point","coordinates":[7.075077,51.191973]}},{"type":"Feature","properties":{"SeqNo":"530108","Type":"S","DHID":"de:05122:13755","Parent":"de:05122:13755","Name":"Solingen Wasserturm","MunicipalityCode":"05122000","Municipality":"Solingen","DistrictCode":"","District":"","Description":"","Authority":"VRR","DelfiName":"-","THID":"D914020035BB","LastOperationDate":"2025-01-06T00:00:00","SEV":"nein","longitude":"7,077179","latitude":"51,189451","geojson_lng":7.077179,"geojson_lat":51.189451},"geometry":{"type":"Point","coordinates":[7.077179,51.189451]}},{"type":"Feature","properties":{"SeqNo":"530109","Type":"Q","DHID":"de:05122:13755:0:1","Parent":"de:05122:13755","Name":"Ri. Central","MunicipalityCode":"00000000","Municipality":"-","DistrictCode":"-","District":"-","Description":"","Authority":"VRR","DelfiName":"-","THID":"-","LastOperationDate":"","SEV":"nein","longitude":"7,076973","latitude":"51,1898","geojson_lng":7.076973,"geojson_lat":51.1898},"geometry":{"type":"Point","coordinates":[7.076973,51.1898]}},{"type":"Feature","properties":{"SeqNo":"530110","Type":"Q","DHID":"de:05122:13755:0:2","Parent":"de:05122:13755","Name":"Ri. GWP","MunicipalityCode":"00000000","Municipality":"-","DistrictCode":"-","District":"-","Description":"","Authority":"VRR","DelfiName":"-","THID":"-","LastOperationDate":"","SEV":"nein","longitude":"7,077404","latitude":"51,189101","geojson_lng":7.077404,"geojson_lat":51.189101},"geometry":{"type":"Point","coordinates":[7.077404,51.189101]}}]}