{"type":"FeatureCollection","features":[{"type":"Feature","properties":{"SeqNo":"547676","Type":"S","DHID":"de:05166:23315","Parent":"de:05166:23315","Name":"Niederkrüchten Lindbruch","MunicipalityCode":"05166020","Municipality":"Niederkrüchten","DistrictCode":"","District":"","Description":"","Authority":"VRR","DelfiName":"-","THID":"D9142E005B13","LastOperationDate":"2025-06-14T00:00:00","SEV":"nein","longitude":"6,218803","latitude":"51,199775","geojson_lng":6.218803,"geojson_lat":51.199775},"geometry":{"type":"Point","coordinates":[6.218803,51.199775]}},{"type":"Feature","properties":{"SeqNo":"547677","Type":"A","DHID":"de:05166:23315:1","Parent":"de:05166:23315","Name":"Bus","MunicipalityCode":"00000000","Municipality":"-","DistrictCode":"-","District":"-","Description":"","Authority":"VRR","DelfiName":"-","THID":"-","LastOperationDate":"","SEV":"nein","longitude":"6,218893","latitude":"51,199657","geojson_lng":6.218893,"geojson_lat":51.199657},"geometry":{"type":"Point","coordinates":[6.218893,51.199657]}},{"type":"Feature","properties":{"SeqNo":"547678","Type":"Q","DHID":"de:05166:23315:1:1","Parent":"de:05166:23315:1","Name":"","MunicipalityCode":"00000000","Municipality":"-","DistrictCode":"-","District":"-","Description":"","Authority":"VRR","DelfiName":"-","THID":"-","LastOperationDate":"","SEV":"nein","longitude":"6,218911","latitude":"51,199634","geojson_lng":6.218911,"geojson_lat":51.199634},"geometry":{"type":"Point","coordinates":[6.218911,51.199634]}},{"type":"Feature","properties":{"SeqNo":"547679","Type":"Q","DHID":"de:05166:23315:1:2","Parent":"de:05166:23315:1","Name":"","MunicipalityCode":"00000000","Municipality":"-","DistrictCode":"-","District":"-","Description":"","Authority":"VRR","DelfiName":"-","THID":"-","LastOperationDate":"","SEV":"nein","longitude":"6,218866","latitude":"51,199685","geojson_lng":6.218866,"geojson_lat":51.199685},"geometry":{"type":"Point","coordinates":[6.218866,51.199685]}},{"type":"Feature","properties":{"SeqNo":"547682","Type":"S","DHID":"de:05166:23317","Parent":"de:05166:23317","Name":"Niederkrüchten Felderhausen","MunicipalityCode":"05166020","Municipality":"Niederkrüchten","DistrictCode":"","District":"","Description":"","Authority":"VRR","DelfiName":"-","THID":"D9142E005B15","LastOperationDate":"2025-01-06T00:00:00","SEV":"nein","longitude":"6,218318","latitude":"51,195429","geojson_lng":6.218318,"geojson_lat":51.195429},"geometry":{"type":"Point","coordinates":[6.218318,51.195429]}},{"type":"Feature","properties":{"SeqNo":"547683","Type":"A","DHID":"de:05166:23317:1","Parent":"de:05166:23317","Name":"Bus","MunicipalityCode":"00000000","Municipality":"-","DistrictCode":"-","District":"-","Description":"","Authority":"VRR","DelfiName":"-","THID":"-","LastOperationDate":"","SEV":"nein","longitude":"6,218606","latitude":"51,195728","geojson_lng":6.218606,"geojson_lat":51.195728},"geometry":{"type":"Point","coordinates":[6.218606,51.195728]}},{"type":"Feature","properties":{"SeqNo":"547684","Type":"Q","DHID":"de:05166:23317:1:1","Parent":"de:05166:23317:1","Name":"","MunicipalityCode":"00000000","Municipality":"-","DistrictCode":"-","District":"-","Description":"","Authority":"VRR","DelfiName":"-","THID":"-","LastOperationDate":"","SEV":"nein","longitude":"6,218534","latitude":"51,195717","geojson_lng":6.218534,"geojson_lat":51.195717},"geometry":{"type":"Point","coordinates":[6.218534,51.195717]}},{"type":"Feature","properties":{"SeqNo":"547752","Type":"S","DHID":"de:05166:23616","Parent":"de:05166:23616","Name":"Niederkrüchten Ryth","MunicipalityCode":"05166020","Municipality":"Niederkrüchten","DistrictCode":"","District":"","Description":"","Authority":"VRR","DelfiName":"-","THID":"D9142E005C40","LastOperationDate":"2025-06-13T00:00:00","SEV":"nein","longitude":"6,223986","latitude":"51,196296","geojson_lng":6.223986,"geojson_lat":51.196296},"geometry":{"type":"Point","coordinates":[6.223986,51.196296]}},{"type":"Feature","properties":{"SeqNo":"547753","Type":"A","DHID":"de:05166:23616:1","Parent":"de:05166:23616","Name":"Bus","MunicipalityCode":"00000000","Municipality":"-","DistrictCode":"-","District":"-","Description":"","Authority":"VRR","DelfiName":"-","THID":"-","LastOperationDate":"","SEV":"nein","longitude":"6,224139","latitude":"51,196195","geojson_lng":6.224139,"geojson_lat":51.196195},"geometry":{"type":"Point","coordinates":[6.224139,51.196195]}},{"type":"Feature","properties":{"SeqNo":"547754","Type":"Q","DHID":"de:05166:23616:1:1","Parent":"de:05166:23616:1","Name":"","MunicipalityCode":"00000000","Municipality":"-","DistrictCode":"-","District":"-","Description":"","Authority":"VRR","DelfiName":"-","THID":"-","LastOperationDate":"","SEV":"nein","longitude":"6,224121","latitude":"51,196206","geojson_lng":6.224121,"geojson_lat":51.196206},"geometry":{"type":"Point","coordinates":[6.224121,51.196206]}}]}