{"type":"FeatureCollection","features":[{"type":"Feature","properties":{"SeqNo":"96547","Type":"S","DHID":"de:09775:1720","Parent":"de:09775:1720","Name":"Neu-Ulm Friedhof","MunicipalityCode":"09775135","Municipality":"Neu-Ulm","DistrictCode":"","District":"","Description":"","Authority":"NVBW","DelfiName":"-","THID":"D9262F0006B8","LastOperationDate":"2025-06-14T00:00:00","SEV":"nein","longitude":"10,011805","latitude":"48,392261","geojson_lng":10.011805,"geojson_lat":48.392261},"geometry":{"type":"Point","coordinates":[10.011805,48.392261]}},{"type":"Feature","properties":{"SeqNo":"96548","Type":"Q","DHID":"de:09775:1720:0:1","Parent":"de:09775:1720","Name":"Schwaighofen","MunicipalityCode":"00000000","Municipality":"-","DistrictCode":"-","District":"-","Description":"","Authority":"NVBW","DelfiName":"-","THID":"-","LastOperationDate":"","SEV":"nein","longitude":"10,011688","latitude":"48,392219","geojson_lng":10.011688,"geojson_lat":48.392219},"geometry":{"type":"Point","coordinates":[10.011688,48.392219]}},{"type":"Feature","properties":{"SeqNo":"96549","Type":"Q","DHID":"de:09775:1720:0:2","Parent":"de:09775:1720","Name":"Ulm","MunicipalityCode":"00000000","Municipality":"-","DistrictCode":"-","District":"-","Description":"","Authority":"NVBW","DelfiName":"-","THID":"-","LastOperationDate":"","SEV":"nein","longitude":"10,011939","latitude":"48,392303","geojson_lng":10.011939,"geojson_lat":48.392303},"geometry":{"type":"Point","coordinates":[10.011939,48.392303]}},{"type":"Feature","properties":{"SeqNo":"96587","Type":"S","DHID":"de:09775:1733","Parent":"de:09775:1733","Name":"Neu-Ulm Riedstraße","MunicipalityCode":"09775135","Municipality":"Neu-Ulm","DistrictCode":"","District":"","Description":"","Authority":"NVBW","DelfiName":"-","THID":"D9262F0006C5","LastOperationDate":"2025-06-14T00:00:00","SEV":"nein","longitude":"10,010107","latitude":"48,38793","geojson_lng":10.010107,"geojson_lat":48.38793},"geometry":{"type":"Point","coordinates":[10.010107,48.38793]}},{"type":"Feature","properties":{"SeqNo":"96588","Type":"Q","DHID":"de:09775:1733:0:1","Parent":"de:09775:1733","Name":"Escheugraben","MunicipalityCode":"00000000","Municipality":"-","DistrictCode":"-","District":"-","Description":"","Authority":"NVBW","DelfiName":"-","THID":"-","LastOperationDate":"","SEV":"nein","longitude":"10,010251","latitude":"48,387984","geojson_lng":10.010251,"geojson_lat":48.387984},"geometry":{"type":"Point","coordinates":[10.010251,48.387984]}},{"type":"Feature","properties":{"SeqNo":"96589","Type":"Q","DHID":"de:09775:1733:0:2","Parent":"de:09775:1733","Name":"Bradleystraße","MunicipalityCode":"00000000","Municipality":"-","DistrictCode":"-","District":"-","Description":"","Authority":"NVBW","DelfiName":"-","THID":"-","LastOperationDate":"","SEV":"nein","longitude":"10,009918","latitude":"48,387871","geojson_lng":10.009918,"geojson_lat":48.387871},"geometry":{"type":"Point","coordinates":[10.009918,48.387871]}},{"type":"Feature","properties":{"SeqNo":"96590","Type":"S","DHID":"de:09775:1734","Parent":"de:09775:1734","Name":"Neu-Ulm Bradleystraße","MunicipalityCode":"09775135","Municipality":"Neu-Ulm","DistrictCode":"","District":"","Description":"","Authority":"NVBW","DelfiName":"-","THID":"D9262F0006C6","LastOperationDate":"2025-06-14T00:00:00","SEV":"nein","longitude":"10,011562","latitude":"48,385646","geojson_lng":10.011562,"geojson_lat":48.385646},"geometry":{"type":"Point","coordinates":[10.011562,48.385646]}},{"type":"Feature","properties":{"SeqNo":"96591","Type":"Q","DHID":"de:09775:1734:0:1","Parent":"de:09775:1734","Name":"Riedstraße","MunicipalityCode":"00000000","Municipality":"-","DistrictCode":"-","District":"-","Description":"","Authority":"NVBW","DelfiName":"-","THID":"-","LastOperationDate":"","SEV":"nein","longitude":"10,011427","latitude":"48,385556","geojson_lng":10.011427,"geojson_lat":48.385556},"geometry":{"type":"Point","coordinates":[10.011427,48.385556]}},{"type":"Feature","properties":{"SeqNo":"96592","Type":"Q","DHID":"de:09775:1734:0:2","Parent":"de:09775:1734","Name":"Grethe-Weiser-Straße","MunicipalityCode":"00000000","Municipality":"-","DistrictCode":"-","District":"-","Description":"","Authority":"NVBW","DelfiName":"-","THID":"-","LastOperationDate":"","SEV":"nein","longitude":"10,011679","latitude":"48,385729","geojson_lng":10.011679,"geojson_lat":48.385729},"geometry":{"type":"Point","coordinates":[10.011679,48.385729]}},{"type":"Feature","properties":{"SeqNo":"96683","Type":"S","DHID":"de:09775:1801","Parent":"de:09775:1801","Name":"Schwaighofen Eckenerstraße","MunicipalityCode":"09775135","Municipality":"Neu-Ulm","DistrictCode":"","District":"","Description":"","Authority":"NVBW","DelfiName":"-","THID":"D9262F000709","LastOperationDate":"2025-02-28T00:00:00","SEV":"nein","longitude":"10,017033","latitude":"48,387364","geojson_lng":10.017033,"geojson_lat":48.387364},"geometry":{"type":"Point","coordinates":[10.017033,48.387364]}},{"type":"Feature","properties":{"SeqNo":"96684","Type":"Q","DHID":"de:09775:1801:0:1","Parent":"de:09775:1801","Name":"Reutti","MunicipalityCode":"00000000","Municipality":"-","DistrictCode":"-","District":"-","Description":"","Authority":"NVBW","DelfiName":"-","THID":"-","LastOperationDate":"","SEV":"nein","longitude":"10,017204","latitude":"48,387191","geojson_lng":10.017204,"geojson_lat":48.387191},"geometry":{"type":"Point","coordinates":[10.017204,48.387191]}},{"type":"Feature","properties":{"SeqNo":"96685","Type":"Q","DHID":"de:09775:1801:0:2","Parent":"de:09775:1801","Name":"Ulm","MunicipalityCode":"00000000","Municipality":"-","DistrictCode":"-","District":"-","Description":"","Authority":"NVBW","DelfiName":"-","THID":"-","LastOperationDate":"","SEV":"nein","longitude":"10,016925","latitude":"48,387531","geojson_lng":10.016925,"geojson_lat":48.387531},"geometry":{"type":"Point","coordinates":[10.016925,48.387531]}},{"type":"Feature","properties":{"SeqNo":"96733","Type":"S","DHID":"de:09775:1861","Parent":"de:09775:1861","Name":"Neu-Ulm Vorwerkstraße","MunicipalityCode":"09775135","Municipality":"Neu-Ulm","DistrictCode":"","District":"","Description":"","Authority":"NVBW","DelfiName":"-","THID":"D9262F000745","LastOperationDate":"2025-02-28T00:00:00","SEV":"nein","longitude":"10,016889","latitude":"48,392309","geojson_lng":10.016889,"geojson_lat":48.392309},"geometry":{"type":"Point","coordinates":[10.016889,48.392309]}},{"type":"Feature","properties":{"SeqNo":"96734","Type":"Q","DHID":"de:09775:1861:0:1","Parent":"de:09775:1861","Name":"Ludwigsfeld","MunicipalityCode":"00000000","Municipality":"-","DistrictCode":"-","District":"-","Description":"","Authority":"NVBW","DelfiName":"-","THID":"-","LastOperationDate":"","SEV":"nein","longitude":"10,016961","latitude":"48,392309","geojson_lng":10.016961,"geojson_lat":48.392309},"geometry":{"type":"Point","coordinates":[10.016961,48.392309]}},{"type":"Feature","properties":{"SeqNo":"96735","Type":"Q","DHID":"de:09775:1861:0:2","Parent":"de:09775:1861","Name":"Ulm","MunicipalityCode":"00000000","Municipality":"-","DistrictCode":"-","District":"-","Description":"","Authority":"NVBW","DelfiName":"-","THID":"-","LastOperationDate":"","SEV":"nein","longitude":"10,016808","latitude":"48,392291","geojson_lng":10.016808,"geojson_lat":48.392291},"geometry":{"type":"Point","coordinates":[10.016808,48.392291]}}]}