{"type":"FeatureCollection","features":[{"type":"Feature","properties":{"SeqNo":"548316","Type":"S","DHID":"de:05170:35254","Parent":"de:05170:35254","Name":"Hünxe Bucholtw.Kuhweg","MunicipalityCode":"05170016","Municipality":"Hünxe","DistrictCode":"","District":"","Description":"","Authority":"VRR","DelfiName":"-","THID":"D914320089B6","LastOperationDate":"2025-02-28T00:00:00","SEV":"nein","longitude":"6,709184","latitude":"51,62382","geojson_lng":6.709184,"geojson_lat":51.62382},"geometry":{"type":"Point","coordinates":[6.709184,51.62382]}},{"type":"Feature","properties":{"SeqNo":"548317","Type":"A","DHID":"de:05170:35254:1","Parent":"de:05170:35254","Name":"Bus","MunicipalityCode":"00000000","Municipality":"-","DistrictCode":"-","District":"-","Description":"","Authority":"VRR","DelfiName":"-","THID":"-","LastOperationDate":"","SEV":"nein","longitude":"6,709068","latitude":"51,623664","geojson_lng":6.709068,"geojson_lat":51.623664},"geometry":{"type":"Point","coordinates":[6.709068,51.623664]}},{"type":"Feature","properties":{"SeqNo":"548318","Type":"Q","DHID":"de:05170:35254:1:1","Parent":"de:05170:35254:1","Name":"1 Ri Waldschule","MunicipalityCode":"00000000","Municipality":"-","DistrictCode":"-","District":"-","Description":"","Authority":"VRR","DelfiName":"-","THID":"-","LastOperationDate":"","SEV":"nein","longitude":"6,709095","latitude":"51,623708","geojson_lng":6.709095,"geojson_lat":51.623708},"geometry":{"type":"Point","coordinates":[6.709095,51.623708]}},{"type":"Feature","properties":{"SeqNo":"551568","Type":"S","DHID":"de:05170:40066","Parent":"de:05170:40066","Name":"Hünxe Bucholtw.Kuhweg","MunicipalityCode":"05170016","Municipality":"Hünxe","DistrictCode":"-","District":"-","Description":"","Authority":"VRR","DelfiName":"-","THID":"D91432009C82","LastOperationDate":"1999-12-31T00:00:00","SEV":"nein","longitude":"6,709499","latitude":"51,623865","geojson_lng":6.709499,"geojson_lat":51.623865},"geometry":{"type":"Point","coordinates":[6.709499,51.623865]}},{"type":"Feature","properties":{"SeqNo":"551569","Type":"Q","DHID":"de:05170:40066:0:01","Parent":"de:05170:40066","Name":"01 > Waldschule","MunicipalityCode":"00000000","Municipality":"-","DistrictCode":"-","District":"-","Description":"01 > Waldschule","Authority":"VRR","DelfiName":"-","THID":"-","LastOperationDate":"","SEV":"nein","longitude":"6,709086","latitude":"51,623725","geojson_lng":6.709086,"geojson_lat":51.623725},"geometry":{"type":"Point","coordinates":[6.709086,51.623725]}},{"type":"Feature","properties":{"SeqNo":"551570","Type":"Q","DHID":"de:05170:40066:0:02","Parent":"de:05170:40066","Name":"02","MunicipalityCode":"00000000","Municipality":"-","DistrictCode":"-","District":"-","Description":"02","Authority":"VRR","DelfiName":"-","THID":"-","LastOperationDate":"","SEV":"nein","longitude":"6,708978","latitude":"51,623591","geojson_lng":6.708978,"geojson_lat":51.623591},"geometry":{"type":"Point","coordinates":[6.708978,51.623591]}},{"type":"Feature","properties":{"SeqNo":"551783","Type":"S","DHID":"de:05170:40142","Parent":"de:05170:40142","Name":"Hünxe Südturmweg","MunicipalityCode":"05170016","Municipality":"Hünxe","DistrictCode":"","District":"","Description":"","Authority":"VRR","DelfiName":"-","THID":"D91432009CCE","LastOperationDate":"2025-02-28T00:00:00","SEV":"nein","longitude":"6,703301","latitude":"51,623441","geojson_lng":6.703301,"geojson_lat":51.623441},"geometry":{"type":"Point","coordinates":[6.703301,51.623441]}},{"type":"Feature","properties":{"SeqNo":"551784","Type":"Q","DHID":"de:05170:40142:0:01","Parent":"de:05170:40142","Name":"01 Ri. Hünxe","MunicipalityCode":"00000000","Municipality":"-","DistrictCode":"-","District":"-","Description":"","Authority":"VRR","DelfiName":"-","THID":"-","LastOperationDate":"","SEV":"nein","longitude":"6,70313","latitude":"51,623385","geojson_lng":6.70313,"geojson_lat":51.623385},"geometry":{"type":"Point","coordinates":[6.70313,51.623385]}},{"type":"Feature","properties":{"SeqNo":"551785","Type":"Q","DHID":"de:05170:40142:0:02","Parent":"de:05170:40142","Name":"02 Ri. Voerde","MunicipalityCode":"00000000","Municipality":"-","DistrictCode":"-","District":"-","Description":"","Authority":"VRR","DelfiName":"-","THID":"-","LastOperationDate":"","SEV":"nein","longitude":"6,703013","latitude":"51,62324","geojson_lng":6.703013,"geojson_lat":51.62324},"geometry":{"type":"Point","coordinates":[6.703013,51.62324]}},{"type":"Feature","properties":{"SeqNo":"551926","Type":"Q","DHID":"de:05170:40192:0:01","Parent":"de:05170:40192","Name":"01 > Bruckh. Sternweg","MunicipalityCode":"00000000","Municipality":"-","DistrictCode":"-","District":"-","Description":"","Authority":"VRR","DelfiName":"-","THID":"-","LastOperationDate":"","SEV":"nein","longitude":"6,710002","latitude":"51,624584","geojson_lng":6.710002,"geojson_lat":51.624584},"geometry":{"type":"Point","coordinates":[6.710002,51.624584]}},{"type":"Feature","properties":{"SeqNo":"551927","Type":"Q","DHID":"de:05170:40192:0:02","Parent":"de:05170:40192","Name":"02","MunicipalityCode":"00000000","Municipality":"-","DistrictCode":"-","District":"-","Description":"","Authority":"VRR","DelfiName":"-","THID":"-","LastOperationDate":"","SEV":"nein","longitude":"6,709948","latitude":"51,624528","geojson_lng":6.709948,"geojson_lat":51.624528},"geometry":{"type":"Point","coordinates":[6.709948,51.624528]}}]}