{"type":"FeatureCollection","features":[{"type":"Feature","properties":{"SeqNo":"80252","Type":"S","DHID":"de:08417:30491","Parent":"de:08417:30491","Name":"Stetten Schule","MunicipalityCode":"08417025","Municipality":"Haigerloch","DistrictCode":"","District":"","Description":"","Authority":"NVBW","DelfiName":"-","THID":"D920E100771B","LastOperationDate":"2025-06-06T00:00:00","SEV":"nein","longitude":"8,81939","latitude":"48,357449","geojson_lng":8.81939,"geojson_lat":48.357449},"geometry":{"type":"Point","coordinates":[8.81939,48.357449]}},{"type":"Feature","properties":{"SeqNo":"80253","Type":"Q","DHID":"de:08417:30491:0:1","Parent":"de:08417:30491","Name":"Steig 1","MunicipalityCode":"00000000","Municipality":"-","DistrictCode":"-","District":"-","Description":"","Authority":"NVBW","DelfiName":"-","THID":"-","LastOperationDate":"","SEV":"nein","longitude":"8,819498","latitude":"48,357491","geojson_lng":8.819498,"geojson_lat":48.357491},"geometry":{"type":"Point","coordinates":[8.819498,48.357491]}},{"type":"Feature","properties":{"SeqNo":"80254","Type":"Q","DHID":"de:08417:30491:0:2","Parent":"de:08417:30491","Name":"Steig 2","MunicipalityCode":"00000000","Municipality":"-","DistrictCode":"-","District":"-","Description":"","Authority":"NVBW","DelfiName":"-","THID":"-","LastOperationDate":"","SEV":"nein","longitude":"8,819327","latitude":"48,357395","geojson_lng":8.819327,"geojson_lat":48.357395},"geometry":{"type":"Point","coordinates":[8.819327,48.357395]}},{"type":"Feature","properties":{"SeqNo":"80255","Type":"Q","DHID":"de:08417:30491:0:3","Parent":"de:08417:30491","Name":"Steig 3","MunicipalityCode":"00000000","Municipality":"-","DistrictCode":"-","District":"-","Description":"","Authority":"NVBW","DelfiName":"-","THID":"-","LastOperationDate":"","SEV":"nein","longitude":"8,819255","latitude":"48,35733","geojson_lng":8.819255,"geojson_lat":48.35733},"geometry":{"type":"Point","coordinates":[8.819255,48.35733]}},{"type":"Feature","properties":{"SeqNo":"80256","Type":"S","DHID":"de:08417:30492","Parent":"de:08417:30492","Name":"Stetten Sonne","MunicipalityCode":"08417025","Municipality":"Haigerloch","DistrictCode":"-","District":"-","Description":"","Authority":"NVBW","DelfiName":"-","THID":"D920E100771C","LastOperationDate":"2025-06-14T00:00:00","SEV":"nein","longitude":"8,816677","latitude":"48,357222","geojson_lng":8.816677,"geojson_lat":48.357222},"geometry":{"type":"Point","coordinates":[8.816677,48.357222]}},{"type":"Feature","properties":{"SeqNo":"80257","Type":"Q","DHID":"de:08417:30492:0:1","Parent":"de:08417:30492","Name":"1","MunicipalityCode":"00000000","Municipality":"-","DistrictCode":"-","District":"-","Description":"FR Stetten","Authority":"NVBW","DelfiName":"-","THID":"-","LastOperationDate":"","SEV":"nein","longitude":"8,816839","latitude":"48,357187","geojson_lng":8.816839,"geojson_lat":48.357187},"geometry":{"type":"Point","coordinates":[8.816839,48.357187]}},{"type":"Feature","properties":{"SeqNo":"80258","Type":"Q","DHID":"de:08417:30492:0:2","Parent":"de:08417:30492","Name":"2","MunicipalityCode":"00000000","Municipality":"-","DistrictCode":"-","District":"-","Description":"FR Haigerloch","Authority":"NVBW","DelfiName":"-","THID":"-","LastOperationDate":"","SEV":"nein","longitude":"8,816866","latitude":"48,357222","geojson_lng":8.816866,"geojson_lat":48.357222},"geometry":{"type":"Point","coordinates":[8.816866,48.357222]}},{"type":"Feature","properties":{"SeqNo":"80259","Type":"Q","DHID":"de:08417:30492:0:E","Parent":"de:08417:30492","Name":"E","MunicipalityCode":"00000000","Municipality":"-","DistrictCode":"-","District":"-","Description":"Ersatz","Authority":"NVBW","DelfiName":"-","THID":"-","LastOperationDate":"","SEV":"nein","longitude":"8,816677","latitude":"48,357222","geojson_lng":8.816677,"geojson_lat":48.357222},"geometry":{"type":"Point","coordinates":[8.816677,48.357222]}},{"type":"Feature","properties":{"SeqNo":"80265","Type":"S","DHID":"de:08417:30495","Parent":"de:08417:30495","Name":"Stetten Friedhof","MunicipalityCode":"08417025","Municipality":"Haigerloch","DistrictCode":"","District":"","Description":"","Authority":"NVBW","DelfiName":"-","THID":"D920E100771F","LastOperationDate":"2025-06-14T00:00:00","SEV":"nein","longitude":"8,817719","latitude":"48,36078","geojson_lng":8.817719,"geojson_lat":48.36078},"geometry":{"type":"Point","coordinates":[8.817719,48.36078]}},{"type":"Feature","properties":{"SeqNo":"80266","Type":"Q","DHID":"de:08417:30495:0:1","Parent":"de:08417:30495","Name":"FR Haigerloch","MunicipalityCode":"00000000","Municipality":"-","DistrictCode":"-","District":"-","Description":"","Authority":"NVBW","DelfiName":"-","THID":"-","LastOperationDate":"","SEV":"nein","longitude":"8,817773","latitude":"48,360798","geojson_lng":8.817773,"geojson_lat":48.360798},"geometry":{"type":"Point","coordinates":[8.817773,48.360798]}},{"type":"Feature","properties":{"SeqNo":"80267","Type":"Q","DHID":"de:08417:30495:0:2","Parent":"de:08417:30495","Name":"FR Stetten","MunicipalityCode":"00000000","Municipality":"-","DistrictCode":"-","District":"-","Description":"","Authority":"NVBW","DelfiName":"-","THID":"-","LastOperationDate":"","SEV":"nein","longitude":"8,817656","latitude":"48,360708","geojson_lng":8.817656,"geojson_lat":48.360708},"geometry":{"type":"Point","coordinates":[8.817656,48.360708]}}]}