{"type":"FeatureCollection","features":[{"type":"Feature","properties":{"SeqNo":"485209","Type":"S","DHID":"de:13072:1260","Parent":"de:13072:1260","Name":"Neu Heinde","MunicipalityCode":"13072082","Municipality":"Prebberede","DistrictCode":"","District":"","Description":"","Authority":"VMV","DelfiName":"-","THID":"D933100004EC","LastOperationDate":"2025-06-13T00:00:00","SEV":"nein","longitude":"12,455411","latitude":"53,885902","geojson_lng":12.455411,"geojson_lat":53.885902},"geometry":{"type":"Point","coordinates":[12.455411,53.885902]}},{"type":"Feature","properties":{"SeqNo":"485210","Type":"A","DHID":"de:13072:1260:1","Parent":"de:13072:1260","Name":"Bus","MunicipalityCode":"00000000","Municipality":"-","DistrictCode":"-","District":"-","Description":"","Authority":"VMV","DelfiName":"-","THID":"-","LastOperationDate":"","SEV":"nein","longitude":"12,455501","latitude":"53,885849","geojson_lng":12.455501,"geojson_lat":53.885849},"geometry":{"type":"Point","coordinates":[12.455501,53.885849]}},{"type":"Feature","properties":{"SeqNo":"486329","Type":"S","DHID":"de:13072:1682","Parent":"de:13072:1682","Name":"Neu Heinde Dorf 1","MunicipalityCode":"13072082","Municipality":"Prebberede","DistrictCode":"","District":"","Description":"","Authority":"VMV","DelfiName":"-","THID":"D93310000692","LastOperationDate":"2025-06-13T00:00:00","SEV":"nein","longitude":"12,455483","latitude":"53,884922","geojson_lng":12.455483,"geojson_lat":53.884922},"geometry":{"type":"Point","coordinates":[12.455483,53.884922]}},{"type":"Feature","properties":{"SeqNo":"486330","Type":"A","DHID":"de:13072:1682:1","Parent":"de:13072:1682","Name":"Bus","MunicipalityCode":"00000000","Municipality":"-","DistrictCode":"-","District":"-","Description":"","Authority":"VMV","DelfiName":"-","THID":"-","LastOperationDate":"","SEV":"nein","longitude":"12,455573","latitude":"53,884869","geojson_lng":12.455573,"geojson_lat":53.884869},"geometry":{"type":"Point","coordinates":[12.455573,53.884869]}},{"type":"Feature","properties":{"SeqNo":"486331","Type":"Q","DHID":"de:13072:1682:1:1","Parent":"de:13072:1682:1","Name":"45061","MunicipalityCode":"00000000","Municipality":"-","DistrictCode":"-","District":"-","Description":"","Authority":"VMV","DelfiName":"-","THID":"-","LastOperationDate":"","SEV":"nein","longitude":"12,455492","latitude":"53,884912","geojson_lng":12.455492,"geojson_lat":53.884912},"geometry":{"type":"Point","coordinates":[12.455492,53.884912]}},{"type":"Feature","properties":{"SeqNo":"486332","Type":"Q","DHID":"de:13072:1682:1:2","Parent":"de:13072:1682:1","Name":"45062","MunicipalityCode":"00000000","Municipality":"-","DistrictCode":"-","District":"-","Description":"","Authority":"VMV","DelfiName":"-","THID":"-","LastOperationDate":"","SEV":"nein","longitude":"12,455429","latitude":"53,884906","geojson_lng":12.455429,"geojson_lat":53.884906},"geometry":{"type":"Point","coordinates":[12.455429,53.884906]}},{"type":"Feature","properties":{"SeqNo":"488766","Type":"S","DHID":"de:13072:582","Parent":"de:13072:582","Name":"Neu Heinde Abzweig","MunicipalityCode":"13072082","Municipality":"Prebberede","DistrictCode":"","District":"","Description":"","Authority":"VMV","DelfiName":"-","THID":"D93310000246","LastOperationDate":"2025-06-13T00:00:00","SEV":"nein","longitude":"12,449572","latitude":"53,885108","geojson_lng":12.449572,"geojson_lat":53.885108},"geometry":{"type":"Point","coordinates":[12.449572,53.885108]}},{"type":"Feature","properties":{"SeqNo":"488767","Type":"A","DHID":"de:13072:582:1","Parent":"de:13072:582","Name":"Bus","MunicipalityCode":"00000000","Municipality":"-","DistrictCode":"-","District":"-","Description":"","Authority":"VMV","DelfiName":"-","THID":"-","LastOperationDate":"","SEV":"nein","longitude":"12,449662","latitude":"53,885055","geojson_lng":12.449662,"geojson_lat":53.885055},"geometry":{"type":"Point","coordinates":[12.449662,53.885055]}},{"type":"Feature","properties":{"SeqNo":"488768","Type":"Q","DHID":"de:13072:582:1:1","Parent":"de:13072:582:1","Name":"31591","MunicipalityCode":"00000000","Municipality":"-","DistrictCode":"-","District":"-","Description":"","Authority":"VMV","DelfiName":"-","THID":"-","LastOperationDate":"","SEV":"nein","longitude":"12,449626","latitude":"53,885108","geojson_lng":12.449626,"geojson_lat":53.885108},"geometry":{"type":"Point","coordinates":[12.449626,53.885108]}},{"type":"Feature","properties":{"SeqNo":"488769","Type":"Q","DHID":"de:13072:582:1:2","Parent":"de:13072:582:1","Name":"31592","MunicipalityCode":"00000000","Municipality":"-","DistrictCode":"-","District":"-","Description":"","Authority":"VMV","DelfiName":"-","THID":"-","LastOperationDate":"","SEV":"nein","longitude":"12,44915","latitude":"53,884996","geojson_lng":12.44915,"geojson_lat":53.884996},"geometry":{"type":"Point","coordinates":[12.44915,53.884996]}}]}