{"type":"FeatureCollection","features":[{"type":"Feature","properties":{"SeqNo":"482480","Type":"S","DHID":"de:13071:7116","Parent":"de:13071:7116","Name":"Nossentin","MunicipalityCode":"13071138","Municipality":"Silz","DistrictCode":"","District":"","Description":"","Authority":"VMV","DelfiName":"-","THID":"D9330F001BCC","LastOperationDate":"2025-06-14T00:00:00","SEV":"nein","longitude":"12,452267","latitude":"53,521794","geojson_lng":12.452267,"geojson_lat":53.521794},"geometry":{"type":"Point","coordinates":[12.452267,53.521794]}},{"type":"Feature","properties":{"SeqNo":"482481","Type":"A","DHID":"de:13071:7116:1","Parent":"de:13071:7116","Name":"Bus","MunicipalityCode":"00000000","Municipality":"-","DistrictCode":"-","District":"-","Description":"","Authority":"VMV","DelfiName":"-","THID":"-","LastOperationDate":"","SEV":"nein","longitude":"12,450883","latitude":"53,521206","geojson_lng":12.450883,"geojson_lat":53.521206},"geometry":{"type":"Point","coordinates":[12.450883,53.521206]}},{"type":"Feature","properties":{"SeqNo":"482482","Type":"A","DHID":"de:13071:7116:2","Parent":"de:13071:7116","Name":"Gleis 1","MunicipalityCode":"00000000","Municipality":"-","DistrictCode":"-","District":"-","Description":"","Authority":"VMV","DelfiName":"-","THID":"-","LastOperationDate":"","SEV":"nein","longitude":"12,452402","latitude":"53,52166","geojson_lng":12.452402,"geojson_lat":53.52166},"geometry":{"type":"Point","coordinates":[12.452402,53.52166]}},{"type":"Feature","properties":{"SeqNo":"482483","Type":"A","DHID":"de:13071:7116:90","Parent":"de:13071:7116","Name":"Eingang","MunicipalityCode":"00000000","Municipality":"-","DistrictCode":"-","District":"-","Description":"","Authority":"VMV","DelfiName":"-","THID":"-","LastOperationDate":"","SEV":"nein","longitude":"12,452069","latitude":"53,52165","geojson_lng":12.452069,"geojson_lat":53.52165},"geometry":{"type":"Point","coordinates":[12.452069,53.52165]}},{"type":"Feature","properties":{"SeqNo":"482484","Type":"Q","DHID":"de:13071:7116:1:1","Parent":"de:13071:7116:1","Name":"71161","MunicipalityCode":"00000000","Municipality":"-","DistrictCode":"-","District":"-","Description":"","Authority":"VMV","DelfiName":"-","THID":"-","LastOperationDate":"","SEV":"nein","longitude":"12,450785","latitude":"53,521212","geojson_lng":12.450785,"geojson_lat":53.521212},"geometry":{"type":"Point","coordinates":[12.450785,53.521212]}},{"type":"Feature","properties":{"SeqNo":"482485","Type":"Q","DHID":"de:13071:7116:1:2","Parent":"de:13071:7116:1","Name":"71162","MunicipalityCode":"00000000","Municipality":"-","DistrictCode":"-","District":"-","Description":"","Authority":"VMV","DelfiName":"-","THID":"-","LastOperationDate":"","SEV":"nein","longitude":"12,44835","latitude":"53,521222","geojson_lng":12.44835,"geojson_lat":53.521222},"geometry":{"type":"Point","coordinates":[12.44835,53.521222]}},{"type":"Feature","properties":{"SeqNo":"482486","Type":"Q","DHID":"de:13071:7116:2:1","Parent":"de:13071:7116:1","Name":"71163","MunicipalityCode":"00000000","Municipality":"-","DistrictCode":"-","District":"-","Description":"","Authority":"VMV","DelfiName":"-","THID":"-","LastOperationDate":"","SEV":"nein","longitude":"12,452168","latitude":"53,521463","geojson_lng":12.452168,"geojson_lat":53.521463},"geometry":{"type":"Point","coordinates":[12.452168,53.521463]}},{"type":"Feature","properties":{"SeqNo":"482487","Type":"S","DHID":"de:13071:7117","Parent":"de:13071:7117","Name":"Nossentin, Bahnhof","MunicipalityCode":"13071138","Municipality":"Silz","DistrictCode":"","District":"","Description":"","Authority":"VMV","DelfiName":"-","THID":"D9330F001BCD","LastOperationDate":"2024-12-30T00:00:00","SEV":"nein","longitude":"12,451009","latitude":"53,521206","geojson_lng":12.451009,"geojson_lat":53.521206},"geometry":{"type":"Point","coordinates":[12.451009,53.521206]}},{"type":"Feature","properties":{"SeqNo":"482488","Type":"A","DHID":"de:13071:7117:1","Parent":"de:13071:7117","Name":"Bus","MunicipalityCode":"00000000","Municipality":"-","DistrictCode":"-","District":"-","Description":"","Authority":"VMV","DelfiName":"-","THID":"-","LastOperationDate":"","SEV":"nein","longitude":"12,451099","latitude":"53,521153","geojson_lng":12.451099,"geojson_lat":53.521153},"geometry":{"type":"Point","coordinates":[12.451099,53.521153]}},{"type":"Feature","properties":{"SeqNo":"482489","Type":"Q","DHID":"de:13071:7117:1:1","Parent":"de:13071:7117:1","Name":"71171","MunicipalityCode":"00000000","Municipality":"-","DistrictCode":"-","District":"-","Description":"","Authority":"VMV","DelfiName":"-","THID":"-","LastOperationDate":"","SEV":"nein","longitude":"12,450973","latitude":"53,521196","geojson_lng":12.450973,"geojson_lat":53.521196},"geometry":{"type":"Point","coordinates":[12.450973,53.521196]}}]}