{"type":"FeatureCollection","features":[{"type":"Feature","properties":{"SeqNo":"17815","Type":"S","DHID":"de:08119:3771","Parent":"de:08119:3771","Name":"Stetten i. R. Bühläckerstr.","MunicipalityCode":"08119093","Municipality":"Kernen im Remstal","DistrictCode":"","District":"","Description":"","Authority":"NVBW","DelfiName":"-","THID":"D91FB7000EBB","LastOperationDate":"2025-02-28T00:00:00","SEV":"nein","longitude":"9,346665","latitude":"48,795476","geojson_lng":9.346665,"geojson_lat":48.795476},"geometry":{"type":"Point","coordinates":[9.346665,48.795476]}},{"type":"Feature","properties":{"SeqNo":"17816","Type":"Q","DHID":"de:08119:3771:0:1","Parent":"de:08119:3771","Name":"Rtg Frauenländerstr","MunicipalityCode":"00000000","Municipality":"-","DistrictCode":"-","District":"-","Description":"","Authority":"NVBW","DelfiName":"-","THID":"-","LastOperationDate":"","SEV":"nein","longitude":"9,346674","latitude":"48,795476","geojson_lng":9.346674,"geojson_lat":48.795476},"geometry":{"type":"Point","coordinates":[9.346674,48.795476]}},{"type":"Feature","properties":{"SeqNo":"17817","Type":"Q","DHID":"de:08119:3771:0:2","Parent":"de:08119:3771","Name":"Rtg. Endersbacher Str.","MunicipalityCode":"00000000","Municipality":"-","DistrictCode":"-","District":"-","Description":"","Authority":"NVBW","DelfiName":"-","THID":"-","LastOperationDate":"","SEV":"nein","longitude":"9,346674","latitude":"48,795476","geojson_lng":9.346674,"geojson_lat":48.795476},"geometry":{"type":"Point","coordinates":[9.346674,48.795476]}},{"type":"Feature","properties":{"SeqNo":"17821","Type":"S","DHID":"de:08119:3773","Parent":"de:08119:3773","Name":"Stetten Freibad","MunicipalityCode":"08119093","Municipality":"Kernen im Remstal","DistrictCode":"-","District":"-","Description":"","Authority":"NVBW","DelfiName":"-","THID":"D91FB7000EBD","LastOperationDate":"2025-02-28T00:00:00","SEV":"nein","longitude":"9,343036","latitude":"48,792316","geojson_lng":9.343036,"geojson_lat":48.792316},"geometry":{"type":"Point","coordinates":[9.343036,48.792316]}},{"type":"Feature","properties":{"SeqNo":"17823","Type":"Q","DHID":"de:08119:3773:0:4","Parent":"de:08119:3773","Name":"4","MunicipalityCode":"00000000","Municipality":"-","DistrictCode":"-","District":"-","Description":"Rtg Frauenländerstr.","Authority":"NVBW","DelfiName":"-","THID":"-","LastOperationDate":"","SEV":"nein","longitude":"9,343162","latitude":"48,792405","geojson_lng":9.343162,"geojson_lat":48.792405},"geometry":{"type":"Point","coordinates":[9.343162,48.792405]}},{"type":"Feature","properties":{"SeqNo":"18032","Type":"S","DHID":"de:08119:4933","Parent":"de:08119:4933","Name":"Stetten i. R. Diakonie","MunicipalityCode":"08119093","Municipality":"Kernen im Remstal","DistrictCode":"","District":"","Description":"","Authority":"NVBW","DelfiName":"-","THID":"D91FB7001345","LastOperationDate":"2025-02-28T00:00:00","SEV":"nein","longitude":"9,340467","latitude":"48,792778","geojson_lng":9.340467,"geojson_lat":48.792778},"geometry":{"type":"Point","coordinates":[9.340467,48.792778]}},{"type":"Feature","properties":{"SeqNo":"18033","Type":"Q","DHID":"de:08119:4933:0:3","Parent":"de:08119:4933","Name":"eRtg Zum Kleinen Feldle","MunicipalityCode":"00000000","Municipality":"-","DistrictCode":"-","District":"-","Description":"","Authority":"NVBW","DelfiName":"-","THID":"-","LastOperationDate":"","SEV":"nein","longitude":"9,340278","latitude":"48,792665","geojson_lng":9.340278,"geojson_lat":48.792665},"geometry":{"type":"Point","coordinates":[9.340278,48.792665]}},{"type":"Feature","properties":{"SeqNo":"18034","Type":"Q","DHID":"de:08119:4933:0:4","Parent":"de:08119:4933","Name":"eRtg Endersbacher Straße","MunicipalityCode":"00000000","Municipality":"-","DistrictCode":"-","District":"-","Description":"","Authority":"NVBW","DelfiName":"-","THID":"-","LastOperationDate":"","SEV":"nein","longitude":"9,340566","latitude":"48,792926","geojson_lng":9.340566,"geojson_lat":48.792926},"geometry":{"type":"Point","coordinates":[9.340566,48.792926]}},{"type":"Feature","properties":{"SeqNo":"18035","Type":"Q","DHID":"de:08119:4933:0:5","Parent":"de:08119:4933","Name":"Ersatz Rtg Endersbacher Str.","MunicipalityCode":"00000000","Municipality":"-","DistrictCode":"-","District":"-","Description":"","Authority":"NVBW","DelfiName":"-","THID":"-","LastOperationDate":"","SEV":"nein","longitude":"9,340548","latitude":"48,792831","geojson_lng":9.340548,"geojson_lat":48.792831},"geometry":{"type":"Point","coordinates":[9.340548,48.792831]}},{"type":"Feature","properties":{"SeqNo":"18036","Type":"Q","DHID":"de:08119:4933:0:6","Parent":"de:08119:4933","Name":"Ersatz Rtg Kirche","MunicipalityCode":"00000000","Municipality":"-","DistrictCode":"-","District":"-","Description":"","Authority":"NVBW","DelfiName":"-","THID":"-","LastOperationDate":"","SEV":"nein","longitude":"9,340628","latitude":"48,792796","geojson_lng":9.340628,"geojson_lat":48.792796},"geometry":{"type":"Point","coordinates":[9.340628,48.792796]}},{"type":"Feature","properties":{"SeqNo":"18037","Type":"S","DHID":"de:08119:4934","Parent":"de:08119:4934","Name":"Stetten Endersb. Str","MunicipalityCode":"08119093","Municipality":"Kernen im Remstal","DistrictCode":"-","District":"-","Description":"","Authority":"NVBW","DelfiName":"-","THID":"D91FB7001346","LastOperationDate":"2025-02-28T00:00:00","SEV":"nein","longitude":"9,342048","latitude":"48,796411","geojson_lng":9.342048,"geojson_lat":48.796411},"geometry":{"type":"Point","coordinates":[9.342048,48.796411]}},{"type":"Feature","properties":{"SeqNo":"18038","Type":"Q","DHID":"de:08119:4934:0:3","Parent":"de:08119:4934","Name":"3","MunicipalityCode":"00000000","Municipality":"-","DistrictCode":"-","District":"-","Description":"eRtg Diakonie","Authority":"NVBW","DelfiName":"-","THID":"-","LastOperationDate":"","SEV":"nein","longitude":"9,341949","latitude":"48,796151","geojson_lng":9.341949,"geojson_lat":48.796151},"geometry":{"type":"Point","coordinates":[9.341949,48.796151]}},{"type":"Feature","properties":{"SeqNo":"18039","Type":"Q","DHID":"de:08119:4934:0:4","Parent":"de:08119:4934","Name":"4","MunicipalityCode":"00000000","Municipality":"-","DistrictCode":"-","District":"-","Description":"eRtg Hangweide","Authority":"NVBW","DelfiName":"-","THID":"-","LastOperationDate":"","SEV":"nein","longitude":"9,342084","latitude":"48,796139","geojson_lng":9.342084,"geojson_lat":48.796139},"geometry":{"type":"Point","coordinates":[9.342084,48.796139]}},{"type":"Feature","properties":{"SeqNo":"18040","Type":"Q","DHID":"de:08119:4934:0:5","Parent":"de:08119:4934","Name":"5","MunicipalityCode":"00000000","Municipality":"-","DistrictCode":"-","District":"-","Description":"Linie 219 Rtg Bühläckerstr","Authority":"NVBW","DelfiName":"-","THID":"-","LastOperationDate":"","SEV":"nein","longitude":"9,342551","latitude":"48,79676","geojson_lng":9.342551,"geojson_lat":48.79676},"geometry":{"type":"Point","coordinates":[9.342551,48.79676]}},{"type":"Feature","properties":{"SeqNo":"18041","Type":"Q","DHID":"de:08119:4934:0:6","Parent":"de:08119:4934","Name":"6","MunicipalityCode":"00000000","Municipality":"-","DistrictCode":"-","District":"-","Description":"Linie 219 Rtg Endersbach","Authority":"NVBW","DelfiName":"-","THID":"-","LastOperationDate":"","SEV":"nein","longitude":"9,342533","latitude":"48,796814","geojson_lng":9.342533,"geojson_lat":48.796814},"geometry":{"type":"Point","coordinates":[9.342533,48.796814]}},{"type":"Feature","properties":{"SeqNo":"20595","Type":"S","DHID":"de:08119:7974","Parent":"de:08119:7974","Name":"Stetten Frauenl.str.","MunicipalityCode":"08119093","Municipality":"Kernen im Remstal","DistrictCode":"-","District":"-","Description":"","Authority":"NVBW","DelfiName":"-","THID":"D91FB7001F26","LastOperationDate":"2025-02-28T00:00:00","SEV":"nein","longitude":"9,34477","latitude":"48,79318","geojson_lng":9.34477,"geojson_lat":48.79318},"geometry":{"type":"Point","coordinates":[9.34477,48.79318]}},{"type":"Feature","properties":{"SeqNo":"20596","Type":"Q","DHID":"de:08119:7974:0:3","Parent":"de:08119:7974","Name":"3","MunicipalityCode":"00000000","Municipality":"-","DistrictCode":"-","District":"-","Description":"Rtg Diakonie","Authority":"NVBW","DelfiName":"-","THID":"-","LastOperationDate":"","SEV":"nein","longitude":"9,34477","latitude":"48,793174","geojson_lng":9.34477,"geojson_lat":48.793174},"geometry":{"type":"Point","coordinates":[9.34477,48.793174]}},{"type":"Feature","properties":{"SeqNo":"20597","Type":"Q","DHID":"de:08119:7974:0:4","Parent":"de:08119:7974","Name":"4","MunicipalityCode":"00000000","Municipality":"-","DistrictCode":"-","District":"-","Description":"Rtg Endersbacher Straße","Authority":"NVBW","DelfiName":"-","THID":"-","LastOperationDate":"","SEV":"nein","longitude":"9,34477","latitude":"48,793174","geojson_lng":9.34477,"geojson_lat":48.793174},"geometry":{"type":"Point","coordinates":[9.34477,48.793174]}}]}