{"type":"FeatureCollection","features":[{"type":"Feature","properties":{"highway":"bus_stop","public_transport":"platform","name":"Naarderweg","ref:IFOPT":"NL:Q:49790060","_quaycode":"NL:Q:49790060","_town":"Zeewolde","_status":"available","_mode":"bus","_direction":155,"_visuallyAccessible":false,"_disabledAccessible":true,"geojson_lng":5.52663299361501,"geojson_lat":52.33134041313256},"geometry":{"type":"Point","coordinates":[5.52663299361501,52.33134041313256]}},{"type":"Feature","properties":{"highway":"bus_stop","public_transport":"platform","name":"Overloop","ref:IFOPT":"NL:Q:49790020","_quaycode":"NL:Q:49790020","_town":"Zeewolde","_status":"available","_mode":"bus","_direction":154,"_visuallyAccessible":false,"_disabledAccessible":true,"geojson_lng":5.518686968034902,"geojson_lat":52.3331650277183},"geometry":{"type":"Point","coordinates":[5.518686968034902,52.3331650277183]}},{"type":"Feature","properties":{"highway":"bus_stop","public_transport":"platform","name":"Overloop","ref:IFOPT":"NL:Q:49790340","_quaycode":"NL:Q:49790340","_town":"Zeewolde","_status":"available","_mode":"bus","_direction":331,"_visuallyAccessible":false,"_disabledAccessible":true,"geojson_lng":5.518849337475798,"geojson_lat":52.33349738973083},"geometry":{"type":"Point","coordinates":[5.518849337475798,52.33349738973083]}},{"type":"Feature","properties":{"highway":"bus_stop","public_transport":"platform","name":"Gildenveld","ref:IFOPT":"NL:Q:49790121","_quaycode":"NL:Q:49790121","_town":"Zeewolde","_status":"available","_mode":"bus","_direction":333,"_visuallyAccessible":false,"_disabledAccessible":true,"geojson_lng":5.529256667319909,"geojson_lat":52.32602558448201},"geometry":{"type":"Point","coordinates":[5.529256667319909,52.32602558448201]}},{"type":"Feature","properties":{"highway":"bus_stop","public_transport":"platform","name":"Gildenveld","ref:IFOPT":"NL:Q:49790230","_quaycode":"NL:Q:49790230","_town":"Zeewolde","_status":"available","_mode":"bus","_direction":155,"_visuallyAccessible":false,"_disabledAccessible":false,"geojson_lng":5.5293141903620935,"geojson_lat":52.32566600895251},"geometry":{"type":"Point","coordinates":[5.5293141903620935,52.32566600895251]}},{"type":"Feature","properties":{"highway":"bus_stop","public_transport":"platform","name":"Kluunpad","ref:IFOPT":"NL:Q:49790420","_quaycode":"NL:Q:49790420","_town":"Zeewolde","_status":"available","_mode":"bus","_direction":260,"_visuallyAccessible":false,"_disabledAccessible":true,"geojson_lng":5.531592682715675,"geojson_lat":52.32715519754328},"geometry":{"type":"Point","coordinates":[5.531592682715675,52.32715519754328]}},{"type":"Feature","properties":{"highway":"bus_stop","public_transport":"platform","name":"Naarderweg","ref:IFOPT":"NL:Q:49790220","_quaycode":"NL:Q:49790220","_town":"Zeewolde","_status":"available","_mode":"bus","_direction":335,"_visuallyAccessible":false,"_disabledAccessible":true,"geojson_lng":5.526648794606718,"geojson_lat":52.331699900417746},"geometry":{"type":"Point","coordinates":[5.526648794606718,52.331699900417746]}},{"type":"Feature","properties":{"highway":"bus_stop","public_transport":"platform","name":"Kluunpad","ref:IFOPT":"NL:Q:49790090","_quaycode":"NL:Q:49790090","_town":"Zeewolde","_status":"available","_mode":"bus","_direction":80,"_visuallyAccessible":false,"_disabledAccessible":true,"geojson_lng":5.5319445066451225,"geojson_lat":52.327082865799774},"geometry":{"type":"Point","coordinates":[5.5319445066451225,52.327082865799774]}}]}