{"type":"FeatureCollection","features":[{"type":"Feature","properties":{"highway":"bus_stop","public_transport":"platform","name":"Beeldentuin","ref:IFOPT":"NL:Q:37224040","_quaycode":"NL:Q:37224040","_town":"Zaandijk","_status":"available","_mode":"bus","_direction":45,"_visuallyAccessible":true,"_disabledAccessible":true,"geojson_lng":4.814132903410585,"geojson_lat":52.47391955483045},"geometry":{"type":"Point","coordinates":[4.814132903410585,52.47391955483045]}},{"type":"Feature","properties":{"highway":"bus_stop","public_transport":"platform","name":"Beeldentuin","ref:IFOPT":"NL:Q:37224350","_quaycode":"NL:Q:37224350","_town":"Zaandijk","_status":"available","_mode":"bus","_direction":213,"_visuallyAccessible":true,"_disabledAccessible":true,"geojson_lng":4.8141602416102955,"geojson_lat":52.47408146315827},"geometry":{"type":"Point","coordinates":[4.8141602416102955,52.47408146315827]}},{"type":"Feature","properties":{"highway":"bus_stop","public_transport":"platform","name":"Willem Dreeslaan","ref:IFOPT":"NL:Q:37224060","_quaycode":"NL:Q:37224060","_town":"Zaandijk","_status":"available","_mode":"bus","_direction":302,"_visuallyAccessible":false,"_disabledAccessible":false,"geojson_lng":4.812255866234337,"geojson_lat":52.47565405776176},"geometry":{"type":"Point","coordinates":[4.812255866234337,52.47565405776176]}},{"type":"Feature","properties":{"highway":"bus_stop","public_transport":"platform","name":"Stationsstraat","ref:IFOPT":"NL:Q:37224000","_quaycode":"NL:Q:37224000","_town":"Koog a/d Zaan","_status":"available","_mode":"bus","_direction":326,"_visuallyAccessible":false,"_disabledAccessible":false,"geojson_lng":4.811938687992607,"geojson_lat":52.46948704500475},"geometry":{"type":"Point","coordinates":[4.811938687992607,52.46948704500475]}},{"type":"Feature","properties":{"highway":"bus_stop","public_transport":"platform","name":"Willem Dreeslaan","ref:IFOPT":"NL:Q:37224330","_quaycode":"NL:Q:37224330","_town":"Zaandijk","_status":"available","_mode":"bus","_direction":106,"_visuallyAccessible":false,"_disabledAccessible":false,"geojson_lng":4.812818644476409,"geojson_lat":52.47538715778252},"geometry":{"type":"Point","coordinates":[4.812818644476409,52.47538715778252]}},{"type":"Feature","properties":{"highway":"bus_stop","public_transport":"platform","name":"Zaanse Schans","ref:IFOPT":"NL:Q:37221150","_quaycode":"NL:Q:37221150","_town":"Zaandam","_status":"available","_mode":"bus","_direction":72,"_visuallyAccessible":null,"_disabledAccessible":null,"geojson_lng":4.821685875044613,"geojson_lat":52.47256273653116},"geometry":{"type":"Point","coordinates":[4.821685875044613,52.47256273653116]}}]}