{"type":"FeatureCollection","features":[{"type":"Feature","properties":{"SeqNo":"14299","Type":"S","DHID":"de:08118:3421","Parent":"de:08118:3421","Name":"Eglosh. TeinacherStr","MunicipalityCode":"08118048","Municipality":"Ludwigsburg","DistrictCode":"-","District":"-","Description":"","Authority":"NVBW","DelfiName":"-","THID":"D91FB6000D5D","LastOperationDate":"2025-02-28T00:00:00","SEV":"nein","longitude":"9,172221","latitude":"48,903363","geojson_lng":9.172221,"geojson_lat":48.903363},"geometry":{"type":"Point","coordinates":[9.172221,48.903363]}},{"type":"Feature","properties":{"SeqNo":"14300","Type":"Q","DHID":"de:08118:3421:0:3","Parent":"de:08118:3421","Name":"3","MunicipalityCode":"00000000","Municipality":"-","DistrictCode":"-","District":"-","Description":"eRtg Strombergstraße/Markgröninger Str.","Authority":"NVBW","DelfiName":"-","THID":"-","LastOperationDate":"","SEV":"nein","longitude":"9,172221","latitude":"48,903357","geojson_lng":9.172221,"geojson_lat":48.903357},"geometry":{"type":"Point","coordinates":[9.172221,48.903357]}},{"type":"Feature","properties":{"SeqNo":"14301","Type":"Q","DHID":"de:08118:3421:0:4","Parent":"de:08118:3421","Name":"4","MunicipalityCode":"00000000","Municipality":"-","DistrictCode":"-","District":"-","Description":"Rtg Rundsporthalle","Authority":"NVBW","DelfiName":"-","THID":"-","LastOperationDate":"","SEV":"nein","longitude":"9,172248","latitude":"48,903357","geojson_lng":9.172248,"geojson_lat":48.903357},"geometry":{"type":"Point","coordinates":[9.172248,48.903357]}},{"type":"Feature","properties":{"SeqNo":"14302","Type":"S","DHID":"de:08118:3422","Parent":"de:08118:3422","Name":"Eglosh. Markgr. Str.","MunicipalityCode":"08118048","Municipality":"Ludwigsburg","DistrictCode":"-","District":"-","Description":"","Authority":"NVBW","DelfiName":"-","THID":"D91FB6000D5E","LastOperationDate":"2025-02-28T00:00:00","SEV":"nein","longitude":"9,16985","latitude":"48,905642","geojson_lng":9.16985,"geojson_lat":48.905642},"geometry":{"type":"Point","coordinates":[9.16985,48.905642]}},{"type":"Feature","properties":{"SeqNo":"14303","Type":"Q","DHID":"de:08118:3422:0:3","Parent":"de:08118:3422","Name":"3","MunicipalityCode":"00000000","Municipality":"-","DistrictCode":"-","District":"-","Description":"Rtg Hirschbergstr./Theurerstr.","Authority":"NVBW","DelfiName":"-","THID":"-","LastOperationDate":"","SEV":"nein","longitude":"9,16985","latitude":"48,905489","geojson_lng":9.16985,"geojson_lat":48.905489},"geometry":{"type":"Point","coordinates":[9.16985,48.905489]}},{"type":"Feature","properties":{"SeqNo":"14304","Type":"Q","DHID":"de:08118:3422:0:4","Parent":"de:08118:3422","Name":"4","MunicipalityCode":"00000000","Municipality":"-","DistrictCode":"-","District":"-","Description":"Rtg Ludwigsburg","Authority":"NVBW","DelfiName":"-","THID":"-","LastOperationDate":"","SEV":"nein","longitude":"9,16985","latitude":"48,905489","geojson_lng":9.16985,"geojson_lat":48.905489},"geometry":{"type":"Point","coordinates":[9.16985,48.905489]}},{"type":"Feature","properties":{"SeqNo":"14308","Type":"Q","DHID":"de:08118:3423:1:4","Parent":"de:08118:3423:1","Name":"stadteinwärts","MunicipalityCode":"00000000","Municipality":"-","DistrictCode":"-","District":"-","Description":"stadteinwärts","Authority":"NVBW","DelfiName":"-","THID":"-","LastOperationDate":"","SEV":"nein","longitude":"9,173021","latitude":"48,907608","geojson_lng":9.173021,"geojson_lat":48.907608},"geometry":{"type":"Point","coordinates":[9.173021,48.907608]}},{"type":"Feature","properties":{"SeqNo":"15072","Type":"S","DHID":"de:08118:5511","Parent":"de:08118:5511","Name":"Eglosheim Katharinenstr.","MunicipalityCode":"08118048","Municipality":"Ludwigsburg","DistrictCode":"-","District":"-","Description":"","Authority":"NVBW","DelfiName":"-","THID":"D91FB6001587","LastOperationDate":"2025-02-28T00:00:00","SEV":"nein","longitude":"9,172203","latitude":"48,907845","geojson_lng":9.172203,"geojson_lat":48.907845},"geometry":{"type":"Point","coordinates":[9.172203,48.907845]}},{"type":"Feature","properties":{"SeqNo":"15073","Type":"A","DHID":"de:08118:5511:1","Parent":"de:08118:5511","Name":"Bus","MunicipalityCode":"00000000","Municipality":"-","DistrictCode":"-","District":"-","Description":"Bus","Authority":"NVBW","DelfiName":"-","THID":"-","LastOperationDate":"","SEV":"nein","longitude":"9,172194","latitude":"48,907851","geojson_lng":9.172194,"geojson_lat":48.907851},"geometry":{"type":"Point","coordinates":[9.172194,48.907851]}},{"type":"Feature","properties":{"SeqNo":"15074","Type":"Q","DHID":"de:08118:5511:1:3","Parent":"de:08118:5511:1","Name":"eRtg Tammer Straße","MunicipalityCode":"00000000","Municipality":"-","DistrictCode":"-","District":"-","Description":"eRtg Tammer Straße","Authority":"NVBW","DelfiName":"-","THID":"-","LastOperationDate":"","SEV":"nein","longitude":"9,172203","latitude":"48,907845","geojson_lng":9.172203,"geojson_lat":48.907845},"geometry":{"type":"Point","coordinates":[9.172203,48.907845]}},{"type":"Feature","properties":{"SeqNo":"15075","Type":"S","DHID":"de:08118:5512","Parent":"de:08118:5512","Name":"Eglosh. Tammer Str.","MunicipalityCode":"08118048","Municipality":"Ludwigsburg","DistrictCode":"-","District":"-","Description":"","Authority":"NVBW","DelfiName":"-","THID":"D91FB6001588","LastOperationDate":"2025-02-28T00:00:00","SEV":"nein","longitude":"9,165017","latitude":"48,907933","geojson_lng":9.165017,"geojson_lat":48.907933},"geometry":{"type":"Point","coordinates":[9.165017,48.907933]}},{"type":"Feature","properties":{"SeqNo":"15076","Type":"Q","DHID":"de:08118:5512:0:3","Parent":"de:08118:5512","Name":"3","MunicipalityCode":"00000000","Municipality":"-","DistrictCode":"-","District":"-","Description":"eRtg Frankfurter Straße","Authority":"NVBW","DelfiName":"-","THID":"-","LastOperationDate":"","SEV":"nein","longitude":"9,165017","latitude":"48,907933","geojson_lng":9.165017,"geojson_lat":48.907933},"geometry":{"type":"Point","coordinates":[9.165017,48.907933]}},{"type":"Feature","properties":{"SeqNo":"15077","Type":"Q","DHID":"de:08118:5512:0:4","Parent":"de:08118:5512","Name":"4","MunicipalityCode":"00000000","Municipality":"-","DistrictCode":"-","District":"-","Description":"eRtg Falkenweg","Authority":"NVBW","DelfiName":"-","THID":"-","LastOperationDate":"","SEV":"nein","longitude":"9,165017","latitude":"48,907933","geojson_lng":9.165017,"geojson_lat":48.907933},"geometry":{"type":"Point","coordinates":[9.165017,48.907933]}},{"type":"Feature","properties":{"SeqNo":"16740","Type":"S","DHID":"de:08118:7447","Parent":"de:08118:7447","Name":"Eglosheim Strombergstr.","MunicipalityCode":"08118048","Municipality":"Ludwigsburg","DistrictCode":"-","District":"-","Description":"","Authority":"NVBW","DelfiName":"-","THID":"D91FB6001D17","LastOperationDate":"1999-12-31T00:00:00","SEV":"nein","longitude":"9,167397","latitude":"48,904981","geojson_lng":9.167397,"geojson_lat":48.904981},"geometry":{"type":"Point","coordinates":[9.167397,48.904981]}},{"type":"Feature","properties":{"SeqNo":"16741","Type":"Q","DHID":"de:08118:7447:0:3","Parent":"de:08118:7447","Name":"3","MunicipalityCode":"00000000","Municipality":"-","DistrictCode":"-","District":"-","Description":"eRtg Markgröninger Straße","Authority":"NVBW","DelfiName":"-","THID":"-","LastOperationDate":"","SEV":"nein","longitude":"9,167406","latitude":"48,904981","geojson_lng":9.167406,"geojson_lat":48.904981},"geometry":{"type":"Point","coordinates":[9.167406,48.904981]}}]}