{"type":"FeatureCollection","features":[{"type":"Feature","properties":{"SeqNo":"172","Type":"S","DHID":"de:08111:110","Parent":"de:08111:110","Name":"Friedrichswahl","MunicipalityCode":"08111000","Municipality":"Stuttgart","DistrictCode":"","District":"","Description":"","Authority":"NVBW","DelfiName":"-","THID":"D91FAF00006E","LastOperationDate":"2025-02-28T00:00:00","SEV":"nein","longitude":"9,172823","latitude":"48,822903","geojson_lng":9.172823,"geojson_lat":48.822903},"geometry":{"type":"Point","coordinates":[9.172823,48.822903]}},{"type":"Feature","properties":{"SeqNo":"173","Type":"A","DHID":"de:08111:110:1","Parent":"de:08111:110","Name":"Stb. Hohensteinstr","MunicipalityCode":"00000000","Municipality":"-","DistrictCode":"-","District":"-","Description":"","Authority":"NVBW","DelfiName":"-","THID":"-","LastOperationDate":"","SEV":"nein","longitude":"9,172895","latitude":"48,822903","geojson_lng":9.172895,"geojson_lat":48.822903},"geometry":{"type":"Point","coordinates":[9.172895,48.822903]}},{"type":"Feature","properties":{"SeqNo":"174","Type":"A","DHID":"de:08111:110:2","Parent":"de:08111:110","Name":"Stb. Borsigstr.","MunicipalityCode":"00000000","Municipality":"-","DistrictCode":"-","District":"-","Description":"","Authority":"NVBW","DelfiName":"-","THID":"-","LastOperationDate":"","SEV":"nein","longitude":"9,172787","latitude":"48,822885","geojson_lng":9.172787,"geojson_lat":48.822885},"geometry":{"type":"Point","coordinates":[9.172787,48.822885]}},{"type":"Feature","properties":{"SeqNo":"175","Type":"A","DHID":"de:08111:110:3","Parent":"de:08111:110","Name":"Bus","MunicipalityCode":"00000000","Municipality":"-","DistrictCode":"-","District":"-","Description":"","Authority":"NVBW","DelfiName":"-","THID":"-","LastOperationDate":"","SEV":"nein","longitude":"9,172446","latitude":"48,82356","geojson_lng":9.172446,"geojson_lat":48.82356},"geometry":{"type":"Point","coordinates":[9.172446,48.82356]}},{"type":"Feature","properties":{"SeqNo":"176","Type":"A","DHID":"de:08111:110:90","Parent":"de:08111:110","Name":"Zug. Satteld. Str.","MunicipalityCode":"00000000","Municipality":"-","DistrictCode":"-","District":"-","Description":"","Authority":"NVBW","DelfiName":"-","THID":"-","LastOperationDate":"","SEV":"nein","longitude":"9,172733","latitude":"48,823252","geojson_lng":9.172733,"geojson_lat":48.823252},"geometry":{"type":"Point","coordinates":[9.172733,48.823252]}},{"type":"Feature","properties":{"SeqNo":"177","Type":"A","DHID":"de:08111:110:91","Parent":"de:08111:110","Name":"Zug. Grünfläche","MunicipalityCode":"00000000","Municipality":"-","DistrictCode":"-","District":"-","Description":"","Authority":"NVBW","DelfiName":"-","THID":"-","LastOperationDate":"","SEV":"nein","longitude":"9,172581","latitude":"48,823222","geojson_lng":9.172581,"geojson_lat":48.823222},"geometry":{"type":"Point","coordinates":[9.172581,48.823222]}},{"type":"Feature","properties":{"SeqNo":"178","Type":"A","DHID":"de:08111:110:92","Parent":"de:08111:110","Name":"Zug. MediaMarkt","MunicipalityCode":"00000000","Municipality":"-","DistrictCode":"-","District":"-","Description":"","Authority":"NVBW","DelfiName":"-","THID":"-","LastOperationDate":"","SEV":"nein","longitude":"9,173039","latitude":"48,822507","geojson_lng":9.173039,"geojson_lat":48.822507},"geometry":{"type":"Point","coordinates":[9.173039,48.822507]}},{"type":"Feature","properties":{"SeqNo":"179","Type":"A","DHID":"de:08111:110:93","Parent":"de:08111:110","Name":"Zug. VW","MunicipalityCode":"00000000","Municipality":"-","DistrictCode":"-","District":"-","Description":"","Authority":"NVBW","DelfiName":"-","THID":"-","LastOperationDate":"","SEV":"nein","longitude":"9,173164","latitude":"48,822548","geojson_lng":9.173164,"geojson_lat":48.822548},"geometry":{"type":"Point","coordinates":[9.173164,48.822548]}},{"type":"Feature","properties":{"SeqNo":"180","Type":"Q","DHID":"de:08111:110:0:2","Parent":"de:08111:110:1","Name":"Rtg Hohensteinstr.","MunicipalityCode":"00000000","Municipality":"-","DistrictCode":"-","District":"-","Description":"","Authority":"NVBW","DelfiName":"-","THID":"-","LastOperationDate":"","SEV":"nein","longitude":"9,17285","latitude":"48,822903","geojson_lng":9.17285,"geojson_lat":48.822903},"geometry":{"type":"Point","coordinates":[9.17285,48.822903]}},{"type":"Feature","properties":{"SeqNo":"181","Type":"Q","DHID":"de:08111:110:0:1","Parent":"de:08111:110:2","Name":"Rtg Borsigstr.","MunicipalityCode":"00000000","Municipality":"-","DistrictCode":"-","District":"-","Description":"","Authority":"NVBW","DelfiName":"-","THID":"-","LastOperationDate":"","SEV":"nein","longitude":"9,172814","latitude":"48,822903","geojson_lng":9.172814,"geojson_lat":48.822903},"geometry":{"type":"Point","coordinates":[9.172814,48.822903]}},{"type":"Feature","properties":{"SeqNo":"182","Type":"Q","DHID":"de:08111:110:0:3","Parent":"de:08111:110:3","Name":"NBus","MunicipalityCode":"00000000","Municipality":"-","DistrictCode":"-","District":"-","Description":"","Authority":"NVBW","DelfiName":"-","THID":"-","LastOperationDate":"","SEV":"nein","longitude":"9,172464","latitude":"48,823565","geojson_lng":9.172464,"geojson_lat":48.823565},"geometry":{"type":"Point","coordinates":[9.172464,48.823565]}},{"type":"Feature","properties":{"SeqNo":"183","Type":"Q","DHID":"de:08111:110:0:6","Parent":"de:08111:110:3","Name":"Ersatzhaltestelle UE auswärts","MunicipalityCode":"00000000","Municipality":"-","DistrictCode":"-","District":"-","Description":"","Authority":"NVBW","DelfiName":"-","THID":"-","LastOperationDate":"","SEV":"nein","longitude":"9,172904","latitude":"48,82298","geojson_lng":9.172904,"geojson_lat":48.82298},"geometry":{"type":"Point","coordinates":[9.172904,48.82298]}},{"type":"Feature","properties":{"SeqNo":"1316","Type":"S","DHID":"de:08111:2467","Parent":"de:08111:2467","Name":"Frankenstraße","MunicipalityCode":"08111000","Municipality":"Stuttgart","DistrictCode":"","District":"","Description":"","Authority":"NVBW","DelfiName":"-","THID":"D91FAF0009A3","LastOperationDate":"2025-02-28T00:00:00","SEV":"nein","longitude":"9,172823","latitude":"48,825736","geojson_lng":9.172823,"geojson_lat":48.825736},"geometry":{"type":"Point","coordinates":[9.172823,48.825736]}},{"type":"Feature","properties":{"SeqNo":"1317","Type":"Q","DHID":"de:08111:2467:0:3","Parent":"de:08111:2467","Name":"Rtg Hohensteinstraße","MunicipalityCode":"00000000","Municipality":"-","DistrictCode":"-","District":"-","Description":"","Authority":"NVBW","DelfiName":"-","THID":"-","LastOperationDate":"","SEV":"nein","longitude":"9,172608","latitude":"48,825754","geojson_lng":9.172608,"geojson_lat":48.825754},"geometry":{"type":"Point","coordinates":[9.172608,48.825754]}},{"type":"Feature","properties":{"SeqNo":"1318","Type":"Q","DHID":"de:08111:2467:0:4","Parent":"de:08111:2467","Name":"Rtg Ohmstr.","MunicipalityCode":"00000000","Municipality":"-","DistrictCode":"-","District":"-","Description":"","Authority":"NVBW","DelfiName":"-","THID":"-","LastOperationDate":"","SEV":"nein","longitude":"9,172823","latitude":"48,825736","geojson_lng":9.172823,"geojson_lat":48.825736},"geometry":{"type":"Point","coordinates":[9.172823,48.825736]}},{"type":"Feature","properties":{"SeqNo":"2539","Type":"S","DHID":"de:08111:4402","Parent":"de:08111:4402","Name":"Werner und Pfleiderer","MunicipalityCode":"08111000","Municipality":"Stuttgart","DistrictCode":"-","District":"-","Description":"","Authority":"NVBW","DelfiName":"-","THID":"D91FAF001132","LastOperationDate":"2025-02-28T00:00:00","SEV":"nein","longitude":"9,170299","latitude":"48,821549","geojson_lng":9.170299,"geojson_lat":48.821549},"geometry":{"type":"Point","coordinates":[9.170299,48.821549]}},{"type":"Feature","properties":{"SeqNo":"2540","Type":"Q","DHID":"de:08111:4402:0:3","Parent":"de:08111:4402","Name":"eRtg Ohmstraße (Zuffenhausen Bf)","MunicipalityCode":"00000000","Municipality":"-","DistrictCode":"-","District":"-","Description":"eRtg Ohmstraße (Zuffenhausen Bf)","Authority":"NVBW","DelfiName":"-","THID":"-","LastOperationDate":"","SEV":"nein","longitude":"9,170299","latitude":"48,821537","geojson_lng":9.170299,"geojson_lat":48.821537},"geometry":{"type":"Point","coordinates":[9.170299,48.821537]}},{"type":"Feature","properties":{"SeqNo":"2541","Type":"Q","DHID":"de:08111:4402:0:4","Parent":"de:08111:4402","Name":"eRtg Feuerbach Bosch","MunicipalityCode":"00000000","Municipality":"-","DistrictCode":"-","District":"-","Description":"eRtg Feuerbach Bosch","Authority":"NVBW","DelfiName":"-","THID":"-","LastOperationDate":"","SEV":"nein","longitude":"9,170299","latitude":"48,821537","geojson_lng":9.170299,"geojson_lat":48.821537},"geometry":{"type":"Point","coordinates":[9.170299,48.821537]}},{"type":"Feature","properties":{"SeqNo":"2778","Type":"S","DHID":"de:08111:60071","Parent":"de:08111:60071","Name":"Bertastraße","MunicipalityCode":"08111000","Municipality":"Stuttgart","DistrictCode":"","District":"","Description":"","Authority":"NVBW","DelfiName":"-","THID":"D91FAF00EAA7","LastOperationDate":"2025-02-22T00:00:00","SEV":"nein","longitude":"9,16508","latitude":"48,823317","geojson_lng":9.16508,"geojson_lat":48.823317},"geometry":{"type":"Point","coordinates":[9.16508,48.823317]}},{"type":"Feature","properties":{"SeqNo":"2779","Type":"S","DHID":"de:08111:60072","Parent":"de:08111:60072","Name":"Schraderweg","MunicipalityCode":"08111000","Municipality":"Stuttgart","DistrictCode":"","District":"","Description":"","Authority":"NVBW","DelfiName":"-","THID":"D91FAF00EAA8","LastOperationDate":"1999-12-31T00:00:00","SEV":"nein","longitude":"9,166095","latitude":"48,822252","geojson_lng":9.166095,"geojson_lat":48.822252},"geometry":{"type":"Point","coordinates":[9.166095,48.822252]}},{"type":"Feature","properties":{"SeqNo":"2780","Type":"S","DHID":"de:08111:60073","Parent":"de:08111:60073","Name":"Theodorstraße","MunicipalityCode":"08111000","Municipality":"Stuttgart","DistrictCode":"","District":"","Description":"","Authority":"NVBW","DelfiName":"-","THID":"D91FAF00EAA9","LastOperationDate":"2025-02-22T00:00:00","SEV":"nein","longitude":"9,167523","latitude":"48,821336","geojson_lng":9.167523,"geojson_lat":48.821336},"geometry":{"type":"Point","coordinates":[9.167523,48.821336]}},{"type":"Feature","properties":{"SeqNo":"3300","Type":"S","DHID":"de:08111:6109","Parent":"de:08111:6109","Name":"Hohensteinstraße","MunicipalityCode":"08111000","Municipality":"Stuttgart","DistrictCode":"-","District":"-","Description":"","Authority":"NVBW","DelfiName":"-","THID":"D91FAF0017DD","LastOperationDate":"2025-02-28T00:00:00","SEV":"nein","longitude":"9,173694","latitude":"48,826931","geojson_lng":9.173694,"geojson_lat":48.826931},"geometry":{"type":"Point","coordinates":[9.173694,48.826931]}},{"type":"Feature","properties":{"SeqNo":"3301","Type":"A","DHID":"de:08111:6109:1","Parent":"de:08111:6109","Name":"St Pragsattel","MunicipalityCode":"00000000","Municipality":"-","DistrictCode":"-","District":"-","Description":"St Pragsattel","Authority":"NVBW","DelfiName":"-","THID":"-","LastOperationDate":"","SEV":"nein","longitude":"9,173632","latitude":"48,826937","geojson_lng":9.173632,"geojson_lat":48.826937},"geometry":{"type":"Point","coordinates":[9.173632,48.826937]}},{"type":"Feature","properties":{"SeqNo":"3302","Type":"A","DHID":"de:08111:6109:2","Parent":"de:08111:6109","Name":"St Freiberg/Stamm","MunicipalityCode":"00000000","Municipality":"-","DistrictCode":"-","District":"-","Description":"St Freiberg/Stamm","Authority":"NVBW","DelfiName":"-","THID":"-","LastOperationDate":"","SEV":"nein","longitude":"9,173748","latitude":"48,826913","geojson_lng":9.173748,"geojson_lat":48.826913},"geometry":{"type":"Point","coordinates":[9.173748,48.826913]}},{"type":"Feature","properties":{"SeqNo":"3307","Type":"A","DHID":"de:08111:6109:92","Parent":"de:08111:6109","Name":"Zug. R.-Bosch-Schule","MunicipalityCode":"00000000","Municipality":"-","DistrictCode":"-","District":"-","Description":"Zug. R.-Bosch-Schule","Authority":"NVBW","DelfiName":"-","THID":"-","LastOperationDate":"","SEV":"nein","longitude":"9,173461","latitude":"48,826517","geojson_lng":9.173461,"geojson_lat":48.826517},"geometry":{"type":"Point","coordinates":[9.173461,48.826517]}},{"type":"Feature","properties":{"SeqNo":"3308","Type":"A","DHID":"de:08111:6109:93","Parent":"de:08111:6109","Name":"Zug. Parkanlage","MunicipalityCode":"00000000","Municipality":"-","DistrictCode":"-","District":"-","Description":"Zug. Parkanlage","Authority":"NVBW","DelfiName":"-","THID":"-","LastOperationDate":"","SEV":"nein","longitude":"9,173641","latitude":"48,82654","geojson_lng":9.173641,"geojson_lat":48.82654},"geometry":{"type":"Point","coordinates":[9.173641,48.82654]}},{"type":"Feature","properties":{"SeqNo":"3309","Type":"Q","DHID":"de:08111:6109:1:1","Parent":"de:08111:6109:1","Name":"Rtg Friedrichswahl","MunicipalityCode":"00000000","Municipality":"-","DistrictCode":"-","District":"-","Description":"Rtg Friedrichswahl","Authority":"NVBW","DelfiName":"-","THID":"-","LastOperationDate":"","SEV":"nein","longitude":"9,173659","latitude":"48,826913","geojson_lng":9.173659,"geojson_lat":48.826913},"geometry":{"type":"Point","coordinates":[9.173659,48.826913]}},{"type":"Feature","properties":{"SeqNo":"3310","Type":"Q","DHID":"de:08111:6109:2:2","Parent":"de:08111:6109:2","Name":"Rtg Rathaus/Kelterplatz","MunicipalityCode":"00000000","Municipality":"-","DistrictCode":"-","District":"-","Description":"Rtg Rathaus/Kelterplatz","Authority":"NVBW","DelfiName":"-","THID":"-","LastOperationDate":"","SEV":"nein","longitude":"9,173712","latitude":"48,826913","geojson_lng":9.173712,"geojson_lat":48.826913},"geometry":{"type":"Point","coordinates":[9.173712,48.826913]}},{"type":"Feature","properties":{"SeqNo":"4588","Type":"S","DHID":"de:08111:861","Parent":"de:08111:861","Name":"Stuttgart Bertastraße","MunicipalityCode":"08111000","Municipality":"Stuttgart","DistrictCode":"","District":"","Description":"","Authority":"NVBW","DelfiName":"-","THID":"D91FAF00035D","LastOperationDate":"1999-12-31T00:00:00","SEV":"nein","longitude":"9,16508","latitude":"48,823317","geojson_lng":9.16508,"geojson_lat":48.823317},"geometry":{"type":"Point","coordinates":[9.16508,48.823317]}},{"type":"Feature","properties":{"SeqNo":"4589","Type":"S","DHID":"de:08111:862","Parent":"de:08111:862","Name":"Stuttgart Schraderweg","MunicipalityCode":"08111000","Municipality":"Stuttgart","DistrictCode":"","District":"","Description":"","Authority":"NVBW","DelfiName":"-","THID":"D91FAF00035E","LastOperationDate":"1999-12-31T00:00:00","SEV":"nein","longitude":"9,166095","latitude":"48,822252","geojson_lng":9.166095,"geojson_lat":48.822252},"geometry":{"type":"Point","coordinates":[9.166095,48.822252]}},{"type":"Feature","properties":{"SeqNo":"4590","Type":"S","DHID":"de:08111:863","Parent":"de:08111:863","Name":"Stuttgart Theodorstraße","MunicipalityCode":"08111000","Municipality":"Stuttgart","DistrictCode":"","District":"","Description":"","Authority":"NVBW","DelfiName":"-","THID":"D91FAF00035F","LastOperationDate":"1999-12-31T00:00:00","SEV":"nein","longitude":"9,167523","latitude":"48,821336","geojson_lng":9.167523,"geojson_lat":48.821336},"geometry":{"type":"Point","coordinates":[9.167523,48.821336]}}]}