{"type":"FeatureCollection","features":[{"type":"Feature","properties":{"SeqNo":"619","Type":"Q","DHID":"de:08111:163:2:5","Parent":"de:08111:163:2","Name":"Ersatzhst. Ein-/Ausstieg","MunicipalityCode":"00000000","Municipality":"-","DistrictCode":"-","District":"-","Description":"","Authority":"NVBW","DelfiName":"-","THID":"-","LastOperationDate":"","SEV":"nein","longitude":"9,17312","latitude":"48,75506","geojson_lng":9.17312,"geojson_lat":48.75506},"geometry":{"type":"Point","coordinates":[9.17312,48.75506]}},{"type":"Feature","properties":{"SeqNo":"621","Type":"S","DHID":"de:08111:164","Parent":"de:08111:164","Name":"Karl-Pfaff-Straße","MunicipalityCode":"08111000","Municipality":"Stuttgart","DistrictCode":"","District":"","Description":"","Authority":"NVBW","DelfiName":"-","THID":"D91FAF0000A4","LastOperationDate":"2025-02-28T00:00:00","SEV":"nein","longitude":"9,172185","latitude":"48,752229","geojson_lng":9.172185,"geojson_lat":48.752229},"geometry":{"type":"Point","coordinates":[9.172185,48.752229]}},{"type":"Feature","properties":{"SeqNo":"622","Type":"Q","DHID":"de:08111:164:0:3","Parent":"de:08111:164","Name":"Nachtbus Rtg Degerloch (B27)","MunicipalityCode":"00000000","Municipality":"-","DistrictCode":"-","District":"-","Description":"","Authority":"NVBW","DelfiName":"-","THID":"-","LastOperationDate":"","SEV":"nein","longitude":"9,172185","latitude":"48,752241","geojson_lng":9.172185,"geojson_lat":48.752241},"geometry":{"type":"Point","coordinates":[9.172185,48.752241]}},{"type":"Feature","properties":{"SeqNo":"623","Type":"Q","DHID":"de:08111:164:0:4","Parent":"de:08111:164","Name":"Nachtbus Rtg Weinsteige","MunicipalityCode":"00000000","Municipality":"-","DistrictCode":"-","District":"-","Description":"","Authority":"NVBW","DelfiName":"-","THID":"-","LastOperationDate":"","SEV":"nein","longitude":"9,172383","latitude":"48,752229","geojson_lng":9.172383,"geojson_lat":48.752229},"geometry":{"type":"Point","coordinates":[9.172383,48.752229]}},{"type":"Feature","properties":{"SeqNo":"624","Type":"S","DHID":"de:08111:165","Parent":"de:08111:165","Name":"Haigst","MunicipalityCode":"08111000","Municipality":"Stuttgart","DistrictCode":"","District":"","Description":"","Authority":"NVBW","DelfiName":"-","THID":"D91FAF0000A5","LastOperationDate":"2025-02-28T00:00:00","SEV":"nein","longitude":"9,172257","latitude":"48,755066","geojson_lng":9.172257,"geojson_lat":48.755066},"geometry":{"type":"Point","coordinates":[9.172257,48.755066]}},{"type":"Feature","properties":{"SeqNo":"625","Type":"A","DHID":"de:08111:165:1","Parent":"de:08111:165","Name":"Zahnradb","MunicipalityCode":"00000000","Municipality":"-","DistrictCode":"-","District":"-","Description":"","Authority":"NVBW","DelfiName":"-","THID":"-","LastOperationDate":"","SEV":"nein","longitude":"9,172257","latitude":"48,755072","geojson_lng":9.172257,"geojson_lat":48.755072},"geometry":{"type":"Point","coordinates":[9.172257,48.755072]}},{"type":"Feature","properties":{"SeqNo":"626","Type":"Q","DHID":"de:08111:165:1:1","Parent":"de:08111:165:1","Name":"Rtg Nägelestraße","MunicipalityCode":"00000000","Municipality":"-","DistrictCode":"-","District":"-","Description":"","Authority":"NVBW","DelfiName":"-","THID":"-","LastOperationDate":"","SEV":"nein","longitude":"9,172239","latitude":"48,75509","geojson_lng":9.172239,"geojson_lat":48.75509},"geometry":{"type":"Point","coordinates":[9.172239,48.75509]}},{"type":"Feature","properties":{"SeqNo":"627","Type":"Q","DHID":"de:08111:165:1:2","Parent":"de:08111:165:1","Name":"Rtg Wielandshöhe","MunicipalityCode":"00000000","Municipality":"-","DistrictCode":"-","District":"-","Description":"","Authority":"NVBW","DelfiName":"-","THID":"-","LastOperationDate":"","SEV":"nein","longitude":"9,172257","latitude":"48,755084","geojson_lng":9.172257,"geojson_lat":48.755084},"geometry":{"type":"Point","coordinates":[9.172257,48.755084]}},{"type":"Feature","properties":{"SeqNo":"628","Type":"Q","DHID":"de:08111:165:1:3","Parent":"de:08111:165:1","Name":"Linientaxi","MunicipalityCode":"00000000","Municipality":"-","DistrictCode":"-","District":"-","Description":"","Authority":"NVBW","DelfiName":"-","THID":"-","LastOperationDate":"","SEV":"nein","longitude":"9,172473","latitude":"48,755404","geojson_lng":9.172473,"geojson_lat":48.755404},"geometry":{"type":"Point","coordinates":[9.172473,48.755404]}},{"type":"Feature","properties":{"SeqNo":"629","Type":"Q","DHID":"de:08111:165:1:4","Parent":"de:08111:165:1","Name":"Zacke-Bus Rtg. Marienplatz","MunicipalityCode":"00000000","Municipality":"-","DistrictCode":"-","District":"-","Description":"","Authority":"NVBW","DelfiName":"-","THID":"-","LastOperationDate":"","SEV":"nein","longitude":"9,172733","latitude":"48,755208","geojson_lng":9.172733,"geojson_lat":48.755208},"geometry":{"type":"Point","coordinates":[9.172733,48.755208]}},{"type":"Feature","properties":{"SeqNo":"630","Type":"Q","DHID":"de:08111:165:1:Z1","Parent":"de:08111:165:1","Name":"Zugang Zacke West","MunicipalityCode":"00000000","Municipality":"-","DistrictCode":"-","District":"-","Description":"","Authority":"NVBW","DelfiName":"-","THID":"-","LastOperationDate":"","SEV":"nein","longitude":"9,172419","latitude":"48,755126","geojson_lng":9.172419,"geojson_lat":48.755126},"geometry":{"type":"Point","coordinates":[9.172419,48.755126]}},{"type":"Feature","properties":{"SeqNo":"631","Type":"Q","DHID":"de:08111:165:1:Z2","Parent":"de:08111:165:1","Name":"Zugang Zacke Ost","MunicipalityCode":"00000000","Municipality":"-","DistrictCode":"-","District":"-","Description":"","Authority":"NVBW","DelfiName":"-","THID":"-","LastOperationDate":"","SEV":"nein","longitude":"9,172248","latitude":"48,7549","geojson_lng":9.172248,"geojson_lat":48.7549},"geometry":{"type":"Point","coordinates":[9.172248,48.7549]}},{"type":"Feature","properties":{"SeqNo":"2315","Type":"S","DHID":"de:08111:341","Parent":"de:08111:341","Name":"Nägelestraße","MunicipalityCode":"08111000","Municipality":"Stuttgart","DistrictCode":"-","District":"-","Description":"","Authority":"NVBW","DelfiName":"-","THID":"D91FAF000155","LastOperationDate":"2025-02-28T00:00:00","SEV":"nein","longitude":"9,173578","latitude":"48,751489","geojson_lng":9.173578,"geojson_lat":48.751489},"geometry":{"type":"Point","coordinates":[9.173578,48.751489]}},{"type":"Feature","properties":{"SeqNo":"2316","Type":"Q","DHID":"de:08111:341:0:1","Parent":"de:08111:341","Name":"Rtg Zahnradbahnhof","MunicipalityCode":"00000000","Municipality":"-","DistrictCode":"-","District":"-","Description":"Rtg Zahnradbahnhof","Authority":"NVBW","DelfiName":"-","THID":"-","LastOperationDate":"","SEV":"nein","longitude":"9,173578","latitude":"48,751489","geojson_lng":9.173578,"geojson_lat":48.751489},"geometry":{"type":"Point","coordinates":[9.173578,48.751489]}},{"type":"Feature","properties":{"SeqNo":"2317","Type":"Q","DHID":"de:08111:341:0:2","Parent":"de:08111:341","Name":"Rtg Haigst","MunicipalityCode":"00000000","Municipality":"-","DistrictCode":"-","District":"-","Description":"Rtg Haigst","Authority":"NVBW","DelfiName":"-","THID":"-","LastOperationDate":"","SEV":"nein","longitude":"9,173578","latitude":"48,751489","geojson_lng":9.173578,"geojson_lat":48.751489},"geometry":{"type":"Point","coordinates":[9.173578,48.751489]}},{"type":"Feature","properties":{"SeqNo":"2318","Type":"Q","DHID":"de:08111:341:0:Z1","Parent":"de:08111:341","Name":"Zugang Zacke","MunicipalityCode":"00000000","Municipality":"-","DistrictCode":"-","District":"-","Description":"Zugang Zacke","Authority":"NVBW","DelfiName":"-","THID":"-","LastOperationDate":"","SEV":"nein","longitude":"9,173694","latitude":"48,751483","geojson_lng":9.173694,"geojson_lat":48.751483},"geometry":{"type":"Point","coordinates":[9.173694,48.751483]}},{"type":"Feature","properties":{"SeqNo":"3692","Type":"A","DHID":"de:08111:6165:2","Parent":"de:08111:6165","Name":"Bus Hohe Eiche","MunicipalityCode":"00000000","Municipality":"-","DistrictCode":"-","District":"-","Description":"","Authority":"NVBW","DelfiName":"-","THID":"-","LastOperationDate":"","SEV":"nein","longitude":"9,169005","latitude":"48,749161","geojson_lng":9.169005,"geojson_lat":48.749161},"geometry":{"type":"Point","coordinates":[9.169005,48.749161]}},{"type":"Feature","properties":{"SeqNo":"3693","Type":"A","DHID":"de:08111:6165:3","Parent":"de:08111:6165","Name":"Bus Stadtmitte","MunicipalityCode":"00000000","Municipality":"-","DistrictCode":"-","District":"-","Description":"","Authority":"NVBW","DelfiName":"-","THID":"-","LastOperationDate":"","SEV":"nein","longitude":"9,168915","latitude":"48,748901","geojson_lng":9.168915,"geojson_lat":48.748901},"geometry":{"type":"Point","coordinates":[9.168915,48.748901]}},{"type":"Feature","properties":{"SeqNo":"3694","Type":"A","DHID":"de:08111:6165:4","Parent":"de:08111:6165","Name":"Zacke","MunicipalityCode":"00000000","Municipality":"-","DistrictCode":"-","District":"-","Description":"","Authority":"NVBW","DelfiName":"-","THID":"-","LastOperationDate":"","SEV":"nein","longitude":"9,169032","latitude":"48,748936","geojson_lng":9.169032,"geojson_lat":48.748936},"geometry":{"type":"Point","coordinates":[9.169032,48.748936]}},{"type":"Feature","properties":{"SeqNo":"3695","Type":"A","DHID":"de:08111:6165:80","Parent":"de:08111:6165","Name":"Unterführung","MunicipalityCode":"00000000","Municipality":"-","DistrictCode":"-","District":"-","Description":"","Authority":"NVBW","DelfiName":"-","THID":"-","LastOperationDate":"","SEV":"nein","longitude":"9,169401","latitude":"48,74909","geojson_lng":9.169401,"geojson_lat":48.74909},"geometry":{"type":"Point","coordinates":[9.169401,48.74909]}},{"type":"Feature","properties":{"SeqNo":"3696","Type":"A","DHID":"de:08111:6165:90","Parent":"de:08111:6165","Name":"Zug. Josefstr.","MunicipalityCode":"00000000","Municipality":"-","DistrictCode":"-","District":"-","Description":"","Authority":"NVBW","DelfiName":"-","THID":"-","LastOperationDate":"","SEV":"nein","longitude":"9,169203","latitude":"48,749268","geojson_lng":9.169203,"geojson_lat":48.749268},"geometry":{"type":"Point","coordinates":[9.169203,48.749268]}},{"type":"Feature","properties":{"SeqNo":"3697","Type":"A","DHID":"de:08111:6165:91","Parent":"de:08111:6165","Name":"Zug. Epplestr.","MunicipalityCode":"00000000","Municipality":"-","DistrictCode":"-","District":"-","Description":"","Authority":"NVBW","DelfiName":"-","THID":"-","LastOperationDate":"","SEV":"nein","longitude":"9,169652","latitude":"48,748995","geojson_lng":9.169652,"geojson_lat":48.748995},"geometry":{"type":"Point","coordinates":[9.169652,48.748995]}},{"type":"Feature","properties":{"SeqNo":"3703","Type":"Q","DHID":"de:08111:6165:2:3","Parent":"de:08111:6165:2","Name":"Linien 78 / 809 Abfahrt","MunicipalityCode":"00000000","Municipality":"-","DistrictCode":"-","District":"-","Description":"","Authority":"NVBW","DelfiName":"-","THID":"-","LastOperationDate":"","SEV":"nein","longitude":"9,169014","latitude":"48,749167","geojson_lng":9.169014,"geojson_lat":48.749167},"geometry":{"type":"Point","coordinates":[9.169014,48.749167]}},{"type":"Feature","properties":{"SeqNo":"3704","Type":"Q","DHID":"de:08111:6165:3:4","Parent":"de:08111:6165:3","Name":"Linientaxi 10 / N8","MunicipalityCode":"00000000","Municipality":"-","DistrictCode":"-","District":"-","Description":"","Authority":"NVBW","DelfiName":"-","THID":"-","LastOperationDate":"","SEV":"nein","longitude":"9,168915","latitude":"48,748901","geojson_lng":9.168915,"geojson_lat":48.748901},"geometry":{"type":"Point","coordinates":[9.168915,48.748901]}},{"type":"Feature","properties":{"SeqNo":"3705","Type":"Q","DHID":"de:08111:6165:1:7","Parent":"de:08111:6165:4","Name":"Zahnradbahn Endhst.","MunicipalityCode":"00000000","Municipality":"-","DistrictCode":"-","District":"-","Description":"","Authority":"NVBW","DelfiName":"-","THID":"-","LastOperationDate":"","SEV":"nein","longitude":"9,169059","latitude":"48,748942","geojson_lng":9.169059,"geojson_lat":48.748942},"geometry":{"type":"Point","coordinates":[9.169059,48.748942]}},{"type":"Feature","properties":{"SeqNo":"4235","Type":"S","DHID":"de:08111:6340","Parent":"de:08111:6340","Name":"Zahnradbahnhof","MunicipalityCode":"08111000","Municipality":"Stuttgart","DistrictCode":"-","District":"-","Description":"","Authority":"NVBW","DelfiName":"-","THID":"D91FAF0018C4","LastOperationDate":"2025-02-28T00:00:00","SEV":"nein","longitude":"9,172087","latitude":"48,750062","geojson_lng":9.172087,"geojson_lat":48.750062},"geometry":{"type":"Point","coordinates":[9.172087,48.750062]}},{"type":"Feature","properties":{"SeqNo":"4236","Type":"Q","DHID":"de:08111:6340:0:1","Parent":"de:08111:6340","Name":"Rtg Degerloch","MunicipalityCode":"00000000","Municipality":"-","DistrictCode":"-","District":"-","Description":"Rtg Degerloch","Authority":"NVBW","DelfiName":"-","THID":"-","LastOperationDate":"","SEV":"nein","longitude":"9,172087","latitude":"48,750062","geojson_lng":9.172087,"geojson_lat":48.750062},"geometry":{"type":"Point","coordinates":[9.172087,48.750062]}},{"type":"Feature","properties":{"SeqNo":"4237","Type":"Q","DHID":"de:08111:6340:0:2","Parent":"de:08111:6340","Name":"Rtg Nägelestr.","MunicipalityCode":"00000000","Municipality":"-","DistrictCode":"-","District":"-","Description":"Rtg Nägelestr.","Authority":"NVBW","DelfiName":"-","THID":"-","LastOperationDate":"","SEV":"nein","longitude":"9,172087","latitude":"48,750062","geojson_lng":9.172087,"geojson_lat":48.750062},"geometry":{"type":"Point","coordinates":[9.172087,48.750062]}},{"type":"Feature","properties":{"SeqNo":"4238","Type":"Q","DHID":"de:08111:6340:0:3","Parent":"de:08111:6340","Name":"Linien 70/71 Rtg Königsträßle","MunicipalityCode":"00000000","Municipality":"-","DistrictCode":"-","District":"-","Description":"Linien 70/71 Rtg Königsträßle","Authority":"NVBW","DelfiName":"-","THID":"-","LastOperationDate":"","SEV":"nein","longitude":"9,171988","latitude":"48,750103","geojson_lng":9.171988,"geojson_lat":48.750103},"geometry":{"type":"Point","coordinates":[9.171988,48.750103]}},{"type":"Feature","properties":{"SeqNo":"4239","Type":"Q","DHID":"de:08111:6340:0:4","Parent":"de:08111:6340","Name":"Linie 70 Rtg Degerloch ZOB","MunicipalityCode":"00000000","Municipality":"-","DistrictCode":"-","District":"-","Description":"Linie 70 Rtg Degerloch ZOB","Authority":"NVBW","DelfiName":"-","THID":"-","LastOperationDate":"","SEV":"nein","longitude":"9,172428","latitude":"48,750251","geojson_lng":9.172428,"geojson_lat":48.750251},"geometry":{"type":"Point","coordinates":[9.172428,48.750251]}},{"type":"Feature","properties":{"SeqNo":"4240","Type":"Q","DHID":"de:08111:6340:0:Z1","Parent":"de:08111:6340","Name":"Zugang Zacke","MunicipalityCode":"00000000","Municipality":"-","DistrictCode":"-","District":"-","Description":"Zugang Zacke","Authority":"NVBW","DelfiName":"-","THID":"-","LastOperationDate":"","SEV":"nein","longitude":"9,171898","latitude":"48,750062","geojson_lng":9.171898,"geojson_lat":48.750062},"geometry":{"type":"Point","coordinates":[9.171898,48.750062]}}]}