{"type":"FeatureCollection","features":[{"type":"Feature","properties":{"SeqNo":"79823","Type":"S","DHID":"de:08417:30267","Parent":"de:08417:30267","Name":"Gauselfingen Bahnhof","MunicipalityCode":"08417013","Municipality":"Burladingen","DistrictCode":"","District":"","Description":"","Authority":"NVBW","DelfiName":"-","THID":"D920E100763B","LastOperationDate":"2025-02-28T00:00:00","SEV":"nein","longitude":"9,163544","latitude":"48,276132","geojson_lng":9.163544,"geojson_lat":48.276132},"geometry":{"type":"Point","coordinates":[9.163544,48.276132]}},{"type":"Feature","properties":{"SeqNo":"79824","Type":"A","DHID":"de:08417:30267:1","Parent":"de:08417:30267","Name":"Bus","MunicipalityCode":"00000000","Municipality":"-","DistrictCode":"-","District":"-","Description":"","Authority":"NVBW","DelfiName":"-","THID":"-","LastOperationDate":"","SEV":"nein","longitude":"9,163696","latitude":"48,27624","geojson_lng":9.163696,"geojson_lat":48.27624},"geometry":{"type":"Point","coordinates":[9.163696,48.27624]}},{"type":"Feature","properties":{"SeqNo":"79825","Type":"A","DHID":"de:08417:30267:2","Parent":"de:08417:30267","Name":"Zug","MunicipalityCode":"00000000","Municipality":"-","DistrictCode":"-","District":"-","Description":"","Authority":"NVBW","DelfiName":"-","THID":"-","LastOperationDate":"","SEV":"nein","longitude":"9,163247","latitude":"48,276186","geojson_lng":9.163247,"geojson_lat":48.276186},"geometry":{"type":"Point","coordinates":[9.163247,48.276186]}},{"type":"Feature","properties":{"SeqNo":"79826","Type":"A","DHID":"de:08417:30267:90","Parent":"de:08417:30267","Name":"Eingang","MunicipalityCode":"00000000","Municipality":"-","DistrictCode":"-","District":"-","Description":"","Authority":"NVBW","DelfiName":"-","THID":"-","LastOperationDate":"","SEV":"nein","longitude":"9,163759","latitude":"48,276186","geojson_lng":9.163759,"geojson_lat":48.276186},"geometry":{"type":"Point","coordinates":[9.163759,48.276186]}},{"type":"Feature","properties":{"SeqNo":"79827","Type":"Q","DHID":"de:08417:30267:1:4","Parent":"de:08417:30267:1","Name":"alle Richtungen","MunicipalityCode":"00000000","Municipality":"-","DistrictCode":"-","District":"-","Description":"","Authority":"NVBW","DelfiName":"-","THID":"-","LastOperationDate":"","SEV":"nein","longitude":"9,163669","latitude":"48,276216","geojson_lng":9.163669,"geojson_lat":48.276216},"geometry":{"type":"Point","coordinates":[9.163669,48.276216]}},{"type":"Feature","properties":{"SeqNo":"79828","Type":"Q","DHID":"de:08417:30267:2:2","Parent":"de:08417:30267:2","Name":"Gleis 2 Hechingen","MunicipalityCode":"00000000","Municipality":"-","DistrictCode":"-","District":"-","Description":"","Authority":"NVBW","DelfiName":"-","THID":"-","LastOperationDate":"","SEV":"nein","longitude":"9,163346","latitude":"48,276186","geojson_lng":9.163346,"geojson_lat":48.276186},"geometry":{"type":"Point","coordinates":[9.163346,48.276186]}},{"type":"Feature","properties":{"SeqNo":"79829","Type":"Q","DHID":"de:08417:30267:2:3","Parent":"de:08417:30267:2","Name":"Gleis 3 Gammertingen","MunicipalityCode":"00000000","Municipality":"-","DistrictCode":"-","District":"-","Description":"","Authority":"NVBW","DelfiName":"-","THID":"-","LastOperationDate":"","SEV":"nein","longitude":"9,163211","latitude":"48,276174","geojson_lng":9.163211,"geojson_lat":48.276174},"geometry":{"type":"Point","coordinates":[9.163211,48.276174]}},{"type":"Feature","properties":{"SeqNo":"79833","Type":"S","DHID":"de:08417:30269","Parent":"de:08417:30269","Name":"Gauselfingen Rathaus","MunicipalityCode":"08417013","Municipality":"Burladingen","DistrictCode":"","District":"","Description":"","Authority":"NVBW","DelfiName":"-","THID":"D920E100763D","LastOperationDate":"2025-06-13T00:00:00","SEV":"nein","longitude":"9,166867","latitude":"48,275995","geojson_lng":9.166867,"geojson_lat":48.275995},"geometry":{"type":"Point","coordinates":[9.166867,48.275995]}},{"type":"Feature","properties":{"SeqNo":"79834","Type":"Q","DHID":"de:08417:30269:0:1","Parent":"de:08417:30269","Name":"FR Neufra / Hausen a.d.L.","MunicipalityCode":"00000000","Municipality":"-","DistrictCode":"-","District":"-","Description":"","Authority":"NVBW","DelfiName":"-","THID":"-","LastOperationDate":"","SEV":"nein","longitude":"9,166885","latitude":"48,275881","geojson_lng":9.166885,"geojson_lat":48.275881},"geometry":{"type":"Point","coordinates":[9.166885,48.275881]}},{"type":"Feature","properties":{"SeqNo":"79835","Type":"Q","DHID":"de:08417:30269:0:2","Parent":"de:08417:30269","Name":"FR Burladingen","MunicipalityCode":"00000000","Municipality":"-","DistrictCode":"-","District":"-","Description":"","Authority":"NVBW","DelfiName":"-","THID":"-","LastOperationDate":"","SEV":"nein","longitude":"9,166849","latitude":"48,276115","geojson_lng":9.166849,"geojson_lat":48.276115},"geometry":{"type":"Point","coordinates":[9.166849,48.276115]}}]}