{"type":"FeatureCollection","features":[{"type":"Feature","properties":{"SeqNo":"57109","Type":"S","DHID":"de:08316:27931","Parent":"de:08316:27931","Name":"Unterreute Sick","MunicipalityCode":"08316036","Municipality":"Reute","DistrictCode":"-","District":"-","Description":"","Authority":"NVBW","DelfiName":"-","THID":"D9207C006D1B","LastOperationDate":"2025-06-14T00:00:00","SEV":"nein","longitude":"7,811256","latitude":"48,083623","geojson_lng":7.811256,"geojson_lat":48.083623},"geometry":{"type":"Point","coordinates":[7.811256,48.083623]}},{"type":"Feature","properties":{"SeqNo":"57110","Type":"Q","DHID":"de:08316:27931:0:1","Parent":"de:08316:27931","Name":"Unterreute Sick_01","MunicipalityCode":"00000000","Municipality":"-","DistrictCode":"-","District":"-","Description":"","Authority":"NVBW","DelfiName":"-","THID":"-","LastOperationDate":"","SEV":"nein","longitude":"7,811256","latitude":"48,083629","geojson_lng":7.811256,"geojson_lat":48.083629},"geometry":{"type":"Point","coordinates":[7.811256,48.083629]}},{"type":"Feature","properties":{"SeqNo":"57440","Type":"S","DHID":"de:08316:5029","Parent":"de:08316:5029","Name":"Unterreute Alte Schule","MunicipalityCode":"08316036","Municipality":"Reute","DistrictCode":"-","District":"-","Description":"","Authority":"NVBW","DelfiName":"-","THID":"D9207C0013A5","LastOperationDate":"2025-06-14T00:00:00","SEV":"nein","longitude":"7,811372","latitude":"48,079926","geojson_lng":7.811372,"geojson_lat":48.079926},"geometry":{"type":"Point","coordinates":[7.811372,48.079926]}},{"type":"Feature","properties":{"SeqNo":"57441","Type":"Q","DHID":"de:08316:5029:0:1","Parent":"de:08316:5029","Name":"Unterreute Alte Schule_01","MunicipalityCode":"00000000","Municipality":"-","DistrictCode":"-","District":"-","Description":"","Authority":"NVBW","DelfiName":"-","THID":"-","LastOperationDate":"","SEV":"nein","longitude":"7,811363","latitude":"48,079932","geojson_lng":7.811363,"geojson_lat":48.079932},"geometry":{"type":"Point","coordinates":[7.811363,48.079932]}},{"type":"Feature","properties":{"SeqNo":"57442","Type":"S","DHID":"de:08316:5030","Parent":"de:08316:5030","Name":"Unterreute Friedhof","MunicipalityCode":"08316036","Municipality":"Reute","DistrictCode":"-","District":"-","Description":"","Authority":"NVBW","DelfiName":"-","THID":"D9207C0013A6","LastOperationDate":"2025-06-14T00:00:00","SEV":"nein","longitude":"7,812522","latitude":"48,083467","geojson_lng":7.812522,"geojson_lat":48.083467},"geometry":{"type":"Point","coordinates":[7.812522,48.083467]}},{"type":"Feature","properties":{"SeqNo":"57443","Type":"Q","DHID":"de:08316:5030:0:1","Parent":"de:08316:5030","Name":"Ri. Nordwesten (Bottingen)","MunicipalityCode":"00000000","Municipality":"-","DistrictCode":"-","District":"-","Description":"","Authority":"NVBW","DelfiName":"-","THID":"-","LastOperationDate":"","SEV":"nein","longitude":"7,812379","latitude":"48,083521","geojson_lng":7.812379,"geojson_lat":48.083521},"geometry":{"type":"Point","coordinates":[7.812379,48.083521]}},{"type":"Feature","properties":{"SeqNo":"57444","Type":"Q","DHID":"de:08316:5030:0:2","Parent":"de:08316:5030","Name":"Ri. Südosten (Reute)","MunicipalityCode":"00000000","Municipality":"-","DistrictCode":"-","District":"-","Description":"","Authority":"NVBW","DelfiName":"-","THID":"-","LastOperationDate":"","SEV":"nein","longitude":"7,812711","latitude":"48,083419","geojson_lng":7.812711,"geojson_lat":48.083419},"geometry":{"type":"Point","coordinates":[7.812711,48.083419]}},{"type":"Feature","properties":{"SeqNo":"57445","Type":"S","DHID":"de:08316:5031","Parent":"de:08316:5031","Name":"Oberreute Rathaus","MunicipalityCode":"08316036","Municipality":"Reute","DistrictCode":"-","District":"-","Description":"","Authority":"NVBW","DelfiName":"-","THID":"D9207C0013A7","LastOperationDate":"2025-06-14T00:00:00","SEV":"nein","longitude":"7,82058","latitude":"48,082657","geojson_lng":7.82058,"geojson_lat":48.082657},"geometry":{"type":"Point","coordinates":[7.82058,48.082657]}},{"type":"Feature","properties":{"SeqNo":"57446","Type":"Q","DHID":"de:08316:5031:0:1","Parent":"de:08316:5031","Name":"Ri. Nordwesten (Bottingen)","MunicipalityCode":"00000000","Municipality":"-","DistrictCode":"-","District":"-","Description":"","Authority":"NVBW","DelfiName":"-","THID":"-","LastOperationDate":"","SEV":"nein","longitude":"7,820571","latitude":"48,082681","geojson_lng":7.820571,"geojson_lat":48.082681},"geometry":{"type":"Point","coordinates":[7.820571,48.082681]}},{"type":"Feature","properties":{"SeqNo":"57447","Type":"Q","DHID":"de:08316:5031:0:2","Parent":"de:08316:5031","Name":"Ri. Südosten (Emmendingen)","MunicipalityCode":"00000000","Municipality":"-","DistrictCode":"-","District":"-","Description":"","Authority":"NVBW","DelfiName":"-","THID":"-","LastOperationDate":"","SEV":"nein","longitude":"7,820553","latitude":"48,082639","geojson_lng":7.820553,"geojson_lat":48.082639},"geometry":{"type":"Point","coordinates":[7.820553,48.082639]}},{"type":"Feature","properties":{"SeqNo":"57534","Type":"S","DHID":"de:08316:5098","Parent":"de:08316:5098","Name":"Unterreute Kronengasse","MunicipalityCode":"08316036","Municipality":"Reute","DistrictCode":"-","District":"-","Description":"","Authority":"NVBW","DelfiName":"-","THID":"D9207C0013EA","LastOperationDate":"2025-06-14T00:00:00","SEV":"nein","longitude":"7,811202","latitude":"48,081144","geojson_lng":7.811202,"geojson_lat":48.081144},"geometry":{"type":"Point","coordinates":[7.811202,48.081144]}},{"type":"Feature","properties":{"SeqNo":"57535","Type":"Q","DHID":"de:08316:5098:0:1","Parent":"de:08316:5098","Name":"Unterreute Kronengasse_01","MunicipalityCode":"00000000","Municipality":"-","DistrictCode":"-","District":"-","Description":"","Authority":"NVBW","DelfiName":"-","THID":"-","LastOperationDate":"","SEV":"nein","longitude":"7,811372","latitude":"48,081072","geojson_lng":7.811372,"geojson_lat":48.081072},"geometry":{"type":"Point","coordinates":[7.811372,48.081072]}}]}