{"type":"FeatureCollection","features":[{"type":"Feature","properties":{"SeqNo":"674802","Type":"S","DHID":"de:05913:1115","Parent":"de:05913:1115","Name":"Dortmund Dessauerstraße","Latitude":"51,494659","Longitude":"7,493656","MunicipalityCode":"05913000","Municipality":"Dortmund","DistrictCode":"","District":"","Description":"","Authority":"VRR","DelfiName":"-","THID":"D9171900045B","TariffProvider":"-","LastOperationDate":"2025-12-13T00:00:00","SEV":"nein","geojson_lng":7.493656,"geojson_lat":51.494659},"geometry":{"type":"Point","coordinates":[7.493656,51.494659]}},{"type":"Feature","properties":{"SeqNo":"674803","Type":"A","DHID":"de:05913:1115:1","Parent":"de:05913:1115","Name":"1","Latitude":"51,494653","Longitude":"7,493665","MunicipalityCode":"00000000","Municipality":"-","DistrictCode":"-","District":"-","Description":"","Authority":"VRR","DelfiName":"-","THID":"-","TariffProvider":"-","LastOperationDate":"","SEV":"nein","geojson_lng":7.493665,"geojson_lat":51.494653},"geometry":{"type":"Point","coordinates":[7.493665,51.494653]}},{"type":"Feature","properties":{"SeqNo":"674804","Type":"Q","DHID":"de:05913:1115:1:01","Parent":"de:05913:1115:1","Name":"Steig 1","Latitude":"51,494698","Longitude":"7,493656","MunicipalityCode":"00000000","Municipality":"-","DistrictCode":"-","District":"-","Description":"","Authority":"VRR","DelfiName":"-","THID":"-","TariffProvider":"-","LastOperationDate":"","SEV":"nein","geojson_lng":7.493656,"geojson_lat":51.494698},"geometry":{"type":"Point","coordinates":[7.493656,51.494698]}},{"type":"Feature","properties":{"SeqNo":"674805","Type":"Q","DHID":"de:05913:1115:1:02","Parent":"de:05913:1115:1","Name":"Steig 2","Latitude":"51,494603","Longitude":"7,493683","MunicipalityCode":"00000000","Municipality":"-","DistrictCode":"-","District":"-","Description":"","Authority":"VRR","DelfiName":"-","THID":"-","TariffProvider":"-","LastOperationDate":"","SEV":"nein","geojson_lng":7.493683,"geojson_lat":51.494603},"geometry":{"type":"Point","coordinates":[7.493683,51.494603]}},{"type":"Feature","properties":{"SeqNo":"675470","Type":"S","DHID":"de:05913:1267","Parent":"de:05913:1267","Name":"Dortmund Hörder Burg","Latitude":"51,490755","Longitude":"7,502954","MunicipalityCode":"05913000","Municipality":"Dortmund","DistrictCode":"05913","District":"","Description":"","Authority":"VRR","DelfiName":"-","THID":"D917190004F3","TariffProvider":"-","LastOperationDate":"2025-12-13T00:00:00","SEV":"nein","geojson_lng":7.502954,"geojson_lat":51.490755},"geometry":{"type":"Point","coordinates":[7.502954,51.490755]}},{"type":"Feature","properties":{"SeqNo":"675471","Type":"A","DHID":"de:05913:1267:1","Parent":"de:05913:1267","Name":"1","Latitude":"51,490755","Longitude":"7,502972","MunicipalityCode":"00000000","Municipality":"-","DistrictCode":"-","District":"-","Description":"","Authority":"VRR","DelfiName":"-","THID":"-","TariffProvider":"-","LastOperationDate":"","SEV":"nein","geojson_lng":7.502972,"geojson_lat":51.490755},"geometry":{"type":"Point","coordinates":[7.502972,51.490755]}},{"type":"Feature","properties":{"SeqNo":"675472","Type":"Q","DHID":"de:05913:1267:1:01","Parent":"de:05913:1267:1","Name":"Steig 1","Latitude":"51,490654","Longitude":"7,502873","MunicipalityCode":"00000000","Municipality":"-","DistrictCode":"-","District":"-","Description":"","Authority":"VRR","DelfiName":"-","THID":"-","TariffProvider":"-","LastOperationDate":"","SEV":"nein","geojson_lng":7.502873,"geojson_lat":51.490654},"geometry":{"type":"Point","coordinates":[7.502873,51.490654]}},{"type":"Feature","properties":{"SeqNo":"675473","Type":"Q","DHID":"de:05913:1267:1:02","Parent":"de:05913:1267:1","Name":"Steig 2","Latitude":"51,490951","Longitude":"7,503089","MunicipalityCode":"00000000","Municipality":"-","DistrictCode":"-","District":"-","Description":"","Authority":"VRR","DelfiName":"-","THID":"-","TariffProvider":"-","LastOperationDate":"","SEV":"nein","geojson_lng":7.503089,"geojson_lat":51.490951},"geometry":{"type":"Point","coordinates":[7.503089,51.490951]}},{"type":"Feature","properties":{"SeqNo":"675903","Type":"S","DHID":"de:05913:1337","Parent":"de:05913:1337","Name":"Dortmund Winzerweg","Latitude":"51,49434","Longitude":"7,503313","MunicipalityCode":"05913000","Municipality":"Dortmund","DistrictCode":"05913","District":"","Description":"","Authority":"VRR","DelfiName":"-","THID":"D91719000539","TariffProvider":"-","LastOperationDate":"2025-12-13T00:00:00","SEV":"nein","geojson_lng":7.503313,"geojson_lat":51.49434},"geometry":{"type":"Point","coordinates":[7.503313,51.49434]}},{"type":"Feature","properties":{"SeqNo":"675904","Type":"A","DHID":"de:05913:1337:1","Parent":"de:05913:1337","Name":"1","Latitude":"51,494329","Longitude":"7,503304","MunicipalityCode":"00000000","Municipality":"-","DistrictCode":"-","District":"-","Description":"","Authority":"VRR","DelfiName":"-","THID":"-","TariffProvider":"-","LastOperationDate":"","SEV":"nein","geojson_lng":7.503304,"geojson_lat":51.494329},"geometry":{"type":"Point","coordinates":[7.503304,51.494329]}},{"type":"Feature","properties":{"SeqNo":"675905","Type":"Q","DHID":"de:05913:1337:1:01","Parent":"de:05913:1337:1","Name":"Steig 1","Latitude":"51,494357","Longitude":"7,503331","MunicipalityCode":"00000000","Municipality":"-","DistrictCode":"-","District":"-","Description":"","Authority":"VRR","DelfiName":"-","THID":"-","TariffProvider":"-","LastOperationDate":"","SEV":"nein","geojson_lng":7.503331,"geojson_lat":51.494357},"geometry":{"type":"Point","coordinates":[7.503331,51.494357]}},{"type":"Feature","properties":{"SeqNo":"675906","Type":"Q","DHID":"de:05913:1337:1:02","Parent":"de:05913:1337:1","Name":"Steig 2","Latitude":"51,494329","Longitude":"7,503358","MunicipalityCode":"00000000","Municipality":"-","DistrictCode":"-","District":"-","Description":"","Authority":"VRR","DelfiName":"-","THID":"-","TariffProvider":"-","LastOperationDate":"","SEV":"nein","geojson_lng":7.503358,"geojson_lat":51.494329},"geometry":{"type":"Point","coordinates":[7.503358,51.494329]}},{"type":"Feature","properties":{"SeqNo":"676672","Type":"S","DHID":"de:05913:204","Parent":"de:05913:204","Name":"Dortmund Hörder Hafenstraße","Latitude":"51,493451","Longitude":"7,501615","MunicipalityCode":"05913000","Municipality":"Dortmund","DistrictCode":"05913","District":"","Description":"","Authority":"VRR","DelfiName":"-","THID":"D917190000CC","TariffProvider":"-","LastOperationDate":"2025-12-13T00:00:00","SEV":"nein","geojson_lng":7.501615,"geojson_lat":51.493451},"geometry":{"type":"Point","coordinates":[7.501615,51.493451]}},{"type":"Feature","properties":{"SeqNo":"676673","Type":"A","DHID":"de:05913:204:1","Parent":"de:05913:204","Name":"1","Latitude":"51,493428","Longitude":"7,501642","MunicipalityCode":"00000000","Municipality":"-","DistrictCode":"-","District":"-","Description":"","Authority":"VRR","DelfiName":"-","THID":"-","TariffProvider":"-","LastOperationDate":"","SEV":"nein","geojson_lng":7.501642,"geojson_lat":51.493428},"geometry":{"type":"Point","coordinates":[7.501642,51.493428]}},{"type":"Feature","properties":{"SeqNo":"676674","Type":"Q","DHID":"de:05913:204:1:01","Parent":"de:05913:204:1","Name":"Steig 1","Latitude":"51,493439","Longitude":"7,501463","MunicipalityCode":"00000000","Municipality":"-","DistrictCode":"-","District":"-","Description":"","Authority":"VRR","DelfiName":"-","THID":"-","TariffProvider":"-","LastOperationDate":"","SEV":"nein","geojson_lng":7.501463,"geojson_lat":51.493439},"geometry":{"type":"Point","coordinates":[7.501463,51.493439]}},{"type":"Feature","properties":{"SeqNo":"676675","Type":"Q","DHID":"de:05913:204:1:02","Parent":"de:05913:204:1","Name":"Steig 2","Latitude":"51,493423","Longitude":"7,501759","MunicipalityCode":"00000000","Municipality":"-","DistrictCode":"-","District":"-","Description":"","Authority":"VRR","DelfiName":"-","THID":"-","TariffProvider":"-","LastOperationDate":"","SEV":"nein","geojson_lng":7.501759,"geojson_lat":51.493423},"geometry":{"type":"Point","coordinates":[7.501759,51.493423]}},{"type":"Feature","properties":{"SeqNo":"676804","Type":"S","DHID":"de:05913:228","Parent":"de:05913:228","Name":"Dortmund Hörde Bf","Latitude":"51,488187","Longitude":"7,499918","MunicipalityCode":"05913000","Municipality":"Dortmund","DistrictCode":"","District":"","Description":"","Authority":"VRR","DelfiName":"-","THID":"D917190000E4","TariffProvider":"-","LastOperationDate":"2025-12-13T00:00:00","SEV":"nein","geojson_lng":7.499918,"geojson_lat":51.488187},"geometry":{"type":"Point","coordinates":[7.499918,51.488187]}},{"type":"Feature","properties":{"SeqNo":"676805","Type":"A","DHID":"de:05913:228:1","Parent":"de:05913:228","Name":"1","Latitude":"51,488232","Longitude":"7,49998","MunicipalityCode":"00000000","Municipality":"-","DistrictCode":"-","District":"-","Description":"","Authority":"VRR","DelfiName":"-","THID":"-","TariffProvider":"-","LastOperationDate":"","SEV":"nein","geojson_lng":7.49998,"geojson_lat":51.488232},"geometry":{"type":"Point","coordinates":[7.49998,51.488232]}},{"type":"Feature","properties":{"SeqNo":"676806","Type":"A","DHID":"de:05913:228:2","Parent":"de:05913:228","Name":"2","Latitude":"51,488372","Longitude":"7,499864","MunicipalityCode":"00000000","Municipality":"-","DistrictCode":"-","District":"-","Description":"","Authority":"VRR","DelfiName":"-","THID":"-","TariffProvider":"-","LastOperationDate":"","SEV":"nein","geojson_lng":7.499864,"geojson_lat":51.488372},"geometry":{"type":"Point","coordinates":[7.499864,51.488372]}},{"type":"Feature","properties":{"SeqNo":"676807","Type":"A","DHID":"de:05913:228:21","Parent":"de:05913:228","Name":"21","Latitude":"51,488534","Longitude":"7,500573","MunicipalityCode":"00000000","Municipality":"-","DistrictCode":"-","District":"-","Description":"","Authority":"VRR","DelfiName":"-","THID":"-","TariffProvider":"-","LastOperationDate":"","SEV":"nein","geojson_lng":7.500573,"geojson_lat":51.488534},"geometry":{"type":"Point","coordinates":[7.500573,51.488534]}},{"type":"Feature","properties":{"SeqNo":"676809","Type":"A","DHID":"de:05913:228:30","Parent":"de:05913:228","Name":"Aufzug Schlanke M","Latitude":"51,488926","Longitude":"7,500385","MunicipalityCode":"00000000","Municipality":"-","DistrictCode":"-","District":"-","Description":"","Authority":"VRR","DelfiName":"-","THID":"-","TariffProvider":"-","LastOperationDate":"","SEV":"nein","geojson_lng":7.500385,"geojson_lat":51.488926},"geometry":{"type":"Point","coordinates":[7.500385,51.488926]}},{"type":"Feature","properties":{"SeqNo":"676810","Type":"A","DHID":"de:05913:228:32","Parent":"de:05913:228","Name":"Aufzug Bruecke","Latitude":"51,48812","Longitude":"7,500789","MunicipalityCode":"00000000","Municipality":"-","DistrictCode":"-","District":"-","Description":"","Authority":"VRR","DelfiName":"-","THID":"-","TariffProvider":"-","LastOperationDate":"","SEV":"nein","geojson_lng":7.500789,"geojson_lat":51.48812},"geometry":{"type":"Point","coordinates":[7.500789,51.48812]}},{"type":"Feature","properties":{"SeqNo":"676811","Type":"A","DHID":"de:05913:228:4","Parent":"de:05913:228","Name":"4","Latitude":"51,488238","Longitude":"7,501049","MunicipalityCode":"00000000","Municipality":"-","DistrictCode":"-","District":"-","Description":"","Authority":"VRR","DelfiName":"-","THID":"-","TariffProvider":"-","LastOperationDate":"","SEV":"nein","geojson_lng":7.501049,"geojson_lat":51.488238},"geometry":{"type":"Point","coordinates":[7.501049,51.488238]}},{"type":"Feature","properties":{"SeqNo":"676812","Type":"A","DHID":"de:05913:228:5","Parent":"de:05913:228","Name":"5","Latitude":"51,48845","Longitude":"7,498265","MunicipalityCode":"00000000","Municipality":"-","DistrictCode":"-","District":"-","Description":"","Authority":"VRR","DelfiName":"-","THID":"-","TariffProvider":"-","LastOperationDate":"","SEV":"nein","geojson_lng":7.498265,"geojson_lat":51.48845},"geometry":{"type":"Point","coordinates":[7.498265,51.48845]}},{"type":"Feature","properties":{"SeqNo":"676814","Type":"A","DHID":"de:05913:228:71","Parent":"de:05913:228","Name":"ZugangSchlankeMat","Latitude":"51,488998","Longitude":"7,500816","MunicipalityCode":"00000000","Municipality":"-","DistrictCode":"-","District":"-","Description":"","Authority":"VRR","DelfiName":"-","THID":"-","TariffProvider":"-","LastOperationDate":"","SEV":"nein","geojson_lng":7.500816,"geojson_lat":51.488998},"geometry":{"type":"Point","coordinates":[7.500816,51.488998]}},{"type":"Feature","properties":{"SeqNo":"676815","Type":"A","DHID":"de:05913:228:72","Parent":"de:05913:228","Name":"ZugangStadtgrt.","Latitude":"51,488243","Longitude":"7,501337","MunicipalityCode":"00000000","Municipality":"-","DistrictCode":"-","District":"-","Description":"","Authority":"VRR","DelfiName":"-","THID":"-","TariffProvider":"-","LastOperationDate":"","SEV":"nein","geojson_lng":7.501337,"geojson_lat":51.488243},"geometry":{"type":"Point","coordinates":[7.501337,51.488243]}},{"type":"Feature","properties":{"SeqNo":"676816","Type":"A","DHID":"de:05913:228:73","Parent":"de:05913:228","Name":"ZugangSparkasse","Latitude":"51,48835","Longitude":"7,500223","MunicipalityCode":"00000000","Municipality":"-","DistrictCode":"-","District":"-","Description":"","Authority":"VRR","DelfiName":"-","THID":"-","TariffProvider":"-","LastOperationDate":"","SEV":"nein","geojson_lng":7.500223,"geojson_lat":51.48835},"geometry":{"type":"Point","coordinates":[7.500223,51.48835]}},{"type":"Feature","properties":{"SeqNo":"676817","Type":"A","DHID":"de:05913:228:74","Parent":"de:05913:228","Name":"Zugang Bf","Latitude":"51,48812","Longitude":"7,500241","MunicipalityCode":"00000000","Municipality":"-","DistrictCode":"-","District":"-","Description":"","Authority":"VRR","DelfiName":"-","THID":"-","TariffProvider":"-","LastOperationDate":"","SEV":"nein","geojson_lng":7.500241,"geojson_lat":51.48812},"geometry":{"type":"Point","coordinates":[7.500241,51.48812]}},{"type":"Feature","properties":{"SeqNo":"676819","Type":"A","DHID":"de:05913:228:76","Parent":"de:05913:228","Name":"ZugangDB","Latitude":"51,48831","Longitude":"7,499244","MunicipalityCode":"00000000","Municipality":"-","DistrictCode":"-","District":"-","Description":"","Authority":"VRR","DelfiName":"-","THID":"-","TariffProvider":"-","LastOperationDate":"","SEV":"nein","geojson_lng":7.499244,"geojson_lat":51.48831},"geometry":{"type":"Point","coordinates":[7.499244,51.48831]}},{"type":"Feature","properties":{"SeqNo":"676820","Type":"A","DHID":"de:05913:228:77","Parent":"de:05913:228","Name":"Verteilereb. Süd","Latitude":"51,488227","Longitude":"7,50069","MunicipalityCode":"00000000","Municipality":"-","DistrictCode":"-","District":"-","Description":"","Authority":"VRR","DelfiName":"-","THID":"-","TariffProvider":"-","LastOperationDate":"","SEV":"nein","geojson_lng":7.50069,"geojson_lat":51.488227},"geometry":{"type":"Point","coordinates":[7.50069,51.488227]}},{"type":"Feature","properties":{"SeqNo":"676821","Type":"A","DHID":"de:05913:228:78","Parent":"de:05913:228","Name":"Verteilereb. Nord","Latitude":"51,488875","Longitude":"7,500465","MunicipalityCode":"00000000","Municipality":"-","DistrictCode":"-","District":"-","Description":"","Authority":"VRR","DelfiName":"-","THID":"-","TariffProvider":"-","LastOperationDate":"","SEV":"nein","geojson_lng":7.500465,"geojson_lat":51.488875},"geometry":{"type":"Point","coordinates":[7.500465,51.488875]}},{"type":"Feature","properties":{"SeqNo":"676823","Type":"A","DHID":"de:05913:228:80","Parent":"de:05913:228","Name":"B+R","Latitude":"51,488366","Longitude":"7,499163","MunicipalityCode":"00000000","Municipality":"-","DistrictCode":"-","District":"-","Description":"","Authority":"VRR","DelfiName":"-","THID":"-","TariffProvider":"-","LastOperationDate":"","SEV":"nein","geojson_lng":7.499163,"geojson_lat":51.488366},"geometry":{"type":"Point","coordinates":[7.499163,51.488366]}},{"type":"Feature","properties":{"SeqNo":"676824","Type":"A","DHID":"de:05913:228:89","Parent":"de:05913:228","Name":"SEV DB","Latitude":"51,488143","Longitude":"7,500753","MunicipalityCode":"00000000","Municipality":"-","DistrictCode":"-","District":"-","Description":"","Authority":"VRR","DelfiName":"-","THID":"-","TariffProvider":"-","LastOperationDate":"","SEV":"nein","geojson_lng":7.500753,"geojson_lat":51.488143},"geometry":{"type":"Point","coordinates":[7.500753,51.488143]}},{"type":"Feature","properties":{"SeqNo":"676827","Type":"Q","DHID":"de:05913:228:1:01","Parent":"de:05913:228:1","Name":"Steig 1","Latitude":"51,488255","Longitude":"7,499998","MunicipalityCode":"00000000","Municipality":"-","DistrictCode":"-","District":"-","Description":"","Authority":"VRR","DelfiName":"-","THID":"-","TariffProvider":"-","LastOperationDate":"","SEV":"nein","geojson_lng":7.499998,"geojson_lat":51.488255},"geometry":{"type":"Point","coordinates":[7.499998,51.488255]}},{"type":"Feature","properties":{"SeqNo":"676828","Type":"Q","DHID":"de:05913:228:1:11","Parent":"de:05913:228:1","Name":"-","Latitude":"51,488243","Longitude":"7,500025","MunicipalityCode":"00000000","Municipality":"-","DistrictCode":"-","District":"-","Description":"","Authority":"VRR","DelfiName":"-","THID":"-","TariffProvider":"-","LastOperationDate":"","SEV":"nein","geojson_lng":7.500025,"geojson_lat":51.488243},"geometry":{"type":"Point","coordinates":[7.500025,51.488243]}},{"type":"Feature","properties":{"SeqNo":"676829","Type":"Q","DHID":"de:05913:228:2:02","Parent":"de:05913:228:2","Name":"Steig 2","Latitude":"51,48835","Longitude":"7,499792","MunicipalityCode":"00000000","Municipality":"-","DistrictCode":"-","District":"-","Description":"","Authority":"VRR","DelfiName":"-","THID":"-","TariffProvider":"-","LastOperationDate":"","SEV":"nein","geojson_lng":7.499792,"geojson_lat":51.48835},"geometry":{"type":"Point","coordinates":[7.499792,51.48835]}},{"type":"Feature","properties":{"SeqNo":"676830","Type":"Q","DHID":"de:05913:228:21:21","Parent":"de:05913:228:21","Name":"U-Bahn Gleis 2","Latitude":"51,488512","Longitude":"7,500474","MunicipalityCode":"00000000","Municipality":"-","DistrictCode":"-","District":"-","Description":"","Authority":"VRR","DelfiName":"-","THID":"-","TariffProvider":"-","LastOperationDate":"","SEV":"nein","geojson_lng":7.500474,"geojson_lat":51.488512},"geometry":{"type":"Point","coordinates":[7.500474,51.488512]}},{"type":"Feature","properties":{"SeqNo":"676831","Type":"Q","DHID":"de:05913:228:21:21.1","Parent":"de:05913:228:21","Name":"U-Bahn Gleis 1","Latitude":"51,488512","Longitude":"7,500474","MunicipalityCode":"00000000","Municipality":"-","DistrictCode":"-","District":"-","Description":"","Authority":"VRR","DelfiName":"-","THID":"-","TariffProvider":"-","LastOperationDate":"","SEV":"nein","geojson_lng":7.500474,"geojson_lat":51.488512},"geometry":{"type":"Point","coordinates":[7.500474,51.488512]}},{"type":"Feature","properties":{"SeqNo":"676832","Type":"Q","DHID":"de:05913:228:21:21.2","Parent":"de:05913:228:21","Name":"U-Bahn Gleis 2","Latitude":"51,488551","Longitude":"7,500681","MunicipalityCode":"00000000","Municipality":"-","DistrictCode":"-","District":"-","Description":"","Authority":"VRR","DelfiName":"-","THID":"-","TariffProvider":"-","LastOperationDate":"","SEV":"nein","geojson_lng":7.500681,"geojson_lat":51.488551},"geometry":{"type":"Point","coordinates":[7.500681,51.488551]}},{"type":"Feature","properties":{"SeqNo":"676833","Type":"Q","DHID":"de:05913:228:21:22","Parent":"de:05913:228:21","Name":"U-Bahn Gleis 1","Latitude":"51,488551","Longitude":"7,500681","MunicipalityCode":"00000000","Municipality":"-","DistrictCode":"-","District":"-","Description":"","Authority":"VRR","DelfiName":"-","THID":"-","TariffProvider":"-","LastOperationDate":"","SEV":"nein","geojson_lng":7.500681,"geojson_lat":51.488551},"geometry":{"type":"Point","coordinates":[7.500681,51.488551]}},{"type":"Feature","properties":{"SeqNo":"676835","Type":"Q","DHID":"de:05913:228:10:3","Parent":"de:05913:228:4","Name":"SEV","Latitude":"51,488165","Longitude":"7,501157","MunicipalityCode":"00000000","Municipality":"-","DistrictCode":"-","District":"-","Description":"","Authority":"VRR","DelfiName":"-","THID":"-","TariffProvider":"-","LastOperationDate":"","SEV":"nein","geojson_lng":7.501157,"geojson_lat":51.488165},"geometry":{"type":"Point","coordinates":[7.501157,51.488165]}},{"type":"Feature","properties":{"SeqNo":"676836","Type":"Q","DHID":"de:05913:228:4:04","Parent":"de:05913:228:4","Name":"Steig 4","Latitude":"51,488255","Longitude":"7,500762","MunicipalityCode":"00000000","Municipality":"-","DistrictCode":"-","District":"-","Description":"","Authority":"VRR","DelfiName":"-","THID":"-","TariffProvider":"-","LastOperationDate":"","SEV":"nein","geojson_lng":7.500762,"geojson_lat":51.488255},"geometry":{"type":"Point","coordinates":[7.500762,51.488255]}},{"type":"Feature","properties":{"SeqNo":"676837","Type":"Q","DHID":"de:05913:228:4:06","Parent":"de:05913:228:4","Name":"Steig 6","Latitude":"51,488221","Longitude":"7,501076","MunicipalityCode":"00000000","Municipality":"-","DistrictCode":"-","District":"-","Description":"","Authority":"VRR","DelfiName":"-","THID":"-","TariffProvider":"-","LastOperationDate":"","SEV":"nein","geojson_lng":7.501076,"geojson_lat":51.488221},"geometry":{"type":"Point","coordinates":[7.501076,51.488221]}},{"type":"Feature","properties":{"SeqNo":"676838","Type":"Q","DHID":"de:05913:228:4:08","Parent":"de:05913:228:4","Name":"Steig 8","Latitude":"51,488187","Longitude":"7,501382","MunicipalityCode":"00000000","Municipality":"-","DistrictCode":"-","District":"-","Description":"","Authority":"VRR","DelfiName":"-","THID":"-","TariffProvider":"-","LastOperationDate":"","SEV":"nein","geojson_lng":7.501382,"geojson_lat":51.488187},"geometry":{"type":"Point","coordinates":[7.501382,51.488187]}},{"type":"Feature","properties":{"SeqNo":"676839","Type":"Q","DHID":"de:05913:228:4:14","Parent":"de:05913:228:4","Name":"-","Latitude":"51,488238","Longitude":"7,500834","MunicipalityCode":"00000000","Municipality":"-","DistrictCode":"-","District":"-","Description":"","Authority":"VRR","DelfiName":"-","THID":"-","TariffProvider":"-","LastOperationDate":"","SEV":"nein","geojson_lng":7.500834,"geojson_lat":51.488238},"geometry":{"type":"Point","coordinates":[7.500834,51.488238]}},{"type":"Feature","properties":{"SeqNo":"676840","Type":"Q","DHID":"de:05913:228:4:16","Parent":"de:05913:228:4","Name":"Steig 6","Latitude":"51,488215","Longitude":"7,501112","MunicipalityCode":"00000000","Municipality":"-","DistrictCode":"-","District":"-","Description":"","Authority":"VRR","DelfiName":"-","THID":"-","TariffProvider":"-","LastOperationDate":"","SEV":"nein","geojson_lng":7.501112,"geojson_lat":51.488215},"geometry":{"type":"Point","coordinates":[7.501112,51.488215]}},{"type":"Feature","properties":{"SeqNo":"676841","Type":"Q","DHID":"de:05913:228:15:5","Parent":"de:05913:228:5","Name":"So.Wg.","Latitude":"51,488517","Longitude":"7,498283","MunicipalityCode":"00000000","Municipality":"-","DistrictCode":"-","District":"-","Description":"","Authority":"VRR","DelfiName":"-","THID":"-","TariffProvider":"-","LastOperationDate":"","SEV":"nein","geojson_lng":7.498283,"geojson_lat":51.488517},"geometry":{"type":"Point","coordinates":[7.498283,51.488517]}},{"type":"Feature","properties":{"SeqNo":"676842","Type":"Q","DHID":"de:05913:228:5:05","Parent":"de:05913:228:5","Name":"Steig 5","Latitude":"51,488517","Longitude":"7,498283","MunicipalityCode":"00000000","Municipality":"-","DistrictCode":"-","District":"-","Description":"","Authority":"VRR","DelfiName":"-","THID":"-","TariffProvider":"-","LastOperationDate":"","SEV":"nein","geojson_lng":7.498283,"geojson_lat":51.488517},"geometry":{"type":"Point","coordinates":[7.498283,51.488517]}},{"type":"Feature","properties":{"SeqNo":"676843","Type":"Q","DHID":"de:05913:228:89:89","Parent":"de:05913:228:89","Name":"-","Latitude":"51,488199","Longitude":"7,500681","MunicipalityCode":"00000000","Municipality":"-","DistrictCode":"-","District":"-","Description":"","Authority":"VRR","DelfiName":"-","THID":"-","TariffProvider":"-","LastOperationDate":"","SEV":"nein","geojson_lng":7.500681,"geojson_lat":51.488199},"geometry":{"type":"Point","coordinates":[7.500681,51.488199]}},{"type":"Feature","properties":{"SeqNo":"678429","Type":"S","DHID":"de:05913:437","Parent":"de:05913:437","Name":"Dortmund Seekante","Latitude":"51,49203","Longitude":"7,500376","MunicipalityCode":"05913000","Municipality":"Dortmund","DistrictCode":"","District":"","Description":"","Authority":"VRR","DelfiName":"-","THID":"D917190001B5","TariffProvider":"-","LastOperationDate":"2025-12-13T00:00:00","SEV":"nein","geojson_lng":7.500376,"geojson_lat":51.49203},"geometry":{"type":"Point","coordinates":[7.500376,51.49203]}},{"type":"Feature","properties":{"SeqNo":"678430","Type":"A","DHID":"de:05913:437:1","Parent":"de:05913:437","Name":"1","Latitude":"51,49203","Longitude":"7,500394","MunicipalityCode":"00000000","Municipality":"-","DistrictCode":"-","District":"-","Description":"","Authority":"VRR","DelfiName":"-","THID":"-","TariffProvider":"-","LastOperationDate":"","SEV":"nein","geojson_lng":7.500394,"geojson_lat":51.49203},"geometry":{"type":"Point","coordinates":[7.500394,51.49203]}},{"type":"Feature","properties":{"SeqNo":"678431","Type":"Q","DHID":"de:05913:437:1:01","Parent":"de:05913:437:1","Name":"Steig 1","Latitude":"51,492024","Longitude":"7,500259","MunicipalityCode":"00000000","Municipality":"-","DistrictCode":"-","District":"-","Description":"","Authority":"VRR","DelfiName":"-","THID":"-","TariffProvider":"-","LastOperationDate":"","SEV":"nein","geojson_lng":7.500259,"geojson_lat":51.492024},"geometry":{"type":"Point","coordinates":[7.500259,51.492024]}},{"type":"Feature","properties":{"SeqNo":"678432","Type":"Q","DHID":"de:05913:437:1:02","Parent":"de:05913:437:1","Name":"Steig 2","Latitude":"51,492041","Longitude":"7,500519","MunicipalityCode":"00000000","Municipality":"-","DistrictCode":"-","District":"-","Description":"","Authority":"VRR","DelfiName":"-","THID":"-","TariffProvider":"-","LastOperationDate":"","SEV":"nein","geojson_lng":7.500519,"geojson_lat":51.492041},"geometry":{"type":"Point","coordinates":[7.500519,51.492041]}},{"type":"Feature","properties":{"SeqNo":"679004","Type":"A","DHID":"de:05913:512:10","Parent":"de:05913:512","Name":"Aufzug","Latitude":"51,494441","Longitude":"7,497636","MunicipalityCode":"00000000","Municipality":"-","DistrictCode":"-","District":"-","Description":"","Authority":"VRR","DelfiName":"-","THID":"-","TariffProvider":"-","LastOperationDate":"","SEV":"nein","geojson_lng":7.497636,"geojson_lat":51.494441},"geometry":{"type":"Point","coordinates":[7.497636,51.494441]}},{"type":"Feature","properties":{"SeqNo":"679007","Type":"A","DHID":"de:05913:512:13","Parent":"de:05913:512","Name":"Sued_West","Latitude":"51,494357","Longitude":"7,498381","MunicipalityCode":"00000000","Municipality":"-","DistrictCode":"-","District":"-","Description":"","Authority":"VRR","DelfiName":"-","THID":"-","TariffProvider":"-","LastOperationDate":"","SEV":"nein","geojson_lng":7.498381,"geojson_lat":51.494357},"geometry":{"type":"Point","coordinates":[7.498381,51.494357]}},{"type":"Feature","properties":{"SeqNo":"679008","Type":"A","DHID":"de:05913:512:14","Parent":"de:05913:512","Name":"Sued_Ost","Latitude":"51,494066","Longitude":"7,497375","MunicipalityCode":"00000000","Municipality":"-","DistrictCode":"-","District":"-","Description":"","Authority":"VRR","DelfiName":"-","THID":"-","TariffProvider":"-","LastOperationDate":"","SEV":"nein","geojson_lng":7.497375,"geojson_lat":51.494066},"geometry":{"type":"Point","coordinates":[7.497375,51.494066]}},{"type":"Feature","properties":{"SeqNo":"679009","Type":"A","DHID":"de:05913:512:15","Parent":"de:05913:512","Name":"Sued_Seydlitz","Latitude":"51,493876","Longitude":"7,497914","MunicipalityCode":"00000000","Municipality":"-","DistrictCode":"-","District":"-","Description":"","Authority":"VRR","DelfiName":"-","THID":"-","TariffProvider":"-","LastOperationDate":"","SEV":"nein","geojson_lng":7.497914,"geojson_lat":51.493876},"geometry":{"type":"Point","coordinates":[7.497914,51.493876]}},{"type":"Feature","properties":{"SeqNo":"679011","Type":"A","DHID":"de:05913:512:21","Parent":"de:05913:512","Name":"21","Latitude":"51,495112","Longitude":"7,497276","MunicipalityCode":"00000000","Municipality":"-","DistrictCode":"-","District":"-","Description":"","Authority":"VRR","DelfiName":"-","THID":"-","TariffProvider":"-","LastOperationDate":"","SEV":"nein","geojson_lng":7.497276,"geojson_lat":51.495112},"geometry":{"type":"Point","coordinates":[7.497276,51.495112]}},{"type":"Feature","properties":{"SeqNo":"679012","Type":"A","DHID":"de:05913:512:3","Parent":"de:05913:512","Name":"3","Latitude":"51,49429","Longitude":"7,498714","MunicipalityCode":"00000000","Municipality":"-","DistrictCode":"-","District":"-","Description":"","Authority":"VRR","DelfiName":"-","THID":"-","TariffProvider":"-","LastOperationDate":"","SEV":"nein","geojson_lng":7.498714,"geojson_lat":51.49429},"geometry":{"type":"Point","coordinates":[7.498714,51.49429]}},{"type":"Feature","properties":{"SeqNo":"679013","Type":"A","DHID":"de:05913:512:31","Parent":"de:05913:512","Name":"Aufzug","Latitude":"51,494441","Longitude":"7,497636","MunicipalityCode":"00000000","Municipality":"-","DistrictCode":"-","District":"-","Description":"","Authority":"VRR","DelfiName":"-","THID":"-","TariffProvider":"-","LastOperationDate":"","SEV":"nein","geojson_lng":7.497636,"geojson_lat":51.494441},"geometry":{"type":"Point","coordinates":[7.497636,51.494441]}},{"type":"Feature","properties":{"SeqNo":"679016","Type":"A","DHID":"de:05913:512:61","Parent":"de:05913:512","Name":"ZwischengeschossS","Latitude":"51,494172","Longitude":"7,497833","MunicipalityCode":"00000000","Municipality":"-","DistrictCode":"-","District":"-","Description":"","Authority":"VRR","DelfiName":"-","THID":"-","TariffProvider":"-","LastOperationDate":"","SEV":"nein","geojson_lng":7.497833,"geojson_lat":51.494172},"geometry":{"type":"Point","coordinates":[7.497833,51.494172]}},{"type":"Feature","properties":{"SeqNo":"679017","Type":"A","DHID":"de:05913:512:71","Parent":"de:05913:512","Name":"Sued_Seydlitz","Latitude":"51,493876","Longitude":"7,497914","MunicipalityCode":"00000000","Municipality":"-","DistrictCode":"-","District":"-","Description":"","Authority":"VRR","DelfiName":"-","THID":"-","TariffProvider":"-","LastOperationDate":"","SEV":"nein","geojson_lng":7.497914,"geojson_lat":51.493876},"geometry":{"type":"Point","coordinates":[7.497914,51.493876]}},{"type":"Feature","properties":{"SeqNo":"679018","Type":"A","DHID":"de:05913:512:72","Parent":"de:05913:512","Name":"Sued_Ost","Latitude":"51,494066","Longitude":"7,497375","MunicipalityCode":"00000000","Municipality":"-","DistrictCode":"-","District":"-","Description":"","Authority":"VRR","DelfiName":"-","THID":"-","TariffProvider":"-","LastOperationDate":"","SEV":"nein","geojson_lng":7.497375,"geojson_lat":51.494066},"geometry":{"type":"Point","coordinates":[7.497375,51.494066]}},{"type":"Feature","properties":{"SeqNo":"679019","Type":"A","DHID":"de:05913:512:73","Parent":"de:05913:512","Name":"Sued_West","Latitude":"51,494357","Longitude":"7,498381","MunicipalityCode":"00000000","Municipality":"-","DistrictCode":"-","District":"-","Description":"","Authority":"VRR","DelfiName":"-","THID":"-","TariffProvider":"-","LastOperationDate":"","SEV":"nein","geojson_lng":7.498381,"geojson_lat":51.494357},"geometry":{"type":"Point","coordinates":[7.498381,51.494357]}},{"type":"Feature","properties":{"SeqNo":"679024","Type":"Q","DHID":"de:05913:512:21:21","Parent":"de:05913:512:21","Name":"Gleis 2","Latitude":"51,495095","Longitude":"7,497187","MunicipalityCode":"00000000","Municipality":"-","DistrictCode":"-","District":"-","Description":"","Authority":"VRR","DelfiName":"-","THID":"-","TariffProvider":"-","LastOperationDate":"","SEV":"nein","geojson_lng":7.497187,"geojson_lat":51.495095},"geometry":{"type":"Point","coordinates":[7.497187,51.495095]}},{"type":"Feature","properties":{"SeqNo":"679025","Type":"Q","DHID":"de:05913:512:21:21.1","Parent":"de:05913:512:21","Name":"Gleis 1","Latitude":"51,495095","Longitude":"7,497196","MunicipalityCode":"00000000","Municipality":"-","DistrictCode":"-","District":"-","Description":"","Authority":"VRR","DelfiName":"-","THID":"-","TariffProvider":"-","LastOperationDate":"","SEV":"nein","geojson_lng":7.497196,"geojson_lat":51.495095},"geometry":{"type":"Point","coordinates":[7.497196,51.495095]}},{"type":"Feature","properties":{"SeqNo":"679026","Type":"Q","DHID":"de:05913:512:21:21.2","Parent":"de:05913:512:21","Name":"Gleis 2","Latitude":"51,495123","Longitude":"7,497357","MunicipalityCode":"00000000","Municipality":"-","DistrictCode":"-","District":"-","Description":"","Authority":"VRR","DelfiName":"-","THID":"-","TariffProvider":"-","LastOperationDate":"","SEV":"nein","geojson_lng":7.497357,"geojson_lat":51.495123},"geometry":{"type":"Point","coordinates":[7.497357,51.495123]}},{"type":"Feature","properties":{"SeqNo":"679027","Type":"Q","DHID":"de:05913:512:21:22","Parent":"de:05913:512:21","Name":"Gleis 1","Latitude":"51,495084","Longitude":"7,497339","MunicipalityCode":"00000000","Municipality":"-","DistrictCode":"-","District":"-","Description":"","Authority":"VRR","DelfiName":"-","THID":"-","TariffProvider":"-","LastOperationDate":"","SEV":"nein","geojson_lng":7.497339,"geojson_lat":51.495084},"geometry":{"type":"Point","coordinates":[7.497339,51.495084]}},{"type":"Feature","properties":{"SeqNo":"679028","Type":"Q","DHID":"de:05913:512:3:03","Parent":"de:05913:512:3","Name":"Steig 3","Latitude":"51,4942","Longitude":"7,498543","MunicipalityCode":"00000000","Municipality":"-","DistrictCode":"-","District":"-","Description":"","Authority":"VRR","DelfiName":"-","THID":"-","TariffProvider":"-","LastOperationDate":"","SEV":"nein","geojson_lng":7.498543,"geojson_lat":51.4942},"geometry":{"type":"Point","coordinates":[7.498543,51.4942]}},{"type":"Feature","properties":{"SeqNo":"679029","Type":"Q","DHID":"de:05913:512:3:06","Parent":"de:05913:512:3","Name":"Steig 6","Latitude":"51,494362","Longitude":"7,498929","MunicipalityCode":"00000000","Municipality":"-","DistrictCode":"-","District":"-","Description":"","Authority":"VRR","DelfiName":"-","THID":"-","TariffProvider":"-","LastOperationDate":"","SEV":"nein","geojson_lng":7.498929,"geojson_lat":51.494362},"geometry":{"type":"Point","coordinates":[7.498929,51.494362]}},{"type":"Feature","properties":{"SeqNo":"679030","Type":"Q","DHID":"de:05913:512:4:04","Parent":"de:05913:512:3","Name":"Steig 6","Latitude":"51,494362","Longitude":"7,498929","MunicipalityCode":"00000000","Municipality":"-","DistrictCode":"-","District":"-","Description":"","Authority":"VRR","DelfiName":"-","THID":"-","TariffProvider":"-","LastOperationDate":"","SEV":"nein","geojson_lng":7.498929,"geojson_lat":51.494362},"geometry":{"type":"Point","coordinates":[7.498929,51.494362]}}]}