{"type":"FeatureCollection","features":[{"type":"Feature","properties":{"SeqNo":"662117","Type":"S","DHID":"de:05913:1115","Parent":"de:05913:1115","Name":"Dortmund Dessauerstraße","MunicipalityCode":"05913000","Municipality":"Dortmund","DistrictCode":"","District":"","Description":"","Authority":"VRR","DelfiName":"-","THID":"D9171900045B","LastOperationDate":"2025-01-06T00:00:00","SEV":"nein","longitude":"7,493656","latitude":"51,494659","geojson_lng":7.493656,"geojson_lat":51.494659},"geometry":{"type":"Point","coordinates":[7.493656,51.494659]}},{"type":"Feature","properties":{"SeqNo":"662118","Type":"A","DHID":"de:05913:1115:1","Parent":"de:05913:1115","Name":"1","MunicipalityCode":"00000000","Municipality":"-","DistrictCode":"-","District":"-","Description":"","Authority":"VRR","DelfiName":"-","THID":"-","LastOperationDate":"","SEV":"nein","longitude":"7,493665","latitude":"51,494653","geojson_lng":7.493665,"geojson_lat":51.494653},"geometry":{"type":"Point","coordinates":[7.493665,51.494653]}},{"type":"Feature","properties":{"SeqNo":"662119","Type":"Q","DHID":"de:05913:1115:1:01","Parent":"de:05913:1115:1","Name":"Steig 1","MunicipalityCode":"00000000","Municipality":"-","DistrictCode":"-","District":"-","Description":"","Authority":"VRR","DelfiName":"-","THID":"-","LastOperationDate":"","SEV":"nein","longitude":"7,493656","latitude":"51,494698","geojson_lng":7.493656,"geojson_lat":51.494698},"geometry":{"type":"Point","coordinates":[7.493656,51.494698]}},{"type":"Feature","properties":{"SeqNo":"662120","Type":"Q","DHID":"de:05913:1115:1:02","Parent":"de:05913:1115:1","Name":"Steig 2","MunicipalityCode":"00000000","Municipality":"-","DistrictCode":"-","District":"-","Description":"","Authority":"VRR","DelfiName":"-","THID":"-","LastOperationDate":"","SEV":"nein","longitude":"7,493683","latitude":"51,494603","geojson_lng":7.493683,"geojson_lat":51.494603},"geometry":{"type":"Point","coordinates":[7.493683,51.494603]}},{"type":"Feature","properties":{"SeqNo":"662779","Type":"S","DHID":"de:05913:1267","Parent":"de:05913:1267","Name":"Dortmund Hörder Burg","MunicipalityCode":"05913000","Municipality":"Dortmund","DistrictCode":"05913","District":"","Description":"","Authority":"VRR","DelfiName":"-","THID":"D917190004F3","LastOperationDate":"2025-01-06T00:00:00","SEV":"nein","longitude":"7,502972","latitude":"51,490621","geojson_lng":7.502972,"geojson_lat":51.490621},"geometry":{"type":"Point","coordinates":[7.502972,51.490621]}},{"type":"Feature","properties":{"SeqNo":"662780","Type":"A","DHID":"de:05913:1267:1","Parent":"de:05913:1267","Name":"1","MunicipalityCode":"00000000","Municipality":"-","DistrictCode":"-","District":"-","Description":"","Authority":"VRR","DelfiName":"-","THID":"-","LastOperationDate":"","SEV":"nein","longitude":"7,502972","latitude":"51,490621","geojson_lng":7.502972,"geojson_lat":51.490621},"geometry":{"type":"Point","coordinates":[7.502972,51.490621]}},{"type":"Feature","properties":{"SeqNo":"662781","Type":"Q","DHID":"de:05913:1267:1:01","Parent":"de:05913:1267:1","Name":"Steig 1","MunicipalityCode":"00000000","Municipality":"-","DistrictCode":"-","District":"-","Description":"","Authority":"VRR","DelfiName":"-","THID":"-","LastOperationDate":"","SEV":"nein","longitude":"7,502954","latitude":"51,490537","geojson_lng":7.502954,"geojson_lat":51.490537},"geometry":{"type":"Point","coordinates":[7.502954,51.490537]}},{"type":"Feature","properties":{"SeqNo":"662782","Type":"Q","DHID":"de:05913:1267:1:02","Parent":"de:05913:1267:1","Name":"Steig 2","MunicipalityCode":"00000000","Municipality":"-","DistrictCode":"-","District":"-","Description":"","Authority":"VRR","DelfiName":"-","THID":"-","LastOperationDate":"","SEV":"nein","longitude":"7,50308","latitude":"51,490665","geojson_lng":7.50308,"geojson_lat":51.490665},"geometry":{"type":"Point","coordinates":[7.50308,51.490665]}},{"type":"Feature","properties":{"SeqNo":"663206","Type":"S","DHID":"de:05913:1337","Parent":"de:05913:1337","Name":"Dortmund Winzerweg","MunicipalityCode":"05913000","Municipality":"Dortmund","DistrictCode":"05913","District":"","Description":"","Authority":"VRR","DelfiName":"-","THID":"D91719000539","LastOperationDate":"2025-01-06T00:00:00","SEV":"nein","longitude":"7,503313","latitude":"51,49434","geojson_lng":7.503313,"geojson_lat":51.49434},"geometry":{"type":"Point","coordinates":[7.503313,51.49434]}},{"type":"Feature","properties":{"SeqNo":"663207","Type":"A","DHID":"de:05913:1337:1","Parent":"de:05913:1337","Name":"1","MunicipalityCode":"00000000","Municipality":"-","DistrictCode":"-","District":"-","Description":"","Authority":"VRR","DelfiName":"-","THID":"-","LastOperationDate":"","SEV":"nein","longitude":"7,503304","latitude":"51,494329","geojson_lng":7.503304,"geojson_lat":51.494329},"geometry":{"type":"Point","coordinates":[7.503304,51.494329]}},{"type":"Feature","properties":{"SeqNo":"663208","Type":"Q","DHID":"de:05913:1337:1:01","Parent":"de:05913:1337:1","Name":"Steig 1","MunicipalityCode":"00000000","Municipality":"-","DistrictCode":"-","District":"-","Description":"","Authority":"VRR","DelfiName":"-","THID":"-","LastOperationDate":"","SEV":"nein","longitude":"7,503331","latitude":"51,494357","geojson_lng":7.503331,"geojson_lat":51.494357},"geometry":{"type":"Point","coordinates":[7.503331,51.494357]}},{"type":"Feature","properties":{"SeqNo":"663209","Type":"Q","DHID":"de:05913:1337:1:02","Parent":"de:05913:1337:1","Name":"Steig 2","MunicipalityCode":"00000000","Municipality":"-","DistrictCode":"-","District":"-","Description":"","Authority":"VRR","DelfiName":"-","THID":"-","LastOperationDate":"","SEV":"nein","longitude":"7,503358","latitude":"51,494329","geojson_lng":7.503358,"geojson_lat":51.494329},"geometry":{"type":"Point","coordinates":[7.503358,51.494329]}},{"type":"Feature","properties":{"SeqNo":"663966","Type":"S","DHID":"de:05913:204","Parent":"de:05913:204","Name":"Dortmund Hörder Hafenstraße","MunicipalityCode":"05913000","Municipality":"Dortmund","DistrictCode":"05913","District":"","Description":"","Authority":"VRR","DelfiName":"-","THID":"D917190000CC","LastOperationDate":"2025-01-06T00:00:00","SEV":"nein","longitude":"7,501615","latitude":"51,493451","geojson_lng":7.501615,"geojson_lat":51.493451},"geometry":{"type":"Point","coordinates":[7.501615,51.493451]}},{"type":"Feature","properties":{"SeqNo":"663967","Type":"A","DHID":"de:05913:204:1","Parent":"de:05913:204","Name":"1","MunicipalityCode":"00000000","Municipality":"-","DistrictCode":"-","District":"-","Description":"","Authority":"VRR","DelfiName":"-","THID":"-","LastOperationDate":"","SEV":"nein","longitude":"7,501642","latitude":"51,493428","geojson_lng":7.501642,"geojson_lat":51.493428},"geometry":{"type":"Point","coordinates":[7.501642,51.493428]}},{"type":"Feature","properties":{"SeqNo":"663968","Type":"Q","DHID":"de:05913:204:1:01","Parent":"de:05913:204:1","Name":"Steig 1","MunicipalityCode":"00000000","Municipality":"-","DistrictCode":"-","District":"-","Description":"","Authority":"VRR","DelfiName":"-","THID":"-","LastOperationDate":"","SEV":"nein","longitude":"7,501517","latitude":"51,493473","geojson_lng":7.501517,"geojson_lat":51.493473},"geometry":{"type":"Point","coordinates":[7.501517,51.493473]}},{"type":"Feature","properties":{"SeqNo":"663969","Type":"Q","DHID":"de:05913:204:1:02","Parent":"de:05913:204:1","Name":"Steig 2","MunicipalityCode":"00000000","Municipality":"-","DistrictCode":"-","District":"-","Description":"","Authority":"VRR","DelfiName":"-","THID":"-","LastOperationDate":"","SEV":"nein","longitude":"7,501732","latitude":"51,493316","geojson_lng":7.501732,"geojson_lat":51.493316},"geometry":{"type":"Point","coordinates":[7.501732,51.493316]}},{"type":"Feature","properties":{"SeqNo":"664094","Type":"S","DHID":"de:05913:228","Parent":"de:05913:228","Name":"Dortmund Hörde Bf","MunicipalityCode":"05913000","Municipality":"Dortmund","DistrictCode":"","District":"","Description":"","Authority":"VRR","DelfiName":"-","THID":"D917190000E4","LastOperationDate":"2025-06-14T00:00:00","SEV":"nein","longitude":"7,499918","latitude":"51,488187","geojson_lng":7.499918,"geojson_lat":51.488187},"geometry":{"type":"Point","coordinates":[7.499918,51.488187]}},{"type":"Feature","properties":{"SeqNo":"664095","Type":"A","DHID":"de:05913:228:1","Parent":"de:05913:228","Name":"1","MunicipalityCode":"00000000","Municipality":"-","DistrictCode":"-","District":"-","Description":"","Authority":"VRR","DelfiName":"-","THID":"-","LastOperationDate":"","SEV":"nein","longitude":"7,49998","latitude":"51,488232","geojson_lng":7.49998,"geojson_lat":51.488232},"geometry":{"type":"Point","coordinates":[7.49998,51.488232]}},{"type":"Feature","properties":{"SeqNo":"664096","Type":"A","DHID":"de:05913:228:2","Parent":"de:05913:228","Name":"2","MunicipalityCode":"00000000","Municipality":"-","DistrictCode":"-","District":"-","Description":"","Authority":"VRR","DelfiName":"-","THID":"-","LastOperationDate":"","SEV":"nein","longitude":"7,499864","latitude":"51,488372","geojson_lng":7.499864,"geojson_lat":51.488372},"geometry":{"type":"Point","coordinates":[7.499864,51.488372]}},{"type":"Feature","properties":{"SeqNo":"664097","Type":"A","DHID":"de:05913:228:21","Parent":"de:05913:228","Name":"21","MunicipalityCode":"00000000","Municipality":"-","DistrictCode":"-","District":"-","Description":"","Authority":"VRR","DelfiName":"-","THID":"-","LastOperationDate":"","SEV":"nein","longitude":"7,500573","latitude":"51,488534","geojson_lng":7.500573,"geojson_lat":51.488534},"geometry":{"type":"Point","coordinates":[7.500573,51.488534]}},{"type":"Feature","properties":{"SeqNo":"664099","Type":"A","DHID":"de:05913:228:30","Parent":"de:05913:228","Name":"Aufzug Schlanke M","MunicipalityCode":"00000000","Municipality":"-","DistrictCode":"-","District":"-","Description":"","Authority":"VRR","DelfiName":"-","THID":"-","LastOperationDate":"","SEV":"nein","longitude":"7,500385","latitude":"51,488926","geojson_lng":7.500385,"geojson_lat":51.488926},"geometry":{"type":"Point","coordinates":[7.500385,51.488926]}},{"type":"Feature","properties":{"SeqNo":"664101","Type":"A","DHID":"de:05913:228:4","Parent":"de:05913:228","Name":"4","MunicipalityCode":"00000000","Municipality":"-","DistrictCode":"-","District":"-","Description":"","Authority":"VRR","DelfiName":"-","THID":"-","LastOperationDate":"","SEV":"nein","longitude":"7,501049","latitude":"51,488238","geojson_lng":7.501049,"geojson_lat":51.488238},"geometry":{"type":"Point","coordinates":[7.501049,51.488238]}},{"type":"Feature","properties":{"SeqNo":"664102","Type":"A","DHID":"de:05913:228:5","Parent":"de:05913:228","Name":"5","MunicipalityCode":"00000000","Municipality":"-","DistrictCode":"-","District":"-","Description":"","Authority":"VRR","DelfiName":"-","THID":"-","LastOperationDate":"","SEV":"nein","longitude":"7,498265","latitude":"51,48845","geojson_lng":7.498265,"geojson_lat":51.48845},"geometry":{"type":"Point","coordinates":[7.498265,51.48845]}},{"type":"Feature","properties":{"SeqNo":"664104","Type":"A","DHID":"de:05913:228:71","Parent":"de:05913:228","Name":"ZugangSchlankeMat","MunicipalityCode":"00000000","Municipality":"-","DistrictCode":"-","District":"-","Description":"","Authority":"VRR","DelfiName":"-","THID":"-","LastOperationDate":"","SEV":"nein","longitude":"7,500816","latitude":"51,488998","geojson_lng":7.500816,"geojson_lat":51.488998},"geometry":{"type":"Point","coordinates":[7.500816,51.488998]}},{"type":"Feature","properties":{"SeqNo":"664105","Type":"A","DHID":"de:05913:228:72","Parent":"de:05913:228","Name":"ZugangStadtgrt.","MunicipalityCode":"00000000","Municipality":"-","DistrictCode":"-","District":"-","Description":"","Authority":"VRR","DelfiName":"-","THID":"-","LastOperationDate":"","SEV":"nein","longitude":"7,501337","latitude":"51,488243","geojson_lng":7.501337,"geojson_lat":51.488243},"geometry":{"type":"Point","coordinates":[7.501337,51.488243]}},{"type":"Feature","properties":{"SeqNo":"664106","Type":"A","DHID":"de:05913:228:73","Parent":"de:05913:228","Name":"ZugangSparkasse","MunicipalityCode":"00000000","Municipality":"-","DistrictCode":"-","District":"-","Description":"","Authority":"VRR","DelfiName":"-","THID":"-","LastOperationDate":"","SEV":"nein","longitude":"7,500223","latitude":"51,48835","geojson_lng":7.500223,"geojson_lat":51.48835},"geometry":{"type":"Point","coordinates":[7.500223,51.48835]}},{"type":"Feature","properties":{"SeqNo":"664107","Type":"A","DHID":"de:05913:228:74","Parent":"de:05913:228","Name":"Zugang Bf","MunicipalityCode":"00000000","Municipality":"-","DistrictCode":"-","District":"-","Description":"","Authority":"VRR","DelfiName":"-","THID":"-","LastOperationDate":"","SEV":"nein","longitude":"7,500241","latitude":"51,48812","geojson_lng":7.500241,"geojson_lat":51.48812},"geometry":{"type":"Point","coordinates":[7.500241,51.48812]}},{"type":"Feature","properties":{"SeqNo":"664109","Type":"A","DHID":"de:05913:228:76","Parent":"de:05913:228","Name":"ZugangDB","MunicipalityCode":"00000000","Municipality":"-","DistrictCode":"-","District":"-","Description":"","Authority":"VRR","DelfiName":"-","THID":"-","LastOperationDate":"","SEV":"nein","longitude":"7,499244","latitude":"51,48831","geojson_lng":7.499244,"geojson_lat":51.48831},"geometry":{"type":"Point","coordinates":[7.499244,51.48831]}},{"type":"Feature","properties":{"SeqNo":"664110","Type":"A","DHID":"de:05913:228:77","Parent":"de:05913:228","Name":"Verteilereb. Süd","MunicipalityCode":"00000000","Municipality":"-","DistrictCode":"-","District":"-","Description":"","Authority":"VRR","DelfiName":"-","THID":"-","LastOperationDate":"","SEV":"nein","longitude":"7,50069","latitude":"51,488227","geojson_lng":7.50069,"geojson_lat":51.488227},"geometry":{"type":"Point","coordinates":[7.50069,51.488227]}},{"type":"Feature","properties":{"SeqNo":"664111","Type":"A","DHID":"de:05913:228:78","Parent":"de:05913:228","Name":"Verteilereb. Nord","MunicipalityCode":"00000000","Municipality":"-","DistrictCode":"-","District":"-","Description":"","Authority":"VRR","DelfiName":"-","THID":"-","LastOperationDate":"","SEV":"nein","longitude":"7,500465","latitude":"51,488875","geojson_lng":7.500465,"geojson_lat":51.488875},"geometry":{"type":"Point","coordinates":[7.500465,51.488875]}},{"type":"Feature","properties":{"SeqNo":"664113","Type":"A","DHID":"de:05913:228:89","Parent":"de:05913:228","Name":"SEV DB","MunicipalityCode":"00000000","Municipality":"-","DistrictCode":"-","District":"-","Description":"","Authority":"VRR","DelfiName":"-","THID":"-","LastOperationDate":"","SEV":"nein","longitude":"7,500753","latitude":"51,488143","geojson_lng":7.500753,"geojson_lat":51.488143},"geometry":{"type":"Point","coordinates":[7.500753,51.488143]}},{"type":"Feature","properties":{"SeqNo":"664116","Type":"Q","DHID":"de:05913:228:1:01","Parent":"de:05913:228:1","Name":"Steig 1","MunicipalityCode":"00000000","Municipality":"-","DistrictCode":"-","District":"-","Description":"","Authority":"VRR","DelfiName":"-","THID":"-","LastOperationDate":"","SEV":"nein","longitude":"7,500007","latitude":"51,488277","geojson_lng":7.500007,"geojson_lat":51.488277},"geometry":{"type":"Point","coordinates":[7.500007,51.488277]}},{"type":"Feature","properties":{"SeqNo":"664117","Type":"Q","DHID":"de:05913:228:1:11","Parent":"de:05913:228:1","Name":"Steig 11","MunicipalityCode":"00000000","Municipality":"-","DistrictCode":"-","District":"-","Description":"","Authority":"VRR","DelfiName":"-","THID":"-","LastOperationDate":"","SEV":"nein","longitude":"7,500061","latitude":"51,488271","geojson_lng":7.500061,"geojson_lat":51.488271},"geometry":{"type":"Point","coordinates":[7.500061,51.488271]}},{"type":"Feature","properties":{"SeqNo":"664118","Type":"Q","DHID":"de:05913:228:2:02","Parent":"de:05913:228:2","Name":"Steig 2","MunicipalityCode":"00000000","Municipality":"-","DistrictCode":"-","District":"-","Description":"","Authority":"VRR","DelfiName":"-","THID":"-","LastOperationDate":"","SEV":"nein","longitude":"7,499792","latitude":"51,48835","geojson_lng":7.499792,"geojson_lat":51.48835},"geometry":{"type":"Point","coordinates":[7.499792,51.48835]}},{"type":"Feature","properties":{"SeqNo":"664119","Type":"Q","DHID":"de:05913:228:21:21","Parent":"de:05913:228:21","Name":"U-Bahn Gleis 2","MunicipalityCode":"00000000","Municipality":"-","DistrictCode":"-","District":"-","Description":"","Authority":"VRR","DelfiName":"-","THID":"-","LastOperationDate":"","SEV":"nein","longitude":"7,500474","latitude":"51,488512","geojson_lng":7.500474,"geojson_lat":51.488512},"geometry":{"type":"Point","coordinates":[7.500474,51.488512]}},{"type":"Feature","properties":{"SeqNo":"664120","Type":"Q","DHID":"de:05913:228:21:21.1","Parent":"de:05913:228:21","Name":"U-Bahn Gleis 1","MunicipalityCode":"00000000","Municipality":"-","DistrictCode":"-","District":"-","Description":"","Authority":"VRR","DelfiName":"-","THID":"-","LastOperationDate":"","SEV":"nein","longitude":"7,500474","latitude":"51,488512","geojson_lng":7.500474,"geojson_lat":51.488512},"geometry":{"type":"Point","coordinates":[7.500474,51.488512]}},{"type":"Feature","properties":{"SeqNo":"664121","Type":"Q","DHID":"de:05913:228:21:21.2","Parent":"de:05913:228:21","Name":"U-Bahn Gleis 2","MunicipalityCode":"00000000","Municipality":"-","DistrictCode":"-","District":"-","Description":"","Authority":"VRR","DelfiName":"-","THID":"-","LastOperationDate":"","SEV":"nein","longitude":"7,500681","latitude":"51,488551","geojson_lng":7.500681,"geojson_lat":51.488551},"geometry":{"type":"Point","coordinates":[7.500681,51.488551]}},{"type":"Feature","properties":{"SeqNo":"664122","Type":"Q","DHID":"de:05913:228:21:22","Parent":"de:05913:228:21","Name":"U-Bahn Gleis 1","MunicipalityCode":"00000000","Municipality":"-","DistrictCode":"-","District":"-","Description":"","Authority":"VRR","DelfiName":"-","THID":"-","LastOperationDate":"","SEV":"nein","longitude":"7,500681","latitude":"51,488551","geojson_lng":7.500681,"geojson_lat":51.488551},"geometry":{"type":"Point","coordinates":[7.500681,51.488551]}},{"type":"Feature","properties":{"SeqNo":"664124","Type":"Q","DHID":"de:05913:228:10:3","Parent":"de:05913:228:4","Name":"SEV","MunicipalityCode":"00000000","Municipality":"-","DistrictCode":"-","District":"-","Description":"","Authority":"VRR","DelfiName":"-","THID":"-","LastOperationDate":"","SEV":"nein","longitude":"7,501157","latitude":"51,488165","geojson_lng":7.501157,"geojson_lat":51.488165},"geometry":{"type":"Point","coordinates":[7.501157,51.488165]}},{"type":"Feature","properties":{"SeqNo":"664125","Type":"Q","DHID":"de:05913:228:4:04","Parent":"de:05913:228:4","Name":"Steig 4","MunicipalityCode":"00000000","Municipality":"-","DistrictCode":"-","District":"-","Description":"","Authority":"VRR","DelfiName":"-","THID":"-","LastOperationDate":"","SEV":"nein","longitude":"7,50078","latitude":"51,488215","geojson_lng":7.50078,"geojson_lat":51.488215},"geometry":{"type":"Point","coordinates":[7.50078,51.488215]}},{"type":"Feature","properties":{"SeqNo":"664126","Type":"Q","DHID":"de:05913:228:4:06","Parent":"de:05913:228:4","Name":"Steig 6","MunicipalityCode":"00000000","Municipality":"-","DistrictCode":"-","District":"-","Description":"","Authority":"VRR","DelfiName":"-","THID":"-","LastOperationDate":"","SEV":"nein","longitude":"7,501067","latitude":"51,488187","geojson_lng":7.501067,"geojson_lat":51.488187},"geometry":{"type":"Point","coordinates":[7.501067,51.488187]}},{"type":"Feature","properties":{"SeqNo":"664127","Type":"Q","DHID":"de:05913:228:4:08","Parent":"de:05913:228:4","Name":"Steig 8","MunicipalityCode":"00000000","Municipality":"-","DistrictCode":"-","District":"-","Description":"","Authority":"VRR","DelfiName":"-","THID":"-","LastOperationDate":"","SEV":"nein","longitude":"7,501418","latitude":"51,488148","geojson_lng":7.501418,"geojson_lat":51.488148},"geometry":{"type":"Point","coordinates":[7.501418,51.488148]}},{"type":"Feature","properties":{"SeqNo":"664128","Type":"Q","DHID":"de:05913:228:4:14","Parent":"de:05913:228:4","Name":"Steig 14","MunicipalityCode":"00000000","Municipality":"-","DistrictCode":"-","District":"-","Description":"","Authority":"VRR","DelfiName":"-","THID":"-","LastOperationDate":"","SEV":"nein","longitude":"7,500807","latitude":"51,488204","geojson_lng":7.500807,"geojson_lat":51.488204},"geometry":{"type":"Point","coordinates":[7.500807,51.488204]}},{"type":"Feature","properties":{"SeqNo":"664129","Type":"Q","DHID":"de:05913:228:4:16","Parent":"de:05913:228:4","Name":"Steig 6","MunicipalityCode":"00000000","Municipality":"-","DistrictCode":"-","District":"-","Description":"","Authority":"VRR","DelfiName":"-","THID":"-","LastOperationDate":"","SEV":"nein","longitude":"7,501067","latitude":"51,488187","geojson_lng":7.501067,"geojson_lat":51.488187},"geometry":{"type":"Point","coordinates":[7.501067,51.488187]}},{"type":"Feature","properties":{"SeqNo":"664130","Type":"Q","DHID":"de:05913:228:15:5","Parent":"de:05913:228:5","Name":"So.Wg.","MunicipalityCode":"00000000","Municipality":"-","DistrictCode":"-","District":"-","Description":"","Authority":"VRR","DelfiName":"-","THID":"-","LastOperationDate":"","SEV":"nein","longitude":"7,498283","latitude":"51,488517","geojson_lng":7.498283,"geojson_lat":51.488517},"geometry":{"type":"Point","coordinates":[7.498283,51.488517]}},{"type":"Feature","properties":{"SeqNo":"664131","Type":"Q","DHID":"de:05913:228:5:05","Parent":"de:05913:228:5","Name":"Steig 5","MunicipalityCode":"00000000","Municipality":"-","DistrictCode":"-","District":"-","Description":"","Authority":"VRR","DelfiName":"-","THID":"-","LastOperationDate":"","SEV":"nein","longitude":"7,498283","latitude":"51,488517","geojson_lng":7.498283,"geojson_lat":51.488517},"geometry":{"type":"Point","coordinates":[7.498283,51.488517]}},{"type":"Feature","properties":{"SeqNo":"664132","Type":"Q","DHID":"de:05913:228:89:89","Parent":"de:05913:228:89","Name":"SEV DB","MunicipalityCode":"00000000","Municipality":"-","DistrictCode":"-","District":"-","Description":"","Authority":"VRR","DelfiName":"-","THID":"-","LastOperationDate":"","SEV":"nein","longitude":"7,500681","latitude":"51,488199","geojson_lng":7.500681,"geojson_lat":51.488199},"geometry":{"type":"Point","coordinates":[7.500681,51.488199]}},{"type":"Feature","properties":{"SeqNo":"665685","Type":"S","DHID":"de:05913:437","Parent":"de:05913:437","Name":"Dortmund Seekante","MunicipalityCode":"05913000","Municipality":"Dortmund","DistrictCode":"","District":"","Description":"","Authority":"VRR","DelfiName":"-","THID":"D917190001B5","LastOperationDate":"2025-01-05T00:00:00","SEV":"nein","longitude":"7,500376","latitude":"51,49203","geojson_lng":7.500376,"geojson_lat":51.49203},"geometry":{"type":"Point","coordinates":[7.500376,51.49203]}},{"type":"Feature","properties":{"SeqNo":"665686","Type":"A","DHID":"de:05913:437:1","Parent":"de:05913:437","Name":"1","MunicipalityCode":"00000000","Municipality":"-","DistrictCode":"-","District":"-","Description":"","Authority":"VRR","DelfiName":"-","THID":"-","LastOperationDate":"","SEV":"nein","longitude":"7,500394","latitude":"51,49203","geojson_lng":7.500394,"geojson_lat":51.49203},"geometry":{"type":"Point","coordinates":[7.500394,51.49203]}},{"type":"Feature","properties":{"SeqNo":"665687","Type":"Q","DHID":"de:05913:437:1:01","Parent":"de:05913:437:1","Name":"Steig 1","MunicipalityCode":"00000000","Municipality":"-","DistrictCode":"-","District":"-","Description":"","Authority":"VRR","DelfiName":"-","THID":"-","LastOperationDate":"","SEV":"nein","longitude":"7,500259","latitude":"51,492024","geojson_lng":7.500259,"geojson_lat":51.492024},"geometry":{"type":"Point","coordinates":[7.500259,51.492024]}},{"type":"Feature","properties":{"SeqNo":"665688","Type":"Q","DHID":"de:05913:437:1:02","Parent":"de:05913:437:1","Name":"Steig 2","MunicipalityCode":"00000000","Municipality":"-","DistrictCode":"-","District":"-","Description":"","Authority":"VRR","DelfiName":"-","THID":"-","LastOperationDate":"","SEV":"nein","longitude":"7,500519","latitude":"51,492041","geojson_lng":7.500519,"geojson_lat":51.492041},"geometry":{"type":"Point","coordinates":[7.500519,51.492041]}},{"type":"Feature","properties":{"SeqNo":"666256","Type":"A","DHID":"de:05913:512:10","Parent":"de:05913:512","Name":"Aufzug","MunicipalityCode":"00000000","Municipality":"-","DistrictCode":"-","District":"-","Description":"","Authority":"VRR","DelfiName":"-","THID":"-","LastOperationDate":"","SEV":"nein","longitude":"7,497636","latitude":"51,494441","geojson_lng":7.497636,"geojson_lat":51.494441},"geometry":{"type":"Point","coordinates":[7.497636,51.494441]}},{"type":"Feature","properties":{"SeqNo":"666259","Type":"A","DHID":"de:05913:512:13","Parent":"de:05913:512","Name":"Sued_West","MunicipalityCode":"00000000","Municipality":"-","DistrictCode":"-","District":"-","Description":"","Authority":"VRR","DelfiName":"-","THID":"-","LastOperationDate":"","SEV":"nein","longitude":"7,498381","latitude":"51,494357","geojson_lng":7.498381,"geojson_lat":51.494357},"geometry":{"type":"Point","coordinates":[7.498381,51.494357]}},{"type":"Feature","properties":{"SeqNo":"666260","Type":"A","DHID":"de:05913:512:14","Parent":"de:05913:512","Name":"Sued_Ost","MunicipalityCode":"00000000","Municipality":"-","DistrictCode":"-","District":"-","Description":"","Authority":"VRR","DelfiName":"-","THID":"-","LastOperationDate":"","SEV":"nein","longitude":"7,497375","latitude":"51,494066","geojson_lng":7.497375,"geojson_lat":51.494066},"geometry":{"type":"Point","coordinates":[7.497375,51.494066]}},{"type":"Feature","properties":{"SeqNo":"666261","Type":"A","DHID":"de:05913:512:15","Parent":"de:05913:512","Name":"Sued_Seydlitz","MunicipalityCode":"00000000","Municipality":"-","DistrictCode":"-","District":"-","Description":"","Authority":"VRR","DelfiName":"-","THID":"-","LastOperationDate":"","SEV":"nein","longitude":"7,497914","latitude":"51,493876","geojson_lng":7.497914,"geojson_lat":51.493876},"geometry":{"type":"Point","coordinates":[7.497914,51.493876]}},{"type":"Feature","properties":{"SeqNo":"666263","Type":"A","DHID":"de:05913:512:21","Parent":"de:05913:512","Name":"21","MunicipalityCode":"00000000","Municipality":"-","DistrictCode":"-","District":"-","Description":"","Authority":"VRR","DelfiName":"-","THID":"-","LastOperationDate":"","SEV":"nein","longitude":"7,497276","latitude":"51,495112","geojson_lng":7.497276,"geojson_lat":51.495112},"geometry":{"type":"Point","coordinates":[7.497276,51.495112]}},{"type":"Feature","properties":{"SeqNo":"666264","Type":"A","DHID":"de:05913:512:3","Parent":"de:05913:512","Name":"3","MunicipalityCode":"00000000","Municipality":"-","DistrictCode":"-","District":"-","Description":"","Authority":"VRR","DelfiName":"-","THID":"-","LastOperationDate":"","SEV":"nein","longitude":"7,498714","latitude":"51,49429","geojson_lng":7.498714,"geojson_lat":51.49429},"geometry":{"type":"Point","coordinates":[7.498714,51.49429]}},{"type":"Feature","properties":{"SeqNo":"666265","Type":"A","DHID":"de:05913:512:31","Parent":"de:05913:512","Name":"Aufzug","MunicipalityCode":"00000000","Municipality":"-","DistrictCode":"-","District":"-","Description":"","Authority":"VRR","DelfiName":"-","THID":"-","LastOperationDate":"","SEV":"nein","longitude":"7,497636","latitude":"51,494441","geojson_lng":7.497636,"geojson_lat":51.494441},"geometry":{"type":"Point","coordinates":[7.497636,51.494441]}},{"type":"Feature","properties":{"SeqNo":"666268","Type":"A","DHID":"de:05913:512:61","Parent":"de:05913:512","Name":"ZwischengeschossS","MunicipalityCode":"00000000","Municipality":"-","DistrictCode":"-","District":"-","Description":"","Authority":"VRR","DelfiName":"-","THID":"-","LastOperationDate":"","SEV":"nein","longitude":"7,497833","latitude":"51,494172","geojson_lng":7.497833,"geojson_lat":51.494172},"geometry":{"type":"Point","coordinates":[7.497833,51.494172]}},{"type":"Feature","properties":{"SeqNo":"666269","Type":"A","DHID":"de:05913:512:71","Parent":"de:05913:512","Name":"Sued_Seydlitz","MunicipalityCode":"00000000","Municipality":"-","DistrictCode":"-","District":"-","Description":"","Authority":"VRR","DelfiName":"-","THID":"-","LastOperationDate":"","SEV":"nein","longitude":"7,497914","latitude":"51,493876","geojson_lng":7.497914,"geojson_lat":51.493876},"geometry":{"type":"Point","coordinates":[7.497914,51.493876]}},{"type":"Feature","properties":{"SeqNo":"666270","Type":"A","DHID":"de:05913:512:72","Parent":"de:05913:512","Name":"Sued_Ost","MunicipalityCode":"00000000","Municipality":"-","DistrictCode":"-","District":"-","Description":"","Authority":"VRR","DelfiName":"-","THID":"-","LastOperationDate":"","SEV":"nein","longitude":"7,497375","latitude":"51,494066","geojson_lng":7.497375,"geojson_lat":51.494066},"geometry":{"type":"Point","coordinates":[7.497375,51.494066]}},{"type":"Feature","properties":{"SeqNo":"666271","Type":"A","DHID":"de:05913:512:73","Parent":"de:05913:512","Name":"Sued_West","MunicipalityCode":"00000000","Municipality":"-","DistrictCode":"-","District":"-","Description":"","Authority":"VRR","DelfiName":"-","THID":"-","LastOperationDate":"","SEV":"nein","longitude":"7,498381","latitude":"51,494357","geojson_lng":7.498381,"geojson_lat":51.494357},"geometry":{"type":"Point","coordinates":[7.498381,51.494357]}},{"type":"Feature","properties":{"SeqNo":"666276","Type":"Q","DHID":"de:05913:512:21:21","Parent":"de:05913:512:21","Name":"Gleis 2","MunicipalityCode":"00000000","Municipality":"-","DistrictCode":"-","District":"-","Description":"","Authority":"VRR","DelfiName":"-","THID":"-","LastOperationDate":"","SEV":"nein","longitude":"7,497187","latitude":"51,495095","geojson_lng":7.497187,"geojson_lat":51.495095},"geometry":{"type":"Point","coordinates":[7.497187,51.495095]}},{"type":"Feature","properties":{"SeqNo":"666277","Type":"Q","DHID":"de:05913:512:21:21.1","Parent":"de:05913:512:21","Name":"Gleis 1","MunicipalityCode":"00000000","Municipality":"-","DistrictCode":"-","District":"-","Description":"","Authority":"VRR","DelfiName":"-","THID":"-","LastOperationDate":"","SEV":"nein","longitude":"7,497196","latitude":"51,495095","geojson_lng":7.497196,"geojson_lat":51.495095},"geometry":{"type":"Point","coordinates":[7.497196,51.495095]}},{"type":"Feature","properties":{"SeqNo":"666278","Type":"Q","DHID":"de:05913:512:21:21.2","Parent":"de:05913:512:21","Name":"Gleis 2","MunicipalityCode":"00000000","Municipality":"-","DistrictCode":"-","District":"-","Description":"","Authority":"VRR","DelfiName":"-","THID":"-","LastOperationDate":"","SEV":"nein","longitude":"7,497357","latitude":"51,495123","geojson_lng":7.497357,"geojson_lat":51.495123},"geometry":{"type":"Point","coordinates":[7.497357,51.495123]}},{"type":"Feature","properties":{"SeqNo":"666279","Type":"Q","DHID":"de:05913:512:21:22","Parent":"de:05913:512:21","Name":"Gleis 1","MunicipalityCode":"00000000","Municipality":"-","DistrictCode":"-","District":"-","Description":"","Authority":"VRR","DelfiName":"-","THID":"-","LastOperationDate":"","SEV":"nein","longitude":"7,497339","latitude":"51,495084","geojson_lng":7.497339,"geojson_lat":51.495084},"geometry":{"type":"Point","coordinates":[7.497339,51.495084]}},{"type":"Feature","properties":{"SeqNo":"666280","Type":"Q","DHID":"de:05913:512:3:03","Parent":"de:05913:512:3","Name":"Steig 3","MunicipalityCode":"00000000","Municipality":"-","DistrictCode":"-","District":"-","Description":"","Authority":"VRR","DelfiName":"-","THID":"-","LastOperationDate":"","SEV":"nein","longitude":"7,498543","latitude":"51,4942","geojson_lng":7.498543,"geojson_lat":51.4942},"geometry":{"type":"Point","coordinates":[7.498543,51.4942]}},{"type":"Feature","properties":{"SeqNo":"666281","Type":"Q","DHID":"de:05913:512:3:06","Parent":"de:05913:512:3","Name":"Steig 6","MunicipalityCode":"00000000","Municipality":"-","DistrictCode":"-","District":"-","Description":"","Authority":"VRR","DelfiName":"-","THID":"-","LastOperationDate":"","SEV":"nein","longitude":"7,498929","latitude":"51,494362","geojson_lng":7.498929,"geojson_lat":51.494362},"geometry":{"type":"Point","coordinates":[7.498929,51.494362]}},{"type":"Feature","properties":{"SeqNo":"666282","Type":"Q","DHID":"de:05913:512:4:04","Parent":"de:05913:512:3","Name":"Steig 6","MunicipalityCode":"00000000","Municipality":"-","DistrictCode":"-","District":"-","Description":"","Authority":"VRR","DelfiName":"-","THID":"-","LastOperationDate":"","SEV":"nein","longitude":"7,498929","latitude":"51,494362","geojson_lng":7.498929,"geojson_lat":51.494362},"geometry":{"type":"Point","coordinates":[7.498929,51.494362]}}]}