{"type":"FeatureCollection","features":[{"type":"Feature","properties":{"SeqNo":"79570","Type":"S","DHID":"de:08417:30133","Parent":"de:08417:30133","Name":"Burladingen Blumenstetter Str.","MunicipalityCode":"08417013","Municipality":"Burladingen","DistrictCode":"","District":"","Description":"","Authority":"NVBW","DelfiName":"-","THID":"D920E10075B5","LastOperationDate":"2025-06-13T00:00:00","SEV":"nein","longitude":"9,097158","latitude":"48,294986","geojson_lng":9.097158,"geojson_lat":48.294986},"geometry":{"type":"Point","coordinates":[9.097158,48.294986]}},{"type":"Feature","properties":{"SeqNo":"79571","Type":"Q","DHID":"de:08417:30133:0:1","Parent":"de:08417:30133","Name":"FR alle Richtungen","MunicipalityCode":"00000000","Municipality":"-","DistrictCode":"-","District":"-","Description":"","Authority":"NVBW","DelfiName":"-","THID":"-","LastOperationDate":"","SEV":"nein","longitude":"9,097176","latitude":"48,294944","geojson_lng":9.097176,"geojson_lat":48.294944},"geometry":{"type":"Point","coordinates":[9.097176,48.294944]}},{"type":"Feature","properties":{"SeqNo":"79572","Type":"S","DHID":"de:08417:30134","Parent":"de:08417:30134","Name":"Burladingen Delisbergweg","MunicipalityCode":"08417013","Municipality":"Burladingen","DistrictCode":"","District":"","Description":"","Authority":"NVBW","DelfiName":"-","THID":"D920E10075B6","LastOperationDate":"2025-06-13T00:00:00","SEV":"nein","longitude":"9,099844","latitude":"48,295571","geojson_lng":9.099844,"geojson_lat":48.295571},"geometry":{"type":"Point","coordinates":[9.099844,48.295571]}},{"type":"Feature","properties":{"SeqNo":"79573","Type":"Q","DHID":"de:08417:30134:0:1","Parent":"de:08417:30134","Name":"FR alle Richtungen","MunicipalityCode":"00000000","Municipality":"-","DistrictCode":"-","District":"-","Description":"","Authority":"NVBW","DelfiName":"-","THID":"-","LastOperationDate":"","SEV":"nein","longitude":"9,099934","latitude":"48,295559","geojson_lng":9.099934,"geojson_lat":48.295559},"geometry":{"type":"Point","coordinates":[9.099934,48.295559]}},{"type":"Feature","properties":{"SeqNo":"79583","Type":"S","DHID":"de:08417:30139","Parent":"de:08417:30139","Name":"Burladingen Hirschaustraße","MunicipalityCode":"08417013","Municipality":"Burladingen","DistrictCode":"","District":"","Description":"","Authority":"NVBW","DelfiName":"-","THID":"D920E10075BB","LastOperationDate":"2025-06-13T00:00:00","SEV":"nein","longitude":"9,098281","latitude":"48,290886","geojson_lng":9.098281,"geojson_lat":48.290886},"geometry":{"type":"Point","coordinates":[9.098281,48.290886]}},{"type":"Feature","properties":{"SeqNo":"79584","Type":"Q","DHID":"de:08417:30139:0:1","Parent":"de:08417:30139","Name":"FR alle Richtungen","MunicipalityCode":"00000000","Municipality":"-","DistrictCode":"-","District":"-","Description":"","Authority":"NVBW","DelfiName":"-","THID":"-","LastOperationDate":"","SEV":"nein","longitude":"9,098281","latitude":"48,29091","geojson_lng":9.098281,"geojson_lat":48.29091},"geometry":{"type":"Point","coordinates":[9.098281,48.29091]}},{"type":"Feature","properties":{"SeqNo":"79588","Type":"S","DHID":"de:08417:30141","Parent":"de:08417:30141","Name":"Burladingen Jahnstraße","MunicipalityCode":"08417013","Municipality":"Burladingen","DistrictCode":"","District":"","Description":"","Authority":"NVBW","DelfiName":"-","THID":"D920E10075BD","LastOperationDate":"2025-06-13T00:00:00","SEV":"nein","longitude":"9,099062","latitude":"48,292972","geojson_lng":9.099062,"geojson_lat":48.292972},"geometry":{"type":"Point","coordinates":[9.099062,48.292972]}},{"type":"Feature","properties":{"SeqNo":"79589","Type":"Q","DHID":"de:08417:30141:0:1","Parent":"de:08417:30141","Name":"FR B32","MunicipalityCode":"00000000","Municipality":"-","DistrictCode":"-","District":"-","Description":"","Authority":"NVBW","DelfiName":"-","THID":"-","LastOperationDate":"","SEV":"nein","longitude":"9,098973","latitude":"48,292978","geojson_lng":9.098973,"geojson_lat":48.292978},"geometry":{"type":"Point","coordinates":[9.098973,48.292978]}},{"type":"Feature","properties":{"SeqNo":"79590","Type":"Q","DHID":"de:08417:30141:0:2","Parent":"de:08417:30141","Name":"FR Blumenstetter Str.","MunicipalityCode":"00000000","Municipality":"-","DistrictCode":"-","District":"-","Description":"","Authority":"NVBW","DelfiName":"-","THID":"-","LastOperationDate":"","SEV":"nein","longitude":"9,099152","latitude":"48,292989","geojson_lng":9.099152,"geojson_lat":48.292989},"geometry":{"type":"Point","coordinates":[9.099152,48.292989]}},{"type":"Feature","properties":{"SeqNo":"79596","Type":"S","DHID":"de:08417:30144","Parent":"de:08417:30144","Name":"Burladingen Panoramastraße","MunicipalityCode":"08417013","Municipality":"Burladingen","DistrictCode":"","District":"","Description":"","Authority":"NVBW","DelfiName":"-","THID":"D920E10075C0","LastOperationDate":"2025-06-13T00:00:00","SEV":"nein","longitude":"9,098227","latitude":"48,296976","geojson_lng":9.098227,"geojson_lat":48.296976},"geometry":{"type":"Point","coordinates":[9.098227,48.296976]}},{"type":"Feature","properties":{"SeqNo":"79597","Type":"Q","DHID":"de:08417:30144:0:1","Parent":"de:08417:30144","Name":"FR alle Richtungen","MunicipalityCode":"00000000","Municipality":"-","DistrictCode":"-","District":"-","Description":"","Authority":"NVBW","DelfiName":"-","THID":"-","LastOperationDate":"","SEV":"nein","longitude":"9,098236","latitude":"48,29697","geojson_lng":9.098236,"geojson_lat":48.29697},"geometry":{"type":"Point","coordinates":[9.098236,48.29697]}},{"type":"Feature","properties":{"SeqNo":"79610","Type":"S","DHID":"de:08417:30149","Parent":"de:08417:30149","Name":"Burladingen Sonnenhalde","MunicipalityCode":"08417013","Municipality":"Burladingen","DistrictCode":"","District":"","Description":"","Authority":"NVBW","DelfiName":"-","THID":"D920E10075C5","LastOperationDate":"2025-06-13T00:00:00","SEV":"nein","longitude":"9,102135","latitude":"48,295177","geojson_lng":9.102135,"geojson_lat":48.295177},"geometry":{"type":"Point","coordinates":[9.102135,48.295177]}},{"type":"Feature","properties":{"SeqNo":"79611","Type":"Q","DHID":"de:08417:30149:0:1","Parent":"de:08417:30149","Name":"FR alle Richtungen","MunicipalityCode":"00000000","Municipality":"-","DistrictCode":"-","District":"-","Description":"","Authority":"NVBW","DelfiName":"-","THID":"-","LastOperationDate":"","SEV":"nein","longitude":"9,102225","latitude":"48,295177","geojson_lng":9.102225,"geojson_lat":48.295177},"geometry":{"type":"Point","coordinates":[9.102225,48.295177]}},{"type":"Feature","properties":{"SeqNo":"79619","Type":"S","DHID":"de:08417:30154","Parent":"de:08417:30154","Name":"Burladingen Zollerstraße","MunicipalityCode":"08417013","Municipality":"Burladingen","DistrictCode":"","District":"","Description":"","Authority":"NVBW","DelfiName":"-","THID":"D920E10075CA","LastOperationDate":"2025-06-13T00:00:00","SEV":"nein","longitude":"9,105836","latitude":"48,292541","geojson_lng":9.105836,"geojson_lat":48.292541},"geometry":{"type":"Point","coordinates":[9.105836,48.292541]}},{"type":"Feature","properties":{"SeqNo":"79620","Type":"Q","DHID":"de:08417:30154:0:1","Parent":"de:08417:30154","Name":"FR Jahnstr. / Hausen","MunicipalityCode":"00000000","Municipality":"-","DistrictCode":"-","District":"-","Description":"","Authority":"NVBW","DelfiName":"-","THID":"-","LastOperationDate":"","SEV":"nein","longitude":"9,105836","latitude":"48,292571","geojson_lng":9.105836,"geojson_lat":48.292571},"geometry":{"type":"Point","coordinates":[9.105836,48.292571]}},{"type":"Feature","properties":{"SeqNo":"79621","Type":"Q","DHID":"de:08417:30154:0:2","Parent":"de:08417:30154","Name":"FR Bahnhof","MunicipalityCode":"00000000","Municipality":"-","DistrictCode":"-","District":"-","Description":"","Authority":"NVBW","DelfiName":"-","THID":"-","LastOperationDate":"","SEV":"nein","longitude":"9,105845","latitude":"48,292511","geojson_lng":9.105845,"geojson_lat":48.292511},"geometry":{"type":"Point","coordinates":[9.105845,48.292511]}},{"type":"Feature","properties":{"SeqNo":"80512","Type":"S","DHID":"de:08417:30609","Parent":"de:08417:30609","Name":"Burladingen West","MunicipalityCode":"08417013","Municipality":"Burladingen","DistrictCode":"-","District":"-","Description":"","Authority":"NVBW","DelfiName":"-","THID":"D920E1007791","LastOperationDate":"2025-02-28T00:00:00","SEV":"nein","longitude":"9,098973","latitude":"48,29229","geojson_lng":9.098973,"geojson_lat":48.29229},"geometry":{"type":"Point","coordinates":[9.098973,48.29229]}},{"type":"Feature","properties":{"SeqNo":"80513","Type":"A","DHID":"de:08417:30609:1","Parent":"de:08417:30609","Name":"1","MunicipalityCode":"00000000","Municipality":"-","DistrictCode":"-","District":"-","Description":"Bus","Authority":"NVBW","DelfiName":"-","THID":"-","LastOperationDate":"","SEV":"nein","longitude":"9,099368","latitude":"48,292141","geojson_lng":9.099368,"geojson_lat":48.292141},"geometry":{"type":"Point","coordinates":[9.099368,48.292141]}},{"type":"Feature","properties":{"SeqNo":"80514","Type":"A","DHID":"de:08417:30609:2","Parent":"de:08417:30609","Name":"2","MunicipalityCode":"00000000","Municipality":"-","DistrictCode":"-","District":"-","Description":"Zug","Authority":"NVBW","DelfiName":"-","THID":"-","LastOperationDate":"","SEV":"nein","longitude":"9,099152","latitude":"48,29223","geojson_lng":9.099152,"geojson_lat":48.29223},"geometry":{"type":"Point","coordinates":[9.099152,48.29223]}},{"type":"Feature","properties":{"SeqNo":"80515","Type":"A","DHID":"de:08417:30609:90","Parent":"de:08417:30609","Name":"90","MunicipalityCode":"00000000","Municipality":"-","DistrictCode":"-","District":"-","Description":"Eingang","Authority":"NVBW","DelfiName":"-","THID":"-","LastOperationDate":"","SEV":"nein","longitude":"9,098667","latitude":"48,292392","geojson_lng":9.098667,"geojson_lat":48.292392},"geometry":{"type":"Point","coordinates":[9.098667,48.292392]}},{"type":"Feature","properties":{"SeqNo":"80516","Type":"Q","DHID":"de:08417:30609:2:1","Parent":"de:08417:30609:2","Name":"1","MunicipalityCode":"00000000","Municipality":"-","DistrictCode":"-","District":"-","Description":"Gleis","Authority":"NVBW","DelfiName":"-","THID":"-","LastOperationDate":"","SEV":"nein","longitude":"9,09926","latitude":"48,292195","geojson_lng":9.09926,"geojson_lat":48.292195},"geometry":{"type":"Point","coordinates":[9.09926,48.292195]}},{"type":"Feature","properties":{"SeqNo":"80664","Type":"S","DHID":"de:08417:30887","Parent":"de:08417:30887","Name":"Burladingen Josef-Mayer-Str.","MunicipalityCode":"08417013","Municipality":"Burladingen","DistrictCode":"","District":"","Description":"","Authority":"NVBW","DelfiName":"-","THID":"D920E10078A7","LastOperationDate":"2025-06-14T00:00:00","SEV":"nein","longitude":"9,101281","latitude":"48,290599","geojson_lng":9.101281,"geojson_lat":48.290599},"geometry":{"type":"Point","coordinates":[9.101281,48.290599]}},{"type":"Feature","properties":{"SeqNo":"80665","Type":"Q","DHID":"de:08417:30887:0:1","Parent":"de:08417:30887","Name":"FR Gauselfingen","MunicipalityCode":"00000000","Municipality":"-","DistrictCode":"-","District":"-","Description":"","Authority":"NVBW","DelfiName":"-","THID":"-","LastOperationDate":"","SEV":"nein","longitude":"9,101416","latitude":"48,290497","geojson_lng":9.101416,"geojson_lat":48.290497},"geometry":{"type":"Point","coordinates":[9.101416,48.290497]}},{"type":"Feature","properties":{"SeqNo":"80666","Type":"Q","DHID":"de:08417:30887:0:2","Parent":"de:08417:30887","Name":"FR Hausen","MunicipalityCode":"00000000","Municipality":"-","DistrictCode":"-","District":"-","Description":"","Authority":"NVBW","DelfiName":"-","THID":"-","LastOperationDate":"","SEV":"nein","longitude":"9,101578","latitude":"48,290539","geojson_lng":9.101578,"geojson_lat":48.290539},"geometry":{"type":"Point","coordinates":[9.101578,48.290539]}}]}