{"type":"FeatureCollection","features":[{"type":"Feature","properties":{"SeqNo":"674685","Type":"S","DHID":"de:05954:8037","Parent":"de:05954:8037","Name":"Sprockhövel Dorfstr.","MunicipalityCode":"05954028","Municipality":"Sprockhövel","DistrictCode":"","District":"","Description":"","Authority":"VRR","DelfiName":"-","THID":"D91742001F65","LastOperationDate":"2025-06-14T00:00:00","SEV":"nein","longitude":"7,282157","latitude":"51,332953","geojson_lng":7.282157,"geojson_lat":51.332953},"geometry":{"type":"Point","coordinates":[7.282157,51.332953]}},{"type":"Feature","properties":{"SeqNo":"674686","Type":"A","DHID":"de:05954:8037:1","Parent":"de:05954:8037","Name":"Ri BusBf","MunicipalityCode":"00000000","Municipality":"-","DistrictCode":"-","District":"-","Description":"","Authority":"VRR","DelfiName":"-","THID":"-","LastOperationDate":"","SEV":"nein","longitude":"7,282202","latitude":"51,333133","geojson_lng":7.282202,"geojson_lat":51.333133},"geometry":{"type":"Point","coordinates":[7.282202,51.333133]}},{"type":"Feature","properties":{"SeqNo":"674687","Type":"A","DHID":"de:05954:8037:2","Parent":"de:05954:8037","Name":"Ri Gevelsberg","MunicipalityCode":"00000000","Municipality":"-","DistrictCode":"-","District":"-","Description":"","Authority":"VRR","DelfiName":"-","THID":"-","LastOperationDate":"","SEV":"nein","longitude":"7,282337","latitude":"51,332263","geojson_lng":7.282337,"geojson_lat":51.332263},"geometry":{"type":"Point","coordinates":[7.282337,51.332263]}},{"type":"Feature","properties":{"SeqNo":"674688","Type":"Q","DHID":"de:05954:8037:0:1","Parent":"de:05954:8037:1","Name":"Ri. Haßlinghausen Busbahnhof","MunicipalityCode":"00000000","Municipality":"-","DistrictCode":"-","District":"-","Description":"","Authority":"VRR","DelfiName":"-","THID":"-","LastOperationDate":"","SEV":"nein","longitude":"7,28213","latitude":"51,333111","geojson_lng":7.28213,"geojson_lat":51.333111},"geometry":{"type":"Point","coordinates":[7.28213,51.333111]}},{"type":"Feature","properties":{"SeqNo":"674689","Type":"Q","DHID":"de:05954:8037:0:2","Parent":"de:05954:8037:2","Name":"Ri. Ennepetal/Schwelm","MunicipalityCode":"00000000","Municipality":"-","DistrictCode":"-","District":"-","Description":"","Authority":"VRR","DelfiName":"-","THID":"-","LastOperationDate":"","SEV":"nein","longitude":"7,282355","latitude":"51,332353","geojson_lng":7.282355,"geojson_lat":51.332353},"geometry":{"type":"Point","coordinates":[7.282355,51.332353]}},{"type":"Feature","properties":{"SeqNo":"674690","Type":"S","DHID":"de:05954:8038","Parent":"de:05954:8038","Name":"Sprockh. Haßlingh. Busbahnhof","MunicipalityCode":"05954028","Municipality":"Sprockhövel","DistrictCode":"","District":"","Description":"","Authority":"VRR","DelfiName":"-","THID":"D91742001F66","LastOperationDate":"2025-06-14T00:00:00","SEV":"nein","longitude":"7,28231","latitude":"51,334772","geojson_lng":7.28231,"geojson_lat":51.334772},"geometry":{"type":"Point","coordinates":[7.28231,51.334772]}},{"type":"Feature","properties":{"SeqNo":"674691","Type":"A","DHID":"de:05954:8038:1","Parent":"de:05954:8038","Name":"Bus Bf","MunicipalityCode":"00000000","Municipality":"-","DistrictCode":"-","District":"-","Description":"","Authority":"VRR","DelfiName":"-","THID":"-","LastOperationDate":"","SEV":"nein","longitude":"7,282399","latitude":"51,334716","geojson_lng":7.282399,"geojson_lat":51.334716},"geometry":{"type":"Point","coordinates":[7.282399,51.334716]}},{"type":"Feature","properties":{"SeqNo":"674692","Type":"Q","DHID":"de:05954:8038:0:1","Parent":"de:05954:8038:1","Name":"nur Ausstieg","MunicipalityCode":"00000000","Municipality":"-","DistrictCode":"-","District":"-","Description":"","Authority":"VRR","DelfiName":"-","THID":"-","LastOperationDate":"","SEV":"nein","longitude":"7,282696","latitude":"51,335075","geojson_lng":7.282696,"geojson_lat":51.335075},"geometry":{"type":"Point","coordinates":[7.282696,51.335075]}},{"type":"Feature","properties":{"SeqNo":"674693","Type":"Q","DHID":"de:05954:8038:0:2","Parent":"de:05954:8038:1","Name":"Ri. Ept.-Voerde 551","MunicipalityCode":"00000000","Municipality":"-","DistrictCode":"-","District":"-","Description":"","Authority":"VRR","DelfiName":"-","THID":"-","LastOperationDate":"","SEV":"nein","longitude":"7,282849","latitude":"51,334957","geojson_lng":7.282849,"geojson_lat":51.334957},"geometry":{"type":"Point","coordinates":[7.282849,51.334957]}},{"type":"Feature","properties":{"SeqNo":"674694","Type":"Q","DHID":"de:05954:8038:0:3","Parent":"de:05954:8038:1","Name":"Ri. Ennepetal SB37","MunicipalityCode":"00000000","Municipality":"-","DistrictCode":"-","District":"-","Description":"","Authority":"VRR","DelfiName":"-","THID":"-","LastOperationDate":"","SEV":"nein","longitude":"7,283091","latitude":"51,334693","geojson_lng":7.283091,"geojson_lat":51.334693},"geometry":{"type":"Point","coordinates":[7.283091,51.334693]}},{"type":"Feature","properties":{"SeqNo":"674695","Type":"Q","DHID":"de:05954:8038:0:4","Parent":"de:05954:8038:1","Name":"Ri. Wuppertal SB67","MunicipalityCode":"00000000","Municipality":"-","DistrictCode":"-","District":"-","Description":"","Authority":"VRR","DelfiName":"-","THID":"-","LastOperationDate":"","SEV":"nein","longitude":"7,283172","latitude":"51,334508","geojson_lng":7.283172,"geojson_lat":51.334508},"geometry":{"type":"Point","coordinates":[7.283172,51.334508]}},{"type":"Feature","properties":{"SeqNo":"674696","Type":"Q","DHID":"de:05954:8038:0:5","Parent":"de:05954:8038:1","Name":"Ri. Wuppertal 602","MunicipalityCode":"00000000","Municipality":"-","DistrictCode":"-","District":"-","Description":"","Authority":"VRR","DelfiName":"-","THID":"-","LastOperationDate":"","SEV":"nein","longitude":"7,283289","latitude":"51,334362","geojson_lng":7.283289,"geojson_lat":51.334362},"geometry":{"type":"Point","coordinates":[7.283289,51.334362]}},{"type":"Feature","properties":{"SeqNo":"674697","Type":"Q","DHID":"de:05954:8038:0:6","Parent":"de:05954:8038:1","Name":"Ri. Wuppertal 583 / Wetter 584","MunicipalityCode":"00000000","Municipality":"-","DistrictCode":"-","District":"-","Description":"","Authority":"VRR","DelfiName":"-","THID":"-","LastOperationDate":"","SEV":"nein","longitude":"7,28301","latitude":"51,334452","geojson_lng":7.28301,"geojson_lat":51.334452},"geometry":{"type":"Point","coordinates":[7.28301,51.334452]}},{"type":"Feature","properties":{"SeqNo":"674698","Type":"Q","DHID":"de:05954:8038:0:7","Parent":"de:05954:8038:1","Name":"Ri. Bochum SB37-NE4 / Niederspr. 557","MunicipalityCode":"00000000","Municipality":"-","DistrictCode":"-","District":"-","Description":"","Authority":"VRR","DelfiName":"-","THID":"-","LastOperationDate":"","SEV":"nein","longitude":"7,282885","latitude":"51,334615","geojson_lng":7.282885,"geojson_lat":51.334615},"geometry":{"type":"Point","coordinates":[7.282885,51.334615]}},{"type":"Feature","properties":{"SeqNo":"674699","Type":"Q","DHID":"de:05954:8038:0:8","Parent":"de:05954:8038:1","Name":"Ri. Bochum SB67 / Hiddingh. 551","MunicipalityCode":"00000000","Municipality":"-","DistrictCode":"-","District":"-","Description":"","Authority":"VRR","DelfiName":"-","THID":"-","LastOperationDate":"","SEV":"nein","longitude":"7,282831","latitude":"51,334755","geojson_lng":7.282831,"geojson_lat":51.334755},"geometry":{"type":"Point","coordinates":[7.282831,51.334755]}},{"type":"Feature","properties":{"SeqNo":"674700","Type":"Q","DHID":"de:05954:8038:0:9","Parent":"de:05954:8038:1","Name":"Ri. Bochum 379 / Wetter 593","MunicipalityCode":"00000000","Municipality":"-","DistrictCode":"-","District":"-","Description":"","Authority":"VRR","DelfiName":"-","THID":"-","LastOperationDate":"","SEV":"nein","longitude":"7,282498","latitude":"51,334963","geojson_lng":7.282498,"geojson_lat":51.334963},"geometry":{"type":"Point","coordinates":[7.282498,51.334963]}},{"type":"Feature","properties":{"SeqNo":"675673","Type":"S","DHID":"de:05954:8261","Parent":"de:05954:8261","Name":"Sprockhövel Poststr.","MunicipalityCode":"05954028","Municipality":"Sprockhövel","DistrictCode":"","District":"","Description":"","Authority":"VRR","DelfiName":"-","THID":"D91742002045","LastOperationDate":"2025-06-14T00:00:00","SEV":"nein","longitude":"7,277072","latitude":"51,333464","geojson_lng":7.277072,"geojson_lat":51.333464},"geometry":{"type":"Point","coordinates":[7.277072,51.333464]}},{"type":"Feature","properties":{"SeqNo":"675674","Type":"A","DHID":"de:05954:8261:1","Parent":"de:05954:8261","Name":"Ri Busbahnhof","MunicipalityCode":"00000000","Municipality":"-","DistrictCode":"-","District":"-","Description":"","Authority":"VRR","DelfiName":"-","THID":"-","LastOperationDate":"","SEV":"nein","longitude":"7,276686","latitude":"51,333324","geojson_lng":7.276686,"geojson_lat":51.333324},"geometry":{"type":"Point","coordinates":[7.276686,51.333324]}},{"type":"Feature","properties":{"SeqNo":"675675","Type":"A","DHID":"de:05954:8261:2","Parent":"de:05954:8261","Name":"Ri Wechtenbruch","MunicipalityCode":"00000000","Municipality":"-","DistrictCode":"-","District":"-","Description":"","Authority":"VRR","DelfiName":"-","THID":"-","LastOperationDate":"","SEV":"nein","longitude":"7,27736","latitude":"51,333537","geojson_lng":7.27736,"geojson_lat":51.333537},"geometry":{"type":"Point","coordinates":[7.27736,51.333537]}},{"type":"Feature","properties":{"SeqNo":"675676","Type":"Q","DHID":"de:05954:8261:0:1","Parent":"de:05954:8261:1","Name":"Ri. Haßlinghausen Busbahnhof","MunicipalityCode":"00000000","Municipality":"-","DistrictCode":"-","District":"-","Description":"","Authority":"VRR","DelfiName":"-","THID":"-","LastOperationDate":"","SEV":"nein","longitude":"7,276704","latitude":"51,333341","geojson_lng":7.276704,"geojson_lat":51.333341},"geometry":{"type":"Point","coordinates":[7.276704,51.333341]}},{"type":"Feature","properties":{"SeqNo":"675677","Type":"Q","DHID":"de:05954:8261:0:2","Parent":"de:05954:8261:2","Name":"Ri. Hattingen / Wuppertal","MunicipalityCode":"00000000","Municipality":"-","DistrictCode":"-","District":"-","Description":"","Authority":"VRR","DelfiName":"-","THID":"-","LastOperationDate":"","SEV":"nein","longitude":"7,277333","latitude":"51,333532","geojson_lng":7.277333,"geojson_lat":51.333532},"geometry":{"type":"Point","coordinates":[7.277333,51.333532]}}]}