{"type":"FeatureCollection","features":[{"type":"Feature","properties":{"highway":"bus_stop","public_transport":"platform","name":"Kapittelhof","ref:IFOPT":"NL:Q:72041100","_quaycode":"NL:Q:72041100","_town":"Bavel","_status":"available","_mode":"bus","_direction":289,"_visuallyAccessible":true,"_disabledAccessible":true,"geojson_lng":4.830432481320501,"geojson_lat":51.56807965786791},"geometry":{"type":"Point","coordinates":[4.830432481320501,51.56807965786791]}},{"type":"Feature","properties":{"highway":"bus_stop","public_transport":"platform","name":"Verschurenstraat","ref:IFOPT":"NL:Q:72040500","_quaycode":"NL:Q:72040500","_town":"Bavel","_status":"available","_mode":"bus","_direction":294,"_visuallyAccessible":false,"_disabledAccessible":false,"geojson_lng":4.833778688752941,"geojson_lat":51.566900037742016},"geometry":{"type":"Point","coordinates":[4.833778688752941,51.566900037742016]}},{"type":"Feature","properties":{"highway":"bus_stop","public_transport":"platform","name":"Hof","ref:IFOPT":"NL:Q:72040200","_quaycode":"NL:Q:72040200","_town":"Bavel","_status":"available","_mode":"bus","_direction":206,"_visuallyAccessible":false,"_disabledAccessible":true,"geojson_lng":4.828549588318947,"geojson_lat":51.56637179777182},"geometry":{"type":"Point","coordinates":[4.828549588318947,51.56637179777182]}},{"type":"Feature","properties":{"highway":"bus_stop","public_transport":"platform","name":"Kerkstraat","ref:IFOPT":"NL:Q:72040700","_quaycode":"NL:Q:72040700","_town":"Bavel","_status":"available","_mode":"bus","_direction":173,"_visuallyAccessible":false,"_disabledAccessible":false,"geojson_lng":4.825654218046588,"geojson_lat":51.56957590956306},"geometry":{"type":"Point","coordinates":[4.825654218046588,51.56957590956306]}},{"type":"Feature","properties":{"highway":"bus_stop","public_transport":"platform","name":"Schoutenlaan","ref:IFOPT":"NL:Q:72041000","_quaycode":"NL:Q:72041000","_town":"Bavel","_status":"available","_mode":"bus","_direction":140,"_visuallyAccessible":true,"_disabledAccessible":true,"geojson_lng":4.828620825759521,"geojson_lat":51.56409797744961},"geometry":{"type":"Point","coordinates":[4.828620825759521,51.56409797744961]}}]}