{"type":"FeatureCollection","features":[{"type":"Feature","properties":{"SeqNo":"758816","Type":"S","DHID":"de:07314:11001","Parent":"de:07314:11001","Name":"BASF, Tor 1/C10","MunicipalityCode":"07314000","Municipality":"Ludwigshafen am Rhein","DistrictCode":"07314","District":"","Description":"","Authority":"VRN","DelfiName":"-","THID":"D91C92002AF9","LastOperationDate":"1999-12-31T00:00:00","SEV":"nein","longitude":"8,435522","latitude":"49,495171","geojson_lng":8.435522,"geojson_lat":49.495171},"geometry":{"type":"Point","coordinates":[8.435522,49.495171]}},{"type":"Feature","properties":{"SeqNo":"758851","Type":"S","DHID":"de:07314:11040","Parent":"de:07314:11040","Name":"BASF, Tor 2/E200","MunicipalityCode":"07314000","Municipality":"Ludwigshafen am Rhein","DistrictCode":"07314","District":"","Description":"","Authority":"VRN","DelfiName":"-","THID":"D91C92002B20","LastOperationDate":"1999-12-31T00:00:00","SEV":"nein","longitude":"8,432234","latitude":"49,496548","geojson_lng":8.432234,"geojson_lat":49.496548},"geometry":{"type":"Point","coordinates":[8.432234,49.496548]}},{"type":"Feature","properties":{"SeqNo":"758853","Type":"S","DHID":"de:07314:11042","Parent":"de:07314:11042","Name":"BASF, Tor 2","MunicipalityCode":"07314000","Municipality":"Ludwigshafen am Rhein","DistrictCode":"07314","District":"","Description":"","Authority":"VRN","DelfiName":"-","THID":"D91C92002B22","LastOperationDate":"1999-12-31T00:00:00","SEV":"nein","longitude":"8,431453","latitude":"49,495929","geojson_lng":8.431453,"geojson_lat":49.495929},"geometry":{"type":"Point","coordinates":[8.431453,49.495929]}},{"type":"Feature","properties":{"SeqNo":"758854","Type":"S","DHID":"de:07314:11043","Parent":"de:07314:11043","Name":"BASF, D105","MunicipalityCode":"07314000","Municipality":"Ludwigshafen am Rhein","DistrictCode":"","District":"","Description":"","Authority":"VRN","DelfiName":"-","THID":"D91C92002B23","LastOperationDate":"2025-06-14T00:00:00","SEV":"nein","longitude":"8,432144","latitude":"49,496501","geojson_lng":8.432144,"geojson_lat":49.496501},"geometry":{"type":"Point","coordinates":[8.432144,49.496501]}},{"type":"Feature","properties":{"SeqNo":"758855","Type":"S","DHID":"de:07314:11044","Parent":"de:07314:11044","Name":"BASF, E202","MunicipalityCode":"07314000","Municipality":"Ludwigshafen am Rhein","DistrictCode":"-","District":"-","Description":"","Authority":"VRN","DelfiName":"-","THID":"D91C92002B24","LastOperationDate":"2025-06-14T00:00:00","SEV":"nein","longitude":"8,431991","latitude":"49,496483","geojson_lng":8.431991,"geojson_lat":49.496483},"geometry":{"type":"Point","coordinates":[8.431991,49.496483]}},{"type":"Feature","properties":{"SeqNo":"758856","Type":"S","DHID":"de:07314:11045","Parent":"de:07314:11045","Name":"BASF, Tor 1","MunicipalityCode":"07314000","Municipality":"Ludwigshafen am Rhein","DistrictCode":"","District":"","Description":"","Authority":"VRN","DelfiName":"-","THID":"D91C92002B25","LastOperationDate":"1999-12-31T00:00:00","SEV":"nein","longitude":"8,435046","latitude":"49,495089","geojson_lng":8.435046,"geojson_lat":49.495089},"geometry":{"type":"Point","coordinates":[8.435046,49.495089]}},{"type":"Feature","properties":{"SeqNo":"758961","Type":"A","DHID":"de:07314:2040:1","Parent":"de:07314:2040","Name":"BuRiN","MunicipalityCode":"00000000","Municipality":"-","DistrictCode":"-","District":"-","Description":"","Authority":"VRN","DelfiName":"-","THID":"-","LastOperationDate":"","SEV":"nein","longitude":"8,426727","latitude":"49,496518","geojson_lng":8.426727,"geojson_lat":49.496518},"geometry":{"type":"Point","coordinates":[8.426727,49.496518]}},{"type":"Feature","properties":{"SeqNo":"758963","Type":"A","DHID":"de:07314:2040:3","Parent":"de:07314:2040","Name":"BuRiS","MunicipalityCode":"00000000","Municipality":"-","DistrictCode":"-","District":"-","Description":"","Authority":"VRN","DelfiName":"-","THID":"-","LastOperationDate":"","SEV":"nein","longitude":"8,426781","latitude":"49,496419","geojson_lng":8.426781,"geojson_lat":49.496419},"geometry":{"type":"Point","coordinates":[8.426781,49.496419]}},{"type":"Feature","properties":{"SeqNo":"758964","Type":"A","DHID":"de:07314:2040:4","Parent":"de:07314:2040","Name":"TrRiS","MunicipalityCode":"00000000","Municipality":"-","DistrictCode":"-","District":"-","Description":"","Authority":"VRN","DelfiName":"-","THID":"-","LastOperationDate":"","SEV":"nein","longitude":"8,426961","latitude":"49,496746","geojson_lng":8.426961,"geojson_lat":49.496746},"geometry":{"type":"Point","coordinates":[8.426961,49.496746]}},{"type":"Feature","properties":{"SeqNo":"758965","Type":"Q","DHID":"de:07314:2040:1:BuRiN","Parent":"de:07314:2040:1","Name":"D Ri Fries. Mitte","MunicipalityCode":"00000000","Municipality":"-","DistrictCode":"-","District":"-","Description":"","Authority":"VRN","DelfiName":"-","THID":"-","LastOperationDate":"","SEV":"nein","longitude":"8,426727","latitude":"49,496518","geojson_lng":8.426727,"geojson_lat":49.496518},"geometry":{"type":"Point","coordinates":[8.426727,49.496518]}},{"type":"Feature","properties":{"SeqNo":"758967","Type":"Q","DHID":"de:07314:2040:3:BuRiS","Parent":"de:07314:2040:3","Name":"C Ri BASF Tor 1+2","MunicipalityCode":"00000000","Municipality":"-","DistrictCode":"-","District":"-","Description":"","Authority":"VRN","DelfiName":"-","THID":"-","LastOperationDate":"","SEV":"nein","longitude":"8,426781","latitude":"49,496419","geojson_lng":8.426781,"geojson_lat":49.496419},"geometry":{"type":"Point","coordinates":[8.426781,49.496419]}},{"type":"Feature","properties":{"SeqNo":"758968","Type":"Q","DHID":"de:07314:2040:4:TrRiS","Parent":"de:07314:2040:4","Name":"A Ri BASF Tor 1+2","MunicipalityCode":"00000000","Municipality":"-","DistrictCode":"-","District":"-","Description":"","Authority":"VRN","DelfiName":"-","THID":"-","LastOperationDate":"","SEV":"nein","longitude":"8,426961","latitude":"49,496752","geojson_lng":8.426961,"geojson_lat":49.496752},"geometry":{"type":"Point","coordinates":[8.426961,49.496752]}},{"type":"Feature","properties":{"SeqNo":"759065","Type":"S","DHID":"de:07314:2060","Parent":"de:07314:2060","Name":"Ludwigshafen, BASF (Tor 1+2)","MunicipalityCode":"07314000","Municipality":"Ludwigshafen am Rhein","DistrictCode":"","District":"","Description":"","Authority":"VRN","DelfiName":"-","THID":"D91C9200080C","LastOperationDate":"2025-06-14T00:00:00","SEV":"nein","longitude":"8,43156","latitude":"49,495579","geojson_lng":8.43156,"geojson_lat":49.495579},"geometry":{"type":"Point","coordinates":[8.43156,49.495579]}},{"type":"Feature","properties":{"SeqNo":"759066","Type":"A","DHID":"de:07314:2060:1","Parent":"de:07314:2060","Name":"Tram","MunicipalityCode":"00000000","Municipality":"-","DistrictCode":"-","District":"-","Description":"","Authority":"VRN","DelfiName":"-","THID":"-","LastOperationDate":"","SEV":"nein","longitude":"8,433159","latitude":"49,494815","geojson_lng":8.433159,"geojson_lat":49.494815},"geometry":{"type":"Point","coordinates":[8.433159,49.494815]}},{"type":"Feature","properties":{"SeqNo":"759067","Type":"A","DHID":"de:07314:2060:2","Parent":"de:07314:2060","Name":"Bus Ri N und S","MunicipalityCode":"00000000","Municipality":"-","DistrictCode":"-","District":"-","Description":"","Authority":"VRN","DelfiName":"-","THID":"-","LastOperationDate":"","SEV":"nein","longitude":"8,430689","latitude":"49,494622","geojson_lng":8.430689,"geojson_lat":49.494622},"geometry":{"type":"Point","coordinates":[8.430689,49.494622]}},{"type":"Feature","properties":{"SeqNo":"759068","Type":"A","DHID":"de:07314:2060:3","Parent":"de:07314:2060","Name":"BuRiW Schopenhaue","MunicipalityCode":"00000000","Municipality":"-","DistrictCode":"-","District":"-","Description":"","Authority":"VRN","DelfiName":"-","THID":"-","LastOperationDate":"","SEV":"nein","longitude":"8,432315","latitude":"49,495404","geojson_lng":8.432315,"geojson_lat":49.495404},"geometry":{"type":"Point","coordinates":[8.432315,49.495404]}},{"type":"Feature","properties":{"SeqNo":"759069","Type":"A","DHID":"de:07314:2060:4","Parent":"de:07314:2060","Name":"BuRiO BASF Süd","MunicipalityCode":"00000000","Municipality":"-","DistrictCode":"-","District":"-","Description":"","Authority":"VRN","DelfiName":"-","THID":"-","LastOperationDate":"","SEV":"nein","longitude":"8,430105","latitude":"49,495882","geojson_lng":8.430105,"geojson_lat":49.495882},"geometry":{"type":"Point","coordinates":[8.430105,49.495882]}},{"type":"Feature","properties":{"SeqNo":"759070","Type":"Q","DHID":"de:07314:2060:1:TrRiN","Parent":"de:07314:2060:1","Name":"B Ri Schopenhauerstr","MunicipalityCode":"00000000","Municipality":"-","DistrictCode":"-","District":"-","Description":"","Authority":"VRN","DelfiName":"-","THID":"-","LastOperationDate":"","SEV":"nein","longitude":"8,433123","latitude":"49,49485","geojson_lng":8.433123,"geojson_lat":49.49485},"geometry":{"type":"Point","coordinates":[8.433123,49.49485]}},{"type":"Feature","properties":{"SeqNo":"759071","Type":"Q","DHID":"de:07314:2060:1:TrRiS","Parent":"de:07314:2060:1","Name":"A Ri Hemshofstr","MunicipalityCode":"00000000","Municipality":"-","DistrictCode":"-","District":"-","Description":"","Authority":"VRN","DelfiName":"-","THID":"-","LastOperationDate":"","SEV":"nein","longitude":"8,433186","latitude":"49,494768","geojson_lng":8.433186,"geojson_lat":49.494768},"geometry":{"type":"Point","coordinates":[8.433186,49.494768]}},{"type":"Feature","properties":{"SeqNo":"759072","Type":"Q","DHID":"de:07314:2060:2:BuRiN","Parent":"de:07314:2060:2","Name":"F Ri Rheinfeldstr/BASF Süd","MunicipalityCode":"00000000","Municipality":"-","DistrictCode":"-","District":"-","Description":"","Authority":"VRN","DelfiName":"-","THID":"-","LastOperationDate":"","SEV":"nein","longitude":"8,430806","latitude":"49,494721","geojson_lng":8.430806,"geojson_lat":49.494721},"geometry":{"type":"Point","coordinates":[8.430806,49.494721]}},{"type":"Feature","properties":{"SeqNo":"759073","Type":"Q","DHID":"de:07314:2060:2:BuRiS","Parent":"de:07314:2060:2","Name":"E Ri Feierabendhaus","MunicipalityCode":"00000000","Municipality":"-","DistrictCode":"-","District":"-","Description":"","Authority":"VRN","DelfiName":"-","THID":"-","LastOperationDate":"","SEV":"nein","longitude":"8,430563","latitude":"49,494535","geojson_lng":8.430563,"geojson_lat":49.494535},"geometry":{"type":"Point","coordinates":[8.430563,49.494535]}},{"type":"Feature","properties":{"SeqNo":"759074","Type":"Q","DHID":"de:07314:2060:3:BuRiW","Parent":"de:07314:2060:3","Name":"C Ri Schopenhauerstr","MunicipalityCode":"00000000","Municipality":"-","DistrictCode":"-","District":"-","Description":"","Authority":"VRN","DelfiName":"-","THID":"-","LastOperationDate":"","SEV":"nein","longitude":"8,432315","latitude":"49,495416","geojson_lng":8.432315,"geojson_lat":49.495416},"geometry":{"type":"Point","coordinates":[8.432315,49.495416]}},{"type":"Feature","properties":{"SeqNo":"759075","Type":"Q","DHID":"de:07314:2060:4:BuRiO","Parent":"de:07314:2060:4","Name":"D Ri BASF Süd","MunicipalityCode":"00000000","Municipality":"-","DistrictCode":"-","District":"-","Description":"","Authority":"VRN","DelfiName":"-","THID":"-","LastOperationDate":"","SEV":"nein","longitude":"8,430096","latitude":"49,495871","geojson_lng":8.430096,"geojson_lat":49.495871},"geometry":{"type":"Point","coordinates":[8.430096,49.495871]}},{"type":"Feature","properties":{"SeqNo":"759127","Type":"S","DHID":"de:07314:2073","Parent":"de:07314:2073","Name":"Ludwigshafen, Feierabendhaus","MunicipalityCode":"07314000","Municipality":"Ludwigshafen am Rhein","DistrictCode":"-","District":"-","Description":"","Authority":"VRN","DelfiName":"-","THID":"D91C92000819","LastOperationDate":"2025-06-14T00:00:00","SEV":"nein","longitude":"8,427868","latitude":"49,492708","geojson_lng":8.427868,"geojson_lat":49.492708},"geometry":{"type":"Point","coordinates":[8.427868,49.492708]}},{"type":"Feature","properties":{"SeqNo":"759128","Type":"Q","DHID":"de:07314:2073:0:11","Parent":"de:07314:2073","Name":"B Ri Goerdelerplatz/Leuschnerstr","MunicipalityCode":"00000000","Municipality":"-","DistrictCode":"-","District":"-","Description":"","Authority":"VRN","DelfiName":"-","THID":"-","LastOperationDate":"","SEV":"nein","longitude":"8,427904","latitude":"49,492743","geojson_lng":8.427904,"geojson_lat":49.492743},"geometry":{"type":"Point","coordinates":[8.427904,49.492743]}},{"type":"Feature","properties":{"SeqNo":"759129","Type":"Q","DHID":"de:07314:2073:0:12","Parent":"de:07314:2073","Name":"A Ri BASF","MunicipalityCode":"00000000","Municipality":"-","DistrictCode":"-","District":"-","Description":"","Authority":"VRN","DelfiName":"-","THID":"-","LastOperationDate":"","SEV":"nein","longitude":"8,427832","latitude":"49,492673","geojson_lng":8.427832,"geojson_lat":49.492673},"geometry":{"type":"Point","coordinates":[8.427832,49.492673]}},{"type":"Feature","properties":{"SeqNo":"759138","Type":"S","DHID":"de:07314:2075","Parent":"de:07314:2075","Name":"Ludwigshafen, Goerdelerplatz","MunicipalityCode":"07314000","Municipality":"Ludwigshafen am Rhein","DistrictCode":"-","District":"-","Description":"","Authority":"VRN","DelfiName":"-","THID":"D91C9200081B","LastOperationDate":"2025-06-14T00:00:00","SEV":"nein","longitude":"8,431291","latitude":"49,489715","geojson_lng":8.431291,"geojson_lat":49.489715},"geometry":{"type":"Point","coordinates":[8.431291,49.489715]}},{"type":"Feature","properties":{"SeqNo":"759139","Type":"A","DHID":"de:07314:2075:1","Parent":"de:07314:2075","Name":"BuRiN Feierabendh","MunicipalityCode":"00000000","Municipality":"-","DistrictCode":"-","District":"-","Description":"BuRiN Feierabendh","Authority":"VRN","DelfiName":"-","THID":"-","LastOperationDate":"","SEV":"nein","longitude":"8,430967","latitude":"49,490059","geojson_lng":8.430967,"geojson_lat":49.490059},"geometry":{"type":"Point","coordinates":[8.430967,49.490059]}},{"type":"Feature","properties":{"SeqNo":"759141","Type":"Q","DHID":"de:07314:2075:1:BuRiN","Parent":"de:07314:2075:1","Name":"A Ri Feierabendhaus","MunicipalityCode":"00000000","Municipality":"-","DistrictCode":"-","District":"-","Description":"BuRiN Feierabendhaus","Authority":"VRN","DelfiName":"-","THID":"-","LastOperationDate":"","SEV":"nein","longitude":"8,430967","latitude":"49,490065","geojson_lng":8.430967,"geojson_lat":49.490065},"geometry":{"type":"Point","coordinates":[8.430967,49.490065]}},{"type":"Feature","properties":{"SeqNo":"759204","Type":"S","DHID":"de:07314:2084","Parent":"de:07314:2084","Name":"Ludwigshafen, Hemshofstraße","MunicipalityCode":"07314000","Municipality":"Ludwigshafen am Rhein","DistrictCode":"-","District":"-","Description":"","Authority":"VRN","DelfiName":"-","THID":"D91C92000824","LastOperationDate":"2025-06-14T00:00:00","SEV":"nein","longitude":"8,436887","latitude":"49,492154","geojson_lng":8.436887,"geojson_lat":49.492154},"geometry":{"type":"Point","coordinates":[8.436887,49.492154]}},{"type":"Feature","properties":{"SeqNo":"759205","Type":"A","DHID":"de:07314:2084:1","Parent":"de:07314:2084","Name":"TrRiN Rathaus","MunicipalityCode":"00000000","Municipality":"-","DistrictCode":"-","District":"-","Description":"TrRiN Rathaus","Authority":"VRN","DelfiName":"-","THID":"-","LastOperationDate":"","SEV":"nein","longitude":"8,436923","latitude":"49,49216","geojson_lng":8.436923,"geojson_lat":49.49216},"geometry":{"type":"Point","coordinates":[8.436923,49.49216]}},{"type":"Feature","properties":{"SeqNo":"759206","Type":"A","DHID":"de:07314:2084:2","Parent":"de:07314:2084","Name":"Zugang BASF Tor 7","MunicipalityCode":"00000000","Municipality":"-","DistrictCode":"-","District":"-","Description":"Zugang BASF Tor 7","Authority":"VRN","DelfiName":"-","THID":"-","LastOperationDate":"","SEV":"nein","longitude":"8,436663","latitude":"49,492341","geojson_lng":8.436663,"geojson_lat":49.492341},"geometry":{"type":"Point","coordinates":[8.436663,49.492341]}},{"type":"Feature","properties":{"SeqNo":"759207","Type":"A","DHID":"de:07314:2084:3","Parent":"de:07314:2084","Name":"Zugang Hemshofstr","MunicipalityCode":"00000000","Municipality":"-","DistrictCode":"-","District":"-","Description":"Zugang Hemshofstr","Authority":"VRN","DelfiName":"-","THID":"-","LastOperationDate":"","SEV":"nein","longitude":"8,436986","latitude":"49,491991","geojson_lng":8.436986,"geojson_lat":49.491991},"geometry":{"type":"Point","coordinates":[8.436986,49.491991]}},{"type":"Feature","properties":{"SeqNo":"759208","Type":"A","DHID":"de:07314:2084:4","Parent":"de:07314:2084","Name":"TrRiS BASF","MunicipalityCode":"00000000","Municipality":"-","DistrictCode":"-","District":"-","Description":"TrRiS BASF","Authority":"VRN","DelfiName":"-","THID":"-","LastOperationDate":"","SEV":"nein","longitude":"8,436887","latitude":"49,492125","geojson_lng":8.436887,"geojson_lat":49.492125},"geometry":{"type":"Point","coordinates":[8.436887,49.492125]}},{"type":"Feature","properties":{"SeqNo":"759209","Type":"Q","DHID":"de:07314:2084:1:TrRiN","Parent":"de:07314:2084:1","Name":"A Ri Rathaus","MunicipalityCode":"00000000","Municipality":"-","DistrictCode":"-","District":"-","Description":"TrRiN Rathaus","Authority":"VRN","DelfiName":"-","THID":"-","LastOperationDate":"","SEV":"nein","longitude":"8,436833","latitude":"49,492154","geojson_lng":8.436833,"geojson_lat":49.492154},"geometry":{"type":"Point","coordinates":[8.436833,49.492154]}},{"type":"Feature","properties":{"SeqNo":"759210","Type":"Q","DHID":"de:07314:2084:4:TrRiS","Parent":"de:07314:2084:4","Name":"B Ri BASF","MunicipalityCode":"00000000","Municipality":"-","DistrictCode":"-","District":"-","Description":"TrRiS BASF","Authority":"VRN","DelfiName":"-","THID":"-","LastOperationDate":"","SEV":"nein","longitude":"8,436896","latitude":"49,492166","geojson_lng":8.436896,"geojson_lat":49.492166},"geometry":{"type":"Point","coordinates":[8.436896,49.492166]}},{"type":"Feature","properties":{"SeqNo":"759277","Type":"S","DHID":"de:07314:2099","Parent":"de:07314:2099","Name":"Ludwigshafen, BASF Tor 2","MunicipalityCode":"07314000","Municipality":"Ludwigshafen am Rhein","DistrictCode":"07314","District":"","Description":"","Authority":"VRN","DelfiName":"-","THID":"D91C92000833","LastOperationDate":"1999-12-31T00:00:00","SEV":"nein","longitude":"8,431749","latitude":"49,495427","geojson_lng":8.431749,"geojson_lat":49.495427},"geometry":{"type":"Point","coordinates":[8.431749,49.495427]}},{"type":"Feature","properties":{"SeqNo":"759625","Type":"S","DHID":"de:07314:2184","Parent":"de:07314:2184","Name":"BASF, E200","MunicipalityCode":"07314000","Municipality":"Ludwigshafen am Rhein","DistrictCode":"07314","District":"","Description":"","Authority":"VRN","DelfiName":"-","THID":"D91C92000888","LastOperationDate":"1999-12-31T00:00:00","SEV":"nein","longitude":"8,432153","latitude":"49,496571","geojson_lng":8.432153,"geojson_lat":49.496571},"geometry":{"type":"Point","coordinates":[8.432153,49.496571]}},{"type":"Feature","properties":{"SeqNo":"759710","Type":"S","DHID":"de:07314:2213","Parent":"de:07314:2213","Name":"Ludwigshafen, BASF Tor 7","MunicipalityCode":"07314000","Municipality":"Ludwigshafen am Rhein","DistrictCode":"07314","District":"","Description":"","Authority":"VRN","DelfiName":"-","THID":"D91C920008A5","LastOperationDate":"1999-12-31T00:00:00","SEV":"nein","longitude":"8,437498","latitude":"49,492685","geojson_lng":8.437498,"geojson_lat":49.492685},"geometry":{"type":"Point","coordinates":[8.437498,49.492685]}},{"type":"Feature","properties":{"SeqNo":"759717","Type":"S","DHID":"de:07314:2219","Parent":"de:07314:2219","Name":"Ludwigshafen, BASF Süd","MunicipalityCode":"07314000","Municipality":"Ludwigshafen am Rhein","DistrictCode":"-","District":"-","Description":"","Authority":"VRN","DelfiName":"-","THID":"D91C920008AB","LastOperationDate":"2025-06-14T00:00:00","SEV":"nein","longitude":"8,436232","latitude":"49,492714","geojson_lng":8.436232,"geojson_lat":49.492714},"geometry":{"type":"Point","coordinates":[8.436232,49.492714]}},{"type":"Feature","properties":{"SeqNo":"759718","Type":"A","DHID":"de:07314:2219:1","Parent":"de:07314:2219","Name":"ZONE A","MunicipalityCode":"00000000","Municipality":"-","DistrictCode":"-","District":"-","Description":"ZONE A","Authority":"VRN","DelfiName":"-","THID":"-","LastOperationDate":"","SEV":"nein","longitude":"8,435953","latitude":"49,493105","geojson_lng":8.435953,"geojson_lat":49.493105},"geometry":{"type":"Point","coordinates":[8.435953,49.493105]}},{"type":"Feature","properties":{"SeqNo":"759719","Type":"A","DHID":"de:07314:2219:2","Parent":"de:07314:2219","Name":"ZONE B","MunicipalityCode":"00000000","Municipality":"-","DistrictCode":"-","District":"-","Description":"ZONE B","Authority":"VRN","DelfiName":"-","THID":"-","LastOperationDate":"","SEV":"nein","longitude":"8,435064","latitude":"49,493747","geojson_lng":8.435064,"geojson_lat":49.493747},"geometry":{"type":"Point","coordinates":[8.435064,49.493747]}},{"type":"Feature","properties":{"SeqNo":"759720","Type":"A","DHID":"de:07314:2219:3","Parent":"de:07314:2219","Name":"ZONE C","MunicipalityCode":"00000000","Municipality":"-","DistrictCode":"-","District":"-","Description":"ZONE C","Authority":"VRN","DelfiName":"-","THID":"-","LastOperationDate":"","SEV":"nein","longitude":"8,435935","latitude":"49,493123","geojson_lng":8.435935,"geojson_lat":49.493123},"geometry":{"type":"Point","coordinates":[8.435935,49.493123]}},{"type":"Feature","properties":{"SeqNo":"759721","Type":"A","DHID":"de:07314:2219:4","Parent":"de:07314:2219","Name":"ZONE D","MunicipalityCode":"00000000","Municipality":"-","DistrictCode":"-","District":"-","Description":"ZONE D","Authority":"VRN","DelfiName":"-","THID":"-","LastOperationDate":"","SEV":"nein","longitude":"8,435297","latitude":"49,493053","geojson_lng":8.435297,"geojson_lat":49.493053},"geometry":{"type":"Point","coordinates":[8.435297,49.493053]}},{"type":"Feature","properties":{"SeqNo":"759722","Type":"A","DHID":"de:07314:2219:5","Parent":"de:07314:2219","Name":"ZONE E","MunicipalityCode":"00000000","Municipality":"-","DistrictCode":"-","District":"-","Description":"ZONE E","Authority":"VRN","DelfiName":"-","THID":"-","LastOperationDate":"","SEV":"nein","longitude":"8,436106","latitude":"49,49244","geojson_lng":8.436106,"geojson_lat":49.49244},"geometry":{"type":"Point","coordinates":[8.436106,49.49244]}},{"type":"Feature","properties":{"SeqNo":"759723","Type":"Q","DHID":"de:07314:2219:1:A","Parent":"de:07314:2219:1","Name":"Zone A","MunicipalityCode":"00000000","Municipality":"-","DistrictCode":"-","District":"-","Description":"Zone A","Authority":"VRN","DelfiName":"-","THID":"-","LastOperationDate":"","SEV":"nein","longitude":"8,435944","latitude":"49,493105","geojson_lng":8.435944,"geojson_lat":49.493105},"geometry":{"type":"Point","coordinates":[8.435944,49.493105]}},{"type":"Feature","properties":{"SeqNo":"759724","Type":"Q","DHID":"de:07314:2219:2:B","Parent":"de:07314:2219:2","Name":"Zone B","MunicipalityCode":"00000000","Municipality":"-","DistrictCode":"-","District":"-","Description":"Zone B","Authority":"VRN","DelfiName":"-","THID":"-","LastOperationDate":"","SEV":"nein","longitude":"8,435073","latitude":"49,493753","geojson_lng":8.435073,"geojson_lat":49.493753},"geometry":{"type":"Point","coordinates":[8.435073,49.493753]}},{"type":"Feature","properties":{"SeqNo":"759725","Type":"Q","DHID":"de:07314:2219:3:C","Parent":"de:07314:2219:3","Name":"nicht mehr verwendet - Zone C","MunicipalityCode":"00000000","Municipality":"-","DistrictCode":"-","District":"-","Description":"Zone C","Authority":"VRN","DelfiName":"-","THID":"-","LastOperationDate":"","SEV":"nein","longitude":"8,435935","latitude":"49,493123","geojson_lng":8.435935,"geojson_lat":49.493123},"geometry":{"type":"Point","coordinates":[8.435935,49.493123]}},{"type":"Feature","properties":{"SeqNo":"759726","Type":"Q","DHID":"de:07314:2219:4:D","Parent":"de:07314:2219:4","Name":"Zone D","MunicipalityCode":"00000000","Municipality":"-","DistrictCode":"-","District":"-","Description":"Zone D","Authority":"VRN","DelfiName":"-","THID":"-","LastOperationDate":"","SEV":"nein","longitude":"8,435306","latitude":"49,493053","geojson_lng":8.435306,"geojson_lat":49.493053},"geometry":{"type":"Point","coordinates":[8.435306,49.493053]}},{"type":"Feature","properties":{"SeqNo":"759727","Type":"Q","DHID":"de:07314:2219:5:E","Parent":"de:07314:2219:5","Name":"Zone E","MunicipalityCode":"00000000","Municipality":"-","DistrictCode":"-","District":"-","Description":"Zone E","Authority":"VRN","DelfiName":"-","THID":"-","LastOperationDate":"","SEV":"nein","longitude":"8,436097","latitude":"49,49244","geojson_lng":8.436097,"geojson_lat":49.49244},"geometry":{"type":"Point","coordinates":[8.436097,49.49244]}},{"type":"Feature","properties":{"SeqNo":"759753","Type":"S","DHID":"de:07314:2239","Parent":"de:07314:2239","Name":"BASF, Tor 1/C106","MunicipalityCode":"07314000","Municipality":"Ludwigshafen am Rhein","DistrictCode":"-","District":"-","Description":"","Authority":"VRN","DelfiName":"-","THID":"D91C920008BF","LastOperationDate":"2025-06-14T00:00:00","SEV":"nein","longitude":"8,434659","latitude":"49,495404","geojson_lng":8.434659,"geojson_lat":49.495404},"geometry":{"type":"Point","coordinates":[8.434659,49.495404]}},{"type":"Feature","properties":{"SeqNo":"759754","Type":"S","DHID":"de:07314:2240","Parent":"de:07314:2240","Name":"BASF, E100","MunicipalityCode":"07314000","Municipality":"Ludwigshafen am Rhein","DistrictCode":"07314","District":"","Description":"","Authority":"VRN","DelfiName":"-","THID":"D91C920008C0","LastOperationDate":"1999-12-31T00:00:00","SEV":"nein","longitude":"8,432018","latitude":"49,496466","geojson_lng":8.432018,"geojson_lat":49.496466},"geometry":{"type":"Point","coordinates":[8.432018,49.496466]}},{"type":"Feature","properties":{"SeqNo":"759762","Type":"S","DHID":"de:07314:2248","Parent":"de:07314:2248","Name":"BASF, Tor 7/B9","MunicipalityCode":"07314000","Municipality":"Ludwigshafen am Rhein","DistrictCode":"-","District":"-","Description":"","Authority":"VRN","DelfiName":"-","THID":"D91C920008C8","LastOperationDate":"1999-12-31T00:00:00","SEV":"nein","longitude":"8,437211","latitude":"49,493333","geojson_lng":8.437211,"geojson_lat":49.493333},"geometry":{"type":"Point","coordinates":[8.437211,49.493333]}},{"type":"Feature","properties":{"SeqNo":"759763","Type":"S","DHID":"de:07314:2249","Parent":"de:07314:2249","Name":"BASF, C10","MunicipalityCode":"07314000","Municipality":"Ludwigshafen am Rhein","DistrictCode":"-","District":"-","Description":"","Authority":"VRN","DelfiName":"-","THID":"D91C920008C9","LastOperationDate":"2025-06-14T00:00:00","SEV":"nein","longitude":"8,43642","latitude":"49,495136","geojson_lng":8.43642,"geojson_lat":49.495136},"geometry":{"type":"Point","coordinates":[8.43642,49.495136]}},{"type":"Feature","properties":{"SeqNo":"759789","Type":"S","DHID":"de:07314:2274","Parent":"de:07314:2274","Name":"BASF, Tor 1+2/C104","MunicipalityCode":"07314000","Municipality":"Ludwigshafen am Rhein","DistrictCode":"07314","District":"","Description":"","Authority":"VRN","DelfiName":"-","THID":"D91C920008E2","LastOperationDate":"1999-12-31T00:00:00","SEV":"nein","longitude":"8,435127","latitude":"49,495101","geojson_lng":8.435127,"geojson_lat":49.495101},"geometry":{"type":"Point","coordinates":[8.435127,49.495101]}},{"type":"Feature","properties":{"SeqNo":"759801","Type":"S","DHID":"de:07314:2287","Parent":"de:07314:2287","Name":"BASF, B14","MunicipalityCode":"07314000","Municipality":"Ludwigshafen am Rhein","DistrictCode":"-","District":"-","Description":"","Authority":"VRN","DelfiName":"-","THID":"D91C920008EF","LastOperationDate":"1999-12-31T00:00:00","SEV":"nein","longitude":"8,436474","latitude":"49,495019","geojson_lng":8.436474,"geojson_lat":49.495019},"geometry":{"type":"Point","coordinates":[8.436474,49.495019]}}]}