{"type":"FeatureCollection","features":[{"type":"Feature","properties":{"SeqNo":"630660","Type":"S","DHID":"de:05711:10485","Parent":"de:05711:10485","Name":"Sennestadt, Sudeweg","MunicipalityCode":"05711000","Municipality":"Bielefeld","DistrictCode":"","District":"","Description":"","Authority":"VRR","DelfiName":"-","THID":"D9164F0028F5","LastOperationDate":"1999-12-31T00:00:00","SEV":"nein","longitude":"8,588559","latitude":"51,944259","geojson_lng":8.588559,"geojson_lat":51.944259},"geometry":{"type":"Point","coordinates":[8.588559,51.944259]}},{"type":"Feature","properties":{"SeqNo":"630860","Type":"S","DHID":"de:05711:5010","Parent":"de:05711:5010","Name":"Bi-Sennestadt, Altmühlstraße","MunicipalityCode":"05711000","Municipality":"Bielefeld","DistrictCode":"","District":"","Description":"","Authority":"VRR","DelfiName":"-","THID":"D9164F001392","LastOperationDate":"2025-06-13T00:00:00","SEV":"nein","longitude":"8,580717","latitude":"51,945621","geojson_lng":8.580717,"geojson_lat":51.945621},"geometry":{"type":"Point","coordinates":[8.580717,51.945621]}},{"type":"Feature","properties":{"SeqNo":"630861","Type":"A","DHID":"de:05711:5010:1","Parent":"de:05711:5010","Name":"Zugang","MunicipalityCode":"00000000","Municipality":"-","DistrictCode":"-","District":"-","Description":"","Authority":"VRR","DelfiName":"-","THID":"-","LastOperationDate":"","SEV":"nein","longitude":"8,580726","latitude":"51,945577","geojson_lng":8.580726,"geojson_lat":51.945577},"geometry":{"type":"Point","coordinates":[8.580726,51.945577]}},{"type":"Feature","properties":{"SeqNo":"630862","Type":"A","DHID":"de:05711:5010:2","Parent":"de:05711:5010","Name":"richt SenneSt","MunicipalityCode":"00000000","Municipality":"-","DistrictCode":"-","District":"-","Description":"","Authority":"VRR","DelfiName":"-","THID":"-","LastOperationDate":"","SEV":"nein","longitude":"8,5806","latitude":"51,945543","geojson_lng":8.5806,"geojson_lat":51.945543},"geometry":{"type":"Point","coordinates":[8.5806,51.945543]}},{"type":"Feature","properties":{"SeqNo":"630863","Type":"A","DHID":"de:05711:5010:3","Parent":"de:05711:5010","Name":"richt Bielef","MunicipalityCode":"00000000","Municipality":"-","DistrictCode":"-","District":"-","Description":"","Authority":"VRR","DelfiName":"-","THID":"-","LastOperationDate":"","SEV":"nein","longitude":"8,580609","latitude":"51,945776","geojson_lng":8.580609,"geojson_lat":51.945776},"geometry":{"type":"Point","coordinates":[8.580609,51.945776]}},{"type":"Feature","properties":{"SeqNo":"630864","Type":"Q","DHID":"de:05711:5010:2:2","Parent":"de:05711:5010:2","Name":"Ri SenSt","MunicipalityCode":"00000000","Municipality":"-","DistrictCode":"-","District":"-","Description":"","Authority":"VRR","DelfiName":"-","THID":"-","LastOperationDate":"","SEV":"nein","longitude":"8,580609","latitude":"51,945532","geojson_lng":8.580609,"geojson_lat":51.945532},"geometry":{"type":"Point","coordinates":[8.580609,51.945532]}},{"type":"Feature","properties":{"SeqNo":"630865","Type":"Q","DHID":"de:05711:5010:3:3","Parent":"de:05711:5010:3","Name":"Ri Bielef","MunicipalityCode":"00000000","Municipality":"-","DistrictCode":"-","District":"-","Description":"","Authority":"VRR","DelfiName":"-","THID":"-","LastOperationDate":"","SEV":"nein","longitude":"8,580627","latitude":"51,945782","geojson_lng":8.580627,"geojson_lat":51.945782},"geometry":{"type":"Point","coordinates":[8.580627,51.945782]}},{"type":"Feature","properties":{"SeqNo":"631379","Type":"S","DHID":"de:05711:5153","Parent":"de:05711:5153","Name":"Bi-Sennestadt, Sennestadthaus","MunicipalityCode":"05711000","Municipality":"Bielefeld","DistrictCode":"-","District":"-","Description":"","Authority":"VRR","DelfiName":"-","THID":"D9164F001421","LastOperationDate":"2025-01-06T00:00:00","SEV":"nein","longitude":"8,585882","latitude":"51,945621","geojson_lng":8.585882,"geojson_lat":51.945621},"geometry":{"type":"Point","coordinates":[8.585882,51.945621]}},{"type":"Feature","properties":{"SeqNo":"631380","Type":"Q","DHID":"de:05711:5153:0:1","Parent":"de:05711:5153","Name":"1","MunicipalityCode":"00000000","Municipality":"-","DistrictCode":"-","District":"-","Description":"Ehrenbergplatz","Authority":"VRR","DelfiName":"-","THID":"-","LastOperationDate":"","SEV":"nein","longitude":"8,585909","latitude":"51,945571","geojson_lng":8.585909,"geojson_lat":51.945571},"geometry":{"type":"Point","coordinates":[8.585909,51.945571]}},{"type":"Feature","properties":{"SeqNo":"631381","Type":"Q","DHID":"de:05711:5153:0:2","Parent":"de:05711:5153","Name":"2","MunicipalityCode":"00000000","Municipality":"-","DistrictCode":"-","District":"-","Description":"Dachsweg","Authority":"VRR","DelfiName":"-","THID":"-","LastOperationDate":"","SEV":"nein","longitude":"8,585918","latitude":"51,945621","geojson_lng":8.585918,"geojson_lat":51.945621},"geometry":{"type":"Point","coordinates":[8.585918,51.945621]}},{"type":"Feature","properties":{"SeqNo":"631382","Type":"Q","DHID":"de:05711:5153:0:3","Parent":"de:05711:5153","Name":"3","MunicipalityCode":"00000000","Municipality":"-","DistrictCode":"-","District":"-","Description":"","Authority":"VRR","DelfiName":"-","THID":"-","LastOperationDate":"","SEV":"nein","longitude":"8,585972","latitude":"51,945621","geojson_lng":8.585972,"geojson_lat":51.945621},"geometry":{"type":"Point","coordinates":[8.585972,51.945621]}},{"type":"Feature","properties":{"SeqNo":"631386","Type":"S","DHID":"de:05711:5155","Parent":"de:05711:5155","Name":"Bi-Sennestadt, Ehrenbergplatz","MunicipalityCode":"05711000","Municipality":"Bielefeld","DistrictCode":"-","District":"-","Description":"","Authority":"VRR","DelfiName":"-","THID":"D9164F001423","LastOperationDate":"2025-01-06T00:00:00","SEV":"nein","longitude":"8,588191","latitude":"51,947127","geojson_lng":8.588191,"geojson_lat":51.947127},"geometry":{"type":"Point","coordinates":[8.588191,51.947127]}},{"type":"Feature","properties":{"SeqNo":"631387","Type":"Q","DHID":"de:05711:5155:0:1","Parent":"de:05711:5155","Name":"Sennestadthaus","MunicipalityCode":"00000000","Municipality":"-","DistrictCode":"-","District":"-","Description":"Sennestadthaus","Authority":"VRR","DelfiName":"-","THID":"-","LastOperationDate":"","SEV":"nein","longitude":"8,588164","latitude":"51,947116","geojson_lng":8.588164,"geojson_lat":51.947116},"geometry":{"type":"Point","coordinates":[8.588164,51.947116]}},{"type":"Feature","properties":{"SeqNo":"631388","Type":"Q","DHID":"de:05711:5155:0:2","Parent":"de:05711:5155","Name":"Jochen-Klepper-Haus","MunicipalityCode":"00000000","Municipality":"-","DistrictCode":"-","District":"-","Description":"Jochen-Klepper-Haus","Authority":"VRR","DelfiName":"-","THID":"-","LastOperationDate":"","SEV":"nein","longitude":"8,588191","latitude":"51,947133","geojson_lng":8.588191,"geojson_lat":51.947133},"geometry":{"type":"Point","coordinates":[8.588191,51.947133]}},{"type":"Feature","properties":{"SeqNo":"631396","Type":"S","DHID":"de:05711:5163","Parent":"de:05711:5163","Name":"Bi-Sennestadt, Bullerbachweg","MunicipalityCode":"05711000","Municipality":"Bielefeld","DistrictCode":"-","District":"-","Description":"","Authority":"VRR","DelfiName":"-","THID":"D9164F00142B","LastOperationDate":"2025-01-06T00:00:00","SEV":"nein","longitude":"8,581318","latitude":"51,948113","geojson_lng":8.581318,"geojson_lat":51.948113},"geometry":{"type":"Point","coordinates":[8.581318,51.948113]}},{"type":"Feature","properties":{"SeqNo":"631795","Type":"S","DHID":"de:05711:5271","Parent":"de:05711:5271","Name":"Bi-Sennestadt, Jadeweg","MunicipalityCode":"05711000","Municipality":"Bielefeld","DistrictCode":"-","District":"-","Description":"","Authority":"VRR","DelfiName":"-","THID":"D9164F001497","LastOperationDate":"2025-01-06T00:00:00","SEV":"nein","longitude":"8,582432","latitude":"51,945604","geojson_lng":8.582432,"geojson_lat":51.945604},"geometry":{"type":"Point","coordinates":[8.582432,51.945604]}},{"type":"Feature","properties":{"SeqNo":"632764","Type":"S","DHID":"de:05711:5509","Parent":"de:05711:5509","Name":"Bi-Sennestadt, Sennestadtring","MunicipalityCode":"05711000","Municipality":"Bielefeld","DistrictCode":"-","District":"-","Description":"","Authority":"VRR","DelfiName":"-","THID":"D9164F001585","LastOperationDate":"2025-06-13T00:00:00","SEV":"nein","longitude":"8,584741","latitude":"51,944558","geojson_lng":8.584741,"geojson_lat":51.944558},"geometry":{"type":"Point","coordinates":[8.584741,51.944558]}}]}