{"type":"FeatureCollection","features":[{"type":"Feature","properties":{"SeqNo":"157860","Type":"S","DHID":"de:09275:15107","Parent":"de:09275:15107","Name":"Neukirchen a. Inn, Kirchplatz","MunicipalityCode":"09275133","Municipality":"Neuburg a. Inn","DistrictCode":"","District":"","Description":"","Authority":"BEG","DelfiName":"-","THID":"D9243B003B03","LastOperationDate":"2025-06-06T00:00:00","SEV":"nein","longitude":"13,372708","latitude":"48,519277","geojson_lng":13.372708,"geojson_lat":48.519277},"geometry":{"type":"Point","coordinates":[13.372708,48.519277]}},{"type":"Feature","properties":{"SeqNo":"157861","Type":"Q","DHID":"de:09275:15107:0:1","Parent":"de:09275:15107","Name":"Neukirchen a. Inn, Kirchplatz, Mast2","MunicipalityCode":"00000000","Municipality":"-","DistrictCode":"-","District":"-","Description":"","Authority":"BEG","DelfiName":"-","THID":"-","LastOperationDate":"","SEV":"nein","longitude":"13,372708","latitude":"48,519277","geojson_lng":13.372708,"geojson_lat":48.519277},"geometry":{"type":"Point","coordinates":[13.372708,48.519277]}},{"type":"Feature","properties":{"SeqNo":"158554","Type":"S","DHID":"de:09275:4089","Parent":"de:09275:4089","Name":"Neukirchen a. Inn, Raiba","MunicipalityCode":"09275133","Municipality":"Neuburg a. Inn","DistrictCode":"","District":"","Description":"","Authority":"BEG","DelfiName":"-","THID":"D9243B000FF9","LastOperationDate":"2025-06-14T00:00:00","SEV":"nein","longitude":"13,37348","latitude":"48,520438","geojson_lng":13.37348,"geojson_lat":48.520438},"geometry":{"type":"Point","coordinates":[13.37348,48.520438]}},{"type":"Feature","properties":{"SeqNo":"158555","Type":"Q","DHID":"de:09275:4089:0:1","Parent":"de:09275:4089","Name":"Neukirchen a. Inn, Raiba, Mast 1","MunicipalityCode":"00000000","Municipality":"-","DistrictCode":"-","District":"-","Description":"","Authority":"BEG","DelfiName":"-","THID":"-","LastOperationDate":"","SEV":"nein","longitude":"13,373381","latitude":"48,520384","geojson_lng":13.373381,"geojson_lat":48.520384},"geometry":{"type":"Point","coordinates":[13.373381,48.520384]}},{"type":"Feature","properties":{"SeqNo":"158556","Type":"Q","DHID":"de:09275:4089:0:2","Parent":"de:09275:4089","Name":"Neukirchen a. Inn, Raiba, Mast 2","MunicipalityCode":"00000000","Municipality":"-","DistrictCode":"-","District":"-","Description":"","Authority":"BEG","DelfiName":"-","THID":"-","LastOperationDate":"","SEV":"nein","longitude":"13,373588","latitude":"48,520491","geojson_lng":13.373588,"geojson_lat":48.520491},"geometry":{"type":"Point","coordinates":[13.373588,48.520491]}},{"type":"Feature","properties":{"SeqNo":"158558","Type":"A","DHID":"de:09275:4090:1","Parent":"de:09275:4090","Name":"Zug","MunicipalityCode":"00000000","Municipality":"-","DistrictCode":"-","District":"-","Description":"Zug","Authority":"BEG","DelfiName":"-","THID":"-","LastOperationDate":"","SEV":"nein","longitude":"13,370372","latitude":"48,517611","geojson_lng":13.370372,"geojson_lat":48.517611},"geometry":{"type":"Point","coordinates":[13.370372,48.517611]}},{"type":"Feature","properties":{"SeqNo":"158559","Type":"A","DHID":"de:09275:4090:30","Parent":"de:09275:4090","Name":"Bus","MunicipalityCode":"00000000","Municipality":"-","DistrictCode":"-","District":"-","Description":"Bus","Authority":"BEG","DelfiName":"-","THID":"-","LastOperationDate":"","SEV":"nein","longitude":"13,370426","latitude":"48,517338","geojson_lng":13.370426,"geojson_lat":48.517338},"geometry":{"type":"Point","coordinates":[13.370426,48.517338]}},{"type":"Feature","properties":{"SeqNo":"158560","Type":"A","DHID":"de:09275:4090:90","Parent":"de:09275:4090","Name":"Eingang","MunicipalityCode":"00000000","Municipality":"-","DistrictCode":"-","District":"-","Description":"Eingang","Authority":"BEG","DelfiName":"-","THID":"-","LastOperationDate":"","SEV":"nein","longitude":"13,370318","latitude":"48,517451","geojson_lng":13.370318,"geojson_lat":48.517451},"geometry":{"type":"Point","coordinates":[13.370318,48.517451]}},{"type":"Feature","properties":{"SeqNo":"158561","Type":"Q","DHID":"de:09275:4090:1:1","Parent":"de:09275:4090:1","Name":"Gleis 1","MunicipalityCode":"00000000","Municipality":"-","DistrictCode":"-","District":"-","Description":"Gleis 1","Authority":"BEG","DelfiName":"-","THID":"-","LastOperationDate":"","SEV":"nein","longitude":"13,370318","latitude":"48,517641","geojson_lng":13.370318,"geojson_lat":48.517641},"geometry":{"type":"Point","coordinates":[13.370318,48.517641]}},{"type":"Feature","properties":{"SeqNo":"158562","Type":"Q","DHID":"de:09275:4090:30:1","Parent":"de:09275:4090:30","Name":"Bus 1","MunicipalityCode":"00000000","Municipality":"-","DistrictCode":"-","District":"-","Description":"Bus 1","Authority":"BEG","DelfiName":"-","THID":"-","LastOperationDate":"","SEV":"nein","longitude":"13,370426","latitude":"48,517367","geojson_lng":13.370426,"geojson_lat":48.517367},"geometry":{"type":"Point","coordinates":[13.370426,48.517367]}},{"type":"Feature","properties":{"SeqNo":"158563","Type":"Q","DHID":"de:09275:4090:30:2","Parent":"de:09275:4090:30","Name":"Bus 2","MunicipalityCode":"00000000","Municipality":"-","DistrictCode":"-","District":"-","Description":"Bus 2","Authority":"BEG","DelfiName":"-","THID":"-","LastOperationDate":"","SEV":"nein","longitude":"13,37039","latitude":"48,517278","geojson_lng":13.37039,"geojson_lat":48.517278},"geometry":{"type":"Point","coordinates":[13.37039,48.517278]}}]}