{"type":"FeatureCollection","features":[{"type":"Feature","properties":{"SeqNo":"676512","Type":"S","DHID":"de:05954:8472","Parent":"de:05954:8472","Name":"Hattingen Murmanns Hof","MunicipalityCode":"05954016","Municipality":"Hattingen","DistrictCode":"","District":"","Description":"","Authority":"VRR","DelfiName":"-","THID":"D91742002118","LastOperationDate":"2025-06-14T00:00:00","SEV":"nein","longitude":"7,243934","latitude":"51,382576","geojson_lng":7.243934,"geojson_lat":51.382576},"geometry":{"type":"Point","coordinates":[7.243934,51.382576]}},{"type":"Feature","properties":{"SeqNo":"676513","Type":"A","DHID":"de:05954:8472:1","Parent":"de:05954:8472","Name":"Für Steig 1","MunicipalityCode":"00000000","Municipality":"-","DistrictCode":"-","District":"-","Description":"","Authority":"VRR","DelfiName":"-","THID":"-","LastOperationDate":"","SEV":"nein","longitude":"7,242415","latitude":"51,382968","geojson_lng":7.242415,"geojson_lat":51.382968},"geometry":{"type":"Point","coordinates":[7.242415,51.382968]}},{"type":"Feature","properties":{"SeqNo":"676514","Type":"A","DHID":"de:05954:8472:2","Parent":"de:05954:8472","Name":"Für Steig 2","MunicipalityCode":"00000000","Municipality":"-","DistrictCode":"-","District":"-","Description":"","Authority":"VRR","DelfiName":"-","THID":"-","LastOperationDate":"","SEV":"nein","longitude":"7,24494","latitude":"51,38197","geojson_lng":7.24494,"geojson_lat":51.38197},"geometry":{"type":"Point","coordinates":[7.24494,51.38197]}},{"type":"Feature","properties":{"SeqNo":"676515","Type":"Q","DHID":"de:05954:8472:0:1","Parent":"de:05954:8472:1","Name":"Ri. Heierberg","MunicipalityCode":"00000000","Municipality":"-","DistrictCode":"-","District":"-","Description":"","Authority":"VRR","DelfiName":"-","THID":"-","LastOperationDate":"","SEV":"nein","longitude":"7,242353","latitude":"51,382951","geojson_lng":7.242353,"geojson_lat":51.382951},"geometry":{"type":"Point","coordinates":[7.242353,51.382951]}},{"type":"Feature","properties":{"SeqNo":"676516","Type":"Q","DHID":"de:05954:8472:0:2","Parent":"de:05954:8472:2","Name":"Ri. Zur Voßkuhle","MunicipalityCode":"00000000","Municipality":"-","DistrictCode":"-","District":"-","Description":"","Authority":"VRR","DelfiName":"-","THID":"-","LastOperationDate":"","SEV":"nein","longitude":"7,244967","latitude":"51,381993","geojson_lng":7.244967,"geojson_lat":51.381993},"geometry":{"type":"Point","coordinates":[7.244967,51.381993]}},{"type":"Feature","properties":{"SeqNo":"676691","Type":"S","DHID":"de:05954:8511","Parent":"de:05954:8511","Name":"Hattingen Zur Voßkuhle","MunicipalityCode":"05954016","Municipality":"Hattingen","DistrictCode":"","District":"","Description":"","Authority":"VRR","DelfiName":"-","THID":"D9174200213F","LastOperationDate":"2025-06-14T00:00:00","SEV":"nein","longitude":"7,246727","latitude":"51,381208","geojson_lng":7.246727,"geojson_lat":51.381208},"geometry":{"type":"Point","coordinates":[7.246727,51.381208]}},{"type":"Feature","properties":{"SeqNo":"676692","Type":"A","DHID":"de:05954:8511:1","Parent":"de:05954:8511","Name":"","MunicipalityCode":"00000000","Municipality":"-","DistrictCode":"-","District":"-","Description":"","Authority":"VRR","DelfiName":"-","THID":"-","LastOperationDate":"","SEV":"nein","longitude":"7,246799","latitude":"51,381168","geojson_lng":7.246799,"geojson_lat":51.381168},"geometry":{"type":"Point","coordinates":[7.246799,51.381168]}},{"type":"Feature","properties":{"SeqNo":"676693","Type":"Q","DHID":"de:05954:8511:0:1","Parent":"de:05954:8511:1","Name":"Ri Murmanns Hof","MunicipalityCode":"00000000","Municipality":"-","DistrictCode":"-","District":"-","Description":"","Authority":"VRR","DelfiName":"-","THID":"-","LastOperationDate":"","SEV":"nein","longitude":"7,246772","latitude":"51,381208","geojson_lng":7.246772,"geojson_lat":51.381208},"geometry":{"type":"Point","coordinates":[7.246772,51.381208]}},{"type":"Feature","properties":{"SeqNo":"676694","Type":"Q","DHID":"de:05954:8511:0:2","Parent":"de:05954:8511:1","Name":"Ri Bergstr.","MunicipalityCode":"00000000","Municipality":"-","DistrictCode":"-","District":"-","Description":"","Authority":"VRR","DelfiName":"-","THID":"-","LastOperationDate":"","SEV":"nein","longitude":"7,246844","latitude":"51,381129","geojson_lng":7.246844,"geojson_lat":51.381129},"geometry":{"type":"Point","coordinates":[7.246844,51.381129]}}]}