{"type":"FeatureCollection","features":[{"type":"Feature","properties":{"SeqNo":"533480","Type":"S","DHID":"de:05124:11611","Parent":"de:05124:11611","Name":"Wuppertal Nächstebreck Bruch","MunicipalityCode":"05124000","Municipality":"Wuppertal","DistrictCode":"","District":"","Description":"","Authority":"VRR","DelfiName":"-","THID":"D91404002D5B","LastOperationDate":"2025-06-14T00:00:00","SEV":"nein","longitude":"7,246889","latitude":"51,298131","geojson_lng":7.246889,"geojson_lat":51.298131},"geometry":{"type":"Point","coordinates":[7.246889,51.298131]}},{"type":"Feature","properties":{"SeqNo":"533481","Type":"A","DHID":"de:05124:11611:1","Parent":"de:05124:11611","Name":"iR Silberkuhle","MunicipalityCode":"00000000","Municipality":"-","DistrictCode":"-","District":"-","Description":"","Authority":"VRR","DelfiName":"-","THID":"-","LastOperationDate":"","SEV":"nein","longitude":"7,246754","latitude":"51,298142","geojson_lng":7.246754,"geojson_lat":51.298142},"geometry":{"type":"Point","coordinates":[7.246754,51.298142]}},{"type":"Feature","properties":{"SeqNo":"533482","Type":"A","DHID":"de:05124:11611:2","Parent":"de:05124:11611","Name":"iR Windhövel","MunicipalityCode":"00000000","Municipality":"-","DistrictCode":"-","District":"-","Description":"","Authority":"VRR","DelfiName":"-","THID":"-","LastOperationDate":"","SEV":"nein","longitude":"7,247033","latitude":"51,298142","geojson_lng":7.247033,"geojson_lat":51.298142},"geometry":{"type":"Point","coordinates":[7.247033,51.298142]}},{"type":"Feature","properties":{"SeqNo":"533483","Type":"Q","DHID":"de:05124:11611:0:1","Parent":"de:05124:11611:1","Name":"iR Silberkuhle","MunicipalityCode":"00000000","Municipality":"-","DistrictCode":"-","District":"-","Description":"","Authority":"VRR","DelfiName":"-","THID":"-","LastOperationDate":"","SEV":"nein","longitude":"7,246718","latitude":"51,29817","geojson_lng":7.246718,"geojson_lat":51.29817},"geometry":{"type":"Point","coordinates":[7.246718,51.29817]}},{"type":"Feature","properties":{"SeqNo":"533484","Type":"Q","DHID":"de:05124:11611:0:2","Parent":"de:05124:11611:2","Name":"iR Windhövel","MunicipalityCode":"00000000","Municipality":"-","DistrictCode":"-","District":"-","Description":"","Authority":"VRR","DelfiName":"-","THID":"-","LastOperationDate":"","SEV":"nein","longitude":"7,247069","latitude":"51,298142","geojson_lng":7.247069,"geojson_lat":51.298142},"geometry":{"type":"Point","coordinates":[7.247069,51.298142]}},{"type":"Feature","properties":{"SeqNo":"533485","Type":"S","DHID":"de:05124:11612","Parent":"de:05124:11612","Name":"Wuppertal Windhövel","MunicipalityCode":"05124000","Municipality":"Wuppertal","DistrictCode":"","District":"","Description":"","Authority":"VRR","DelfiName":"-","THID":"D91404002D5C","LastOperationDate":"2025-06-14T00:00:00","SEV":"nein","longitude":"7,25006","latitude":"51,299636","geojson_lng":7.25006,"geojson_lat":51.299636},"geometry":{"type":"Point","coordinates":[7.25006,51.299636]}},{"type":"Feature","properties":{"SeqNo":"533486","Type":"Q","DHID":"de:05124:11612:0:1","Parent":"de:05124:11612","Name":"-> Nächstebreck Bruch","MunicipalityCode":"00000000","Municipality":"-","DistrictCode":"-","District":"-","Description":"","Authority":"VRR","DelfiName":"-","THID":"-","LastOperationDate":"","SEV":"nein","longitude":"7,250132","latitude":"51,299748","geojson_lng":7.250132,"geojson_lat":51.299748},"geometry":{"type":"Point","coordinates":[7.250132,51.299748]}},{"type":"Feature","properties":{"SeqNo":"533487","Type":"Q","DHID":"de:05124:11612:0:2","Parent":"de:05124:11612","Name":"-> Uhlenbruch","MunicipalityCode":"00000000","Municipality":"-","DistrictCode":"-","District":"-","Description":"","Authority":"VRR","DelfiName":"-","THID":"-","LastOperationDate":"","SEV":"nein","longitude":"7,249934","latitude":"51,299518","geojson_lng":7.249934,"geojson_lat":51.299518},"geometry":{"type":"Point","coordinates":[7.249934,51.299518]}}]}