{"type":"FeatureCollection","features":[{"type":"Feature","properties":{"SeqNo":"41423","Type":"A","DHID":"de:08215:1235:5","Parent":"de:08215:1235","Name":"SEV","MunicipalityCode":"00000000","Municipality":"-","DistrictCode":"-","District":"-","Description":"","Authority":"NVBW","DelfiName":"-","THID":"-","LastOperationDate":"","SEV":"nein","longitude":"8,416064","latitude":"48,936974","geojson_lng":8.416064,"geojson_lat":48.936974},"geometry":{"type":"Point","coordinates":[8.416064,48.936974]}},{"type":"Feature","properties":{"SeqNo":"41429","Type":"Q","DHID":"de:08215:1235:5:51","Parent":"de:08215:1235:5","Name":"SEV Ri Busenbach","MunicipalityCode":"00000000","Municipality":"-","DistrictCode":"-","District":"-","Description":"","Authority":"NVBW","DelfiName":"-","THID":"-","LastOperationDate":"","SEV":"nein","longitude":"8,416109","latitude":"48,937027","geojson_lng":8.416109,"geojson_lat":48.937027},"geometry":{"type":"Point","coordinates":[8.416109,48.937027]}},{"type":"Feature","properties":{"SeqNo":"41430","Type":"Q","DHID":"de:08215:1235:5:52","Parent":"de:08215:1235:5","Name":"zum Löschen","MunicipalityCode":"00000000","Municipality":"-","DistrictCode":"-","District":"-","Description":"","Authority":"NVBW","DelfiName":"-","THID":"-","LastOperationDate":"","SEV":"nein","longitude":"8,415436","latitude":"48,93721","geojson_lng":8.415436,"geojson_lat":48.93721},"geometry":{"type":"Point","coordinates":[8.415436,48.93721]}},{"type":"Feature","properties":{"SeqNo":"43926","Type":"S","DHID":"de:08215:37219","Parent":"de:08215:37219","Name":"Ettlingen Pforzheimer Straße","MunicipalityCode":"08215017","Municipality":"Ettlingen","DistrictCode":"","District":"","Description":"","Authority":"NVBW","DelfiName":"-","THID":"D92017009163","LastOperationDate":"1999-12-31T00:00:00","SEV":"nein","longitude":"8,419954","latitude":"48,937818","geojson_lng":8.419954,"geojson_lat":48.937818},"geometry":{"type":"Point","coordinates":[8.419954,48.937818]}},{"type":"Feature","properties":{"SeqNo":"44334","Type":"S","DHID":"de:08215:8137","Parent":"de:08215:8137","Name":"Ettlingen Hallenbad","MunicipalityCode":"08215017","Municipality":"Ettlingen","DistrictCode":"","District":"","Description":"","Authority":"NVBW","DelfiName":"-","THID":"D92017001FC9","LastOperationDate":"2025-06-13T00:00:00","SEV":"nein","longitude":"8,415939","latitude":"48,938715","geojson_lng":8.415939,"geojson_lat":48.938715},"geometry":{"type":"Point","coordinates":[8.415939,48.938715]}},{"type":"Feature","properties":{"SeqNo":"44335","Type":"A","DHID":"de:08215:8137:1","Parent":"de:08215:8137","Name":"Bus","MunicipalityCode":"00000000","Municipality":"-","DistrictCode":"-","District":"-","Description":"","Authority":"NVBW","DelfiName":"-","THID":"-","LastOperationDate":"","SEV":"nein","longitude":"8,415867","latitude":"48,938685","geojson_lng":8.415867,"geojson_lat":48.938685},"geometry":{"type":"Point","coordinates":[8.415867,48.938685]}},{"type":"Feature","properties":{"SeqNo":"44336","Type":"Q","DHID":"de:08215:8137:1:1","Parent":"de:08215:8137:1","Name":"Bus","MunicipalityCode":"00000000","Municipality":"-","DistrictCode":"-","District":"-","Description":"","Authority":"NVBW","DelfiName":"-","THID":"-","LastOperationDate":"","SEV":"nein","longitude":"8,41584","latitude":"48,938662","geojson_lng":8.41584,"geojson_lat":48.938662},"geometry":{"type":"Point","coordinates":[8.41584,48.938662]}}]}