{"type":"FeatureCollection","features":[{"type":"Feature","properties":{"SeqNo":"698994","Type":"A","DHID":"de:05962:3023:1","Parent":"de:05962:3023","Name":"Bus","Latitude":"51,371602","Longitude":"7,860277","MunicipalityCode":"00000000","Municipality":"-","DistrictCode":"-","District":"-","Description":"","Authority":"VRR","DelfiName":"-","THID":"-","TariffProvider":"-","LastOperationDate":"","SEV":"nein","geojson_lng":7.860277,"geojson_lat":51.371602},"geometry":{"type":"Point","coordinates":[7.860277,51.371602]}},{"type":"Feature","properties":{"SeqNo":"698997","Type":"A","DHID":"de:05962:3023:89","Parent":"de:05962:3023","Name":"Schienenersatzv.","Latitude":"51,371597","Longitude":"7,860331","MunicipalityCode":"00000000","Municipality":"-","DistrictCode":"-","District":"-","Description":"","Authority":"VRR","DelfiName":"-","THID":"-","TariffProvider":"-","LastOperationDate":"","SEV":"nein","geojson_lng":7.860331,"geojson_lat":51.371597},"geometry":{"type":"Point","coordinates":[7.860331,51.371597]}},{"type":"Feature","properties":{"SeqNo":"699000","Type":"Q","DHID":"de:05962:3023:1:1","Parent":"de:05962:3023:1","Name":"Menden","Latitude":"51,371703","Longitude":"7,86034","MunicipalityCode":"00000000","Municipality":"-","DistrictCode":"-","District":"-","Description":"","Authority":"VRR","DelfiName":"-","THID":"-","TariffProvider":"-","LastOperationDate":"","SEV":"nein","geojson_lng":7.86034,"geojson_lat":51.371703},"geometry":{"type":"Point","coordinates":[7.86034,51.371703]}},{"type":"Feature","properties":{"SeqNo":"699001","Type":"Q","DHID":"de:05962:3023:1:2","Parent":"de:05962:3023:1","Name":"Balve","Latitude":"51,371692","Longitude":"7,860214","MunicipalityCode":"00000000","Municipality":"-","DistrictCode":"-","District":"-","Description":"","Authority":"VRR","DelfiName":"-","THID":"-","TariffProvider":"-","LastOperationDate":"","SEV":"nein","geojson_lng":7.860214,"geojson_lat":51.371692},"geometry":{"type":"Point","coordinates":[7.860214,51.371692]}},{"type":"Feature","properties":{"SeqNo":"699002","Type":"Q","DHID":"de:05962:3023:89:89","Parent":"de:05962:3023:89","Name":"SEV","Latitude":"51,371692","Longitude":"7,860322","MunicipalityCode":"00000000","Municipality":"-","DistrictCode":"-","District":"-","Description":"","Authority":"VRR","DelfiName":"-","THID":"-","TariffProvider":"-","LastOperationDate":"","SEV":"nein","geojson_lng":7.860322,"geojson_lat":51.371692},"geometry":{"type":"Point","coordinates":[7.860322,51.371692]}}]}