{"type":"FeatureCollection","features":[{"type":"Feature","properties":{"SeqNo":"686042","Type":"A","DHID":"de:05962:3023:1","Parent":"de:05962:3023","Name":"Bus","MunicipalityCode":"00000000","Municipality":"-","DistrictCode":"-","District":"-","Description":"","Authority":"VRR","DelfiName":"-","THID":"-","LastOperationDate":"","SEV":"nein","longitude":"7,860277","latitude":"51,371602","geojson_lng":7.860277,"geojson_lat":51.371602},"geometry":{"type":"Point","coordinates":[7.860277,51.371602]}},{"type":"Feature","properties":{"SeqNo":"686045","Type":"A","DHID":"de:05962:3023:89","Parent":"de:05962:3023","Name":"Schienenersatzv.","MunicipalityCode":"00000000","Municipality":"-","DistrictCode":"-","District":"-","Description":"","Authority":"VRR","DelfiName":"-","THID":"-","LastOperationDate":"","SEV":"nein","longitude":"7,860331","latitude":"51,371597","geojson_lng":7.860331,"geojson_lat":51.371597},"geometry":{"type":"Point","coordinates":[7.860331,51.371597]}},{"type":"Feature","properties":{"SeqNo":"686048","Type":"Q","DHID":"de:05962:3023:1:1","Parent":"de:05962:3023:1","Name":"Menden","MunicipalityCode":"00000000","Municipality":"-","DistrictCode":"-","District":"-","Description":"","Authority":"VRR","DelfiName":"-","THID":"-","LastOperationDate":"","SEV":"nein","longitude":"7,86034","latitude":"51,371703","geojson_lng":7.86034,"geojson_lat":51.371703},"geometry":{"type":"Point","coordinates":[7.86034,51.371703]}},{"type":"Feature","properties":{"SeqNo":"686049","Type":"Q","DHID":"de:05962:3023:1:2","Parent":"de:05962:3023:1","Name":"Balve","MunicipalityCode":"00000000","Municipality":"-","DistrictCode":"-","District":"-","Description":"","Authority":"VRR","DelfiName":"-","THID":"-","LastOperationDate":"","SEV":"nein","longitude":"7,860214","latitude":"51,371692","geojson_lng":7.860214,"geojson_lat":51.371692},"geometry":{"type":"Point","coordinates":[7.860214,51.371692]}},{"type":"Feature","properties":{"SeqNo":"686050","Type":"Q","DHID":"de:05962:3023:89:89","Parent":"de:05962:3023:89","Name":"SEV","MunicipalityCode":"00000000","Municipality":"-","DistrictCode":"-","District":"-","Description":"","Authority":"VRR","DelfiName":"-","THID":"-","LastOperationDate":"","SEV":"nein","longitude":"7,860322","latitude":"51,371692","geojson_lng":7.860322,"geojson_lat":51.371692},"geometry":{"type":"Point","coordinates":[7.860322,51.371692]}}]}