{"type":"FeatureCollection","features":[{"type":"Feature","properties":{"SeqNo":"747825","Type":"S","DHID":"de:07133:30004","Parent":"de:07133:30004","Name":"Bad Kreuznach, Löwensteg","MunicipalityCode":"07133006","Municipality":"Bad Kreuznach","DistrictCode":"07133","District":"","Description":"","Authority":"VRN","DelfiName":"-","THID":"D91BDD007534","LastOperationDate":"1999-12-31T00:00:00","SEV":"nein","longitude":"7,866286","latitude":"49,841416","geojson_lng":7.866286,"geojson_lat":49.841416},"geometry":{"type":"Point","coordinates":[7.866286,49.841416]}},{"type":"Feature","properties":{"SeqNo":"747844","Type":"S","DHID":"de:07133:30021","Parent":"de:07133:30021","Name":"Bad Kreuznach, Kornmarkt","MunicipalityCode":"07133006","Municipality":"Bad Kreuznach","DistrictCode":"","District":"","Description":"","Authority":"VRN","DelfiName":"-","THID":"D91BDD007545","LastOperationDate":"2025-06-14T00:00:00","SEV":"nein","longitude":"7,857501","latitude":"49,84353","geojson_lng":7.857501,"geojson_lat":49.84353},"geometry":{"type":"Point","coordinates":[7.857501,49.84353]}},{"type":"Feature","properties":{"SeqNo":"747848","Type":"S","DHID":"de:07133:30025","Parent":"de:07133:30025","Name":"Bad Kreuznach, Waldemarstraße","MunicipalityCode":"07133006","Municipality":"Bad Kreuznach","DistrictCode":"-","District":"-","Description":"","Authority":"VRN","DelfiName":"-","THID":"D91BDD007549","LastOperationDate":"2025-06-14T00:00:00","SEV":"nein","longitude":"7,86502","latitude":"49,83798","geojson_lng":7.86502,"geojson_lat":49.83798},"geometry":{"type":"Point","coordinates":[7.86502,49.83798]}},{"type":"Feature","properties":{"SeqNo":"747879","Type":"S","DHID":"de:07133:30051","Parent":"de:07133:30051","Name":"Bad Kreuznach, Bourger Pl/Ener","MunicipalityCode":"07133006","Municipality":"Bad Kreuznach","DistrictCode":"","District":"","Description":"","Authority":"VRN","DelfiName":"-","THID":"D91BDD007563","LastOperationDate":"2025-06-14T00:00:00","SEV":"nein","longitude":"7,861615","latitude":"49,844063","geojson_lng":7.861615,"geojson_lat":49.844063},"geometry":{"type":"Point","coordinates":[7.861615,49.844063]}},{"type":"Feature","properties":{"SeqNo":"747880","Type":"Q","DHID":"de:07133:30051:0:1","Parent":"de:07133:30051","Name":"1","MunicipalityCode":"00000000","Municipality":"-","DistrictCode":"-","District":"-","Description":"","Authority":"VRN","DelfiName":"-","THID":"-","LastOperationDate":"","SEV":"nein","longitude":"7,861615","latitude":"49,844075","geojson_lng":7.861615,"geojson_lat":49.844075},"geometry":{"type":"Point","coordinates":[7.861615,49.844075]}},{"type":"Feature","properties":{"SeqNo":"747932","Type":"S","DHID":"de:07133:30097","Parent":"de:07133:30097","Name":"Bad Kreuznach, Salinenplatz","MunicipalityCode":"07133006","Municipality":"Bad Kreuznach","DistrictCode":"07133","District":"","Description":"","Authority":"VRN","DelfiName":"-","THID":"D91BDD007591","LastOperationDate":"2025-06-14T00:00:00","SEV":"nein","longitude":"7,861858","latitude":"49,841978","geojson_lng":7.861858,"geojson_lat":49.841978},"geometry":{"type":"Point","coordinates":[7.861858,49.841978]}},{"type":"Feature","properties":{"SeqNo":"747933","Type":"Q","DHID":"de:07133:30097:0:1","Parent":"de:07133:30097","Name":"Ri Ost Bahnhof","MunicipalityCode":"00000000","Municipality":"-","DistrictCode":"-","District":"-","Description":"","Authority":"VRN","DelfiName":"-","THID":"-","LastOperationDate":"","SEV":"nein","longitude":"7,861992","latitude":"49,842041","geojson_lng":7.861992,"geojson_lat":49.842041},"geometry":{"type":"Point","coordinates":[7.861992,49.842041]}},{"type":"Feature","properties":{"SeqNo":"747934","Type":"Q","DHID":"de:07133:30097:0:2","Parent":"de:07133:30097","Name":"Ri West Badeallee","MunicipalityCode":"00000000","Municipality":"-","DistrictCode":"-","District":"-","Description":"","Authority":"VRN","DelfiName":"-","THID":"-","LastOperationDate":"","SEV":"nein","longitude":"7,861543","latitude":"49,841891","geojson_lng":7.861543,"geojson_lat":49.841891},"geometry":{"type":"Point","coordinates":[7.861543,49.841891]}},{"type":"Feature","properties":{"SeqNo":"747935","Type":"S","DHID":"de:07133:30098","Parent":"de:07133:30098","Name":"Bad Kreuznach, Badea./Kreisv.","MunicipalityCode":"07133006","Municipality":"Bad Kreuznach","DistrictCode":"-","District":"-","Description":"","Authority":"VRN","DelfiName":"-","THID":"D91BDD007592","LastOperationDate":"2025-06-14T00:00:00","SEV":"nein","longitude":"7,858462","latitude":"49,839741","geojson_lng":7.858462,"geojson_lat":49.839741},"geometry":{"type":"Point","coordinates":[7.858462,49.839741]}},{"type":"Feature","properties":{"SeqNo":"748275","Type":"S","DHID":"de:07133:30446","Parent":"de:07133:30446","Name":"Bad Kreuznach, Ochsenbrücke","MunicipalityCode":"07133006","Municipality":"Bad Kreuznach","DistrictCode":"07133","District":"","Description":"","Authority":"VRN","DelfiName":"-","THID":"D91BDD0076EE","LastOperationDate":"1999-12-31T00:00:00","SEV":"nein","longitude":"7,866304","latitude":"49,841439","geojson_lng":7.866304,"geojson_lat":49.841439},"geometry":{"type":"Point","coordinates":[7.866304,49.841439]}},{"type":"Feature","properties":{"SeqNo":"748611","Type":"S","DHID":"de:07133:30752","Parent":"de:07133:30752","Name":"Bad Kreuznach, Bleichstraße","MunicipalityCode":"07133006","Municipality":"Bad Kreuznach","DistrictCode":"","District":"","Description":"","Authority":"VRN","DelfiName":"-","THID":"D91BDD007820","LastOperationDate":"1999-12-31T00:00:00","SEV":"nein","longitude":"7,864723","latitude":"49,845175","geojson_lng":7.864723,"geojson_lat":49.845175},"geometry":{"type":"Point","coordinates":[7.864723,49.845175]}},{"type":"Feature","properties":{"SeqNo":"748624","Type":"S","DHID":"de:07133:30769","Parent":"de:07133:30769","Name":"Bad Kreuznach, Kreuzstraße","MunicipalityCode":"07133006","Municipality":"Bad Kreuznach","DistrictCode":"","District":"","Description":"","Authority":"VRN","DelfiName":"-","THID":"D91BDD007831","LastOperationDate":"1999-12-31T00:00:00","SEV":"nein","longitude":"7,856791","latitude":"49,841937","geojson_lng":7.856791,"geojson_lat":49.841937},"geometry":{"type":"Point","coordinates":[7.856791,49.841937]}},{"type":"Feature","properties":{"SeqNo":"748626","Type":"S","DHID":"de:07133:30771","Parent":"de:07133:30771","Name":"Bad Kreuznach, Parkh. Müh.str.","MunicipalityCode":"07133006","Municipality":"Bad Kreuznach","DistrictCode":"","District":"","Description":"","Authority":"VRN","DelfiName":"-","THID":"D91BDD007833","LastOperationDate":"2025-06-14T00:00:00","SEV":"nein","longitude":"7,858992","latitude":"49,84488","geojson_lng":7.858992,"geojson_lat":49.84488},"geometry":{"type":"Point","coordinates":[7.858992,49.84488]}},{"type":"Feature","properties":{"SeqNo":"748696","Type":"S","DHID":"de:07133:30849","Parent":"de:07133:30849","Name":"Bad Kreuznach, Dr.-Karl.-A.-S.","MunicipalityCode":"07133006","Municipality":"Bad Kreuznach","DistrictCode":"","District":"","Description":"","Authority":"VRN","DelfiName":"-","THID":"D91BDD007881","LastOperationDate":"2025-06-14T00:00:00","SEV":"nein","longitude":"7,856333","latitude":"49,839597","geojson_lng":7.856333,"geojson_lat":49.839597},"geometry":{"type":"Point","coordinates":[7.856333,49.839597]}},{"type":"Feature","properties":{"SeqNo":"748697","Type":"S","DHID":"de:07133:30850","Parent":"de:07133:30850","Name":"Bad Kreuznach, Stadtbibliothek","MunicipalityCode":"07133006","Municipality":"Bad Kreuznach","DistrictCode":"","District":"","Description":"","Authority":"VRN","DelfiName":"-","THID":"D91BDD007882","LastOperationDate":"2025-06-14T00:00:00","SEV":"nein","longitude":"7,856728","latitude":"49,84196","geojson_lng":7.856728,"geojson_lat":49.84196},"geometry":{"type":"Point","coordinates":[7.856728,49.84196]}},{"type":"Feature","properties":{"SeqNo":"748792","Type":"A","DHID":"de:07133:8178:1","Parent":"de:07133:8178","Name":"Gleis1","MunicipalityCode":"00000000","Municipality":"-","DistrictCode":"-","District":"-","Description":"Gleis1","Authority":"VRN","DelfiName":"-","THID":"-","LastOperationDate":"","SEV":"nein","longitude":"7,866233","latitude":"49,842499","geojson_lng":7.866233,"geojson_lat":49.842499},"geometry":{"type":"Point","coordinates":[7.866233,49.842499]}},{"type":"Feature","properties":{"SeqNo":"748793","Type":"A","DHID":"de:07133:8178:2","Parent":"de:07133:8178","Name":"Bus West","MunicipalityCode":"00000000","Municipality":"-","DistrictCode":"-","District":"-","Description":"Bus","Authority":"VRN","DelfiName":"-","THID":"-","LastOperationDate":"","SEV":"nein","longitude":"7,864669","latitude":"49,842418","geojson_lng":7.864669,"geojson_lat":49.842418},"geometry":{"type":"Point","coordinates":[7.864669,49.842418]}},{"type":"Feature","properties":{"SeqNo":"748796","Type":"A","DHID":"de:07133:8178:5","Parent":"de:07133:8178","Name":"Bus Nordwest","MunicipalityCode":"00000000","Municipality":"-","DistrictCode":"-","District":"-","Description":"","Authority":"VRN","DelfiName":"-","THID":"-","LastOperationDate":"","SEV":"nein","longitude":"7,864912","latitude":"49,843252","geojson_lng":7.864912,"geojson_lat":49.843252},"geometry":{"type":"Point","coordinates":[7.864912,49.843252]}},{"type":"Feature","properties":{"SeqNo":"748797","Type":"Q","DHID":"de:07133:8178:1:1","Parent":"de:07133:8178:1","Name":"Gleis1","MunicipalityCode":"00000000","Municipality":"-","DistrictCode":"-","District":"-","Description":"Gleis1","Authority":"VRN","DelfiName":"-","THID":"-","LastOperationDate":"","SEV":"nein","longitude":"7,866331","latitude":"49,842505","geojson_lng":7.866331,"geojson_lat":49.842505},"geometry":{"type":"Point","coordinates":[7.866331,49.842505]}},{"type":"Feature","properties":{"SeqNo":"748799","Type":"Q","DHID":"de:07133:8178:2:1","Parent":"de:07133:8178:2","Name":"SEV","MunicipalityCode":"00000000","Municipality":"-","DistrictCode":"-","District":"-","Description":"","Authority":"VRN","DelfiName":"-","THID":"-","LastOperationDate":"","SEV":"nein","longitude":"7,864714","latitude":"49,842354","geojson_lng":7.864714,"geojson_lat":49.842354},"geometry":{"type":"Point","coordinates":[7.864714,49.842354]}},{"type":"Feature","properties":{"SeqNo":"748800","Type":"Q","DHID":"de:07133:8178:2:S_O","Parent":"de:07133:8178:2","Name":"Ri Ebernburg Schule; Agnesienberg Schule","MunicipalityCode":"00000000","Municipality":"-","DistrictCode":"-","District":"-","Description":"Steig_Ost_Busbahnhof","Authority":"VRN","DelfiName":"-","THID":"-","LastOperationDate":"","SEV":"nein","longitude":"7,864723","latitude":"49,842441","geojson_lng":7.864723,"geojson_lat":49.842441},"geometry":{"type":"Point","coordinates":[7.864723,49.842441]}},{"type":"Feature","properties":{"SeqNo":"748801","Type":"Q","DHID":"de:07133:8178:2:S_W","Parent":"de:07133:8178:2","Name":"Ri Bad Kreuznach, im Ellenfeld; Bad Kreu","MunicipalityCode":"00000000","Municipality":"-","DistrictCode":"-","District":"-","Description":"Steig_West_Stadtbusse","Authority":"VRN","DelfiName":"-","THID":"-","LastOperationDate":"","SEV":"nein","longitude":"7,86466","latitude":"49,842372","geojson_lng":7.86466,"geojson_lat":49.842372},"geometry":{"type":"Point","coordinates":[7.86466,49.842372]}},{"type":"Feature","properties":{"SeqNo":"748806","Type":"Q","DHID":"de:07133:8178:5:C","Parent":"de:07133:8178:5","Name":"Ri Roxheim Evangelische Kirche","MunicipalityCode":"00000000","Municipality":"-","DistrictCode":"-","District":"-","Description":"","Authority":"VRN","DelfiName":"-","THID":"-","LastOperationDate":"","SEV":"nein","longitude":"7,864517","latitude":"49,843246","geojson_lng":7.864517,"geojson_lat":49.843246},"geometry":{"type":"Point","coordinates":[7.864517,49.843246]}},{"type":"Feature","properties":{"SeqNo":"748807","Type":"Q","DHID":"de:07133:8178:5:D","Parent":"de:07133:8178:5","Name":"Ri Bad Sobernheim Bahnhof","MunicipalityCode":"00000000","Municipality":"-","DistrictCode":"-","District":"-","Description":"","Authority":"VRN","DelfiName":"-","THID":"-","LastOperationDate":"","SEV":"nein","longitude":"7,864777","latitude":"49,843484","geojson_lng":7.864777,"geojson_lat":49.843484},"geometry":{"type":"Point","coordinates":[7.864777,49.843484]}},{"type":"Feature","properties":{"SeqNo":"748808","Type":"Q","DHID":"de:07133:8178:5:E","Parent":"de:07133:8178:5","Name":"Ri Bad Sobernheim Bahnhof","MunicipalityCode":"00000000","Municipality":"-","DistrictCode":"-","District":"-","Description":"","Authority":"VRN","DelfiName":"-","THID":"-","LastOperationDate":"","SEV":"nein","longitude":"7,865074","latitude":"49,843524","geojson_lng":7.865074,"geojson_lat":49.843524},"geometry":{"type":"Point","coordinates":[7.865074,49.843524]}},{"type":"Feature","properties":{"SeqNo":"748809","Type":"Q","DHID":"de:07133:8178:5:F","Parent":"de:07133:8178:5","Name":"Ri Stromberg IGS","MunicipalityCode":"00000000","Municipality":"-","DistrictCode":"-","District":"-","Description":"","Authority":"VRN","DelfiName":"-","THID":"-","LastOperationDate":"","SEV":"nein","longitude":"7,865173","latitude":"49,84342","geojson_lng":7.865173,"geojson_lat":49.84342},"geometry":{"type":"Point","coordinates":[7.865173,49.84342]}},{"type":"Feature","properties":{"SeqNo":"748810","Type":"Q","DHID":"de:07133:8178:5:G","Parent":"de:07133:8178:5","Name":"Ri Stromberg Gerbereiplatz","MunicipalityCode":"00000000","Municipality":"-","DistrictCode":"-","District":"-","Description":"","Authority":"VRN","DelfiName":"-","THID":"-","LastOperationDate":"","SEV":"nein","longitude":"7,865128","latitude":"49,843356","geojson_lng":7.865128,"geojson_lat":49.843356},"geometry":{"type":"Point","coordinates":[7.865128,49.843356]}},{"type":"Feature","properties":{"SeqNo":"748811","Type":"Q","DHID":"de:07133:8178:5:H","Parent":"de:07133:8178:5","Name":"Ri Allenfeld Feuerwehr","MunicipalityCode":"00000000","Municipality":"-","DistrictCode":"-","District":"-","Description":"","Authority":"VRN","DelfiName":"-","THID":"-","LastOperationDate":"","SEV":"nein","longitude":"7,864993","latitude":"49,843229","geojson_lng":7.864993,"geojson_lat":49.843229},"geometry":{"type":"Point","coordinates":[7.864993,49.843229]}},{"type":"Feature","properties":{"SeqNo":"748812","Type":"Q","DHID":"de:07133:8178:5:J","Parent":"de:07133:8178:5","Name":"Ri Münchwald Ortsmitte","MunicipalityCode":"00000000","Municipality":"-","DistrictCode":"-","District":"-","Description":"","Authority":"VRN","DelfiName":"-","THID":"-","LastOperationDate":"","SEV":"nein","longitude":"7,865002","latitude":"49,843171","geojson_lng":7.865002,"geojson_lat":49.843171},"geometry":{"type":"Point","coordinates":[7.865002,49.843171]}},{"type":"Feature","properties":{"SeqNo":"748813","Type":"Q","DHID":"de:07133:8178:5:K","Parent":"de:07133:8178:5","Name":"Ri Ippesheim; Planig-Bingen","MunicipalityCode":"00000000","Municipality":"-","DistrictCode":"-","District":"-","Description":"","Authority":"VRN","DelfiName":"-","THID":"-","LastOperationDate":"","SEV":"nein","longitude":"7,864939","latitude":"49,843102","geojson_lng":7.864939,"geojson_lat":49.843102},"geometry":{"type":"Point","coordinates":[7.864939,49.843102]}},{"type":"Feature","properties":{"SeqNo":"748814","Type":"Q","DHID":"de:07133:8178:5:L","Parent":"de:07133:8178:5","Name":"Ri Wolfsheim","MunicipalityCode":"00000000","Municipality":"-","DistrictCode":"-","District":"-","Description":"","Authority":"VRN","DelfiName":"-","THID":"-","LastOperationDate":"","SEV":"nein","longitude":"7,86493","latitude":"49,843078","geojson_lng":7.86493,"geojson_lat":49.843078},"geometry":{"type":"Point","coordinates":[7.86493,49.843078]}},{"type":"Feature","properties":{"SeqNo":"748815","Type":"Q","DHID":"de:07133:8178:5:M","Parent":"de:07133:8178:5","Name":"Ri Brückes","MunicipalityCode":"00000000","Municipality":"-","DistrictCode":"-","District":"-","Description":"","Authority":"VRN","DelfiName":"-","THID":"-","LastOperationDate":"","SEV":"nein","longitude":"7,864759","latitude":"49,842858","geojson_lng":7.864759,"geojson_lat":49.842858},"geometry":{"type":"Point","coordinates":[7.864759,49.842858]}},{"type":"Feature","properties":{"SeqNo":"748816","Type":"Q","DHID":"de:07133:8178:5:N","Parent":"de:07133:8178:5","Name":"Nur Ausstieg","MunicipalityCode":"00000000","Municipality":"-","DistrictCode":"-","District":"-","Description":"","Authority":"VRN","DelfiName":"-","THID":"-","LastOperationDate":"","SEV":"nein","longitude":"7,864993","latitude":"49,842858","geojson_lng":7.864993,"geojson_lat":49.842858},"geometry":{"type":"Point","coordinates":[7.864993,49.842858]}},{"type":"Feature","properties":{"SeqNo":"748817","Type":"Q","DHID":"de:07133:8178:5:P","Parent":"de:07133:8178:5","Name":"Ri Fürfeld","MunicipalityCode":"00000000","Municipality":"-","DistrictCode":"-","District":"-","Description":"","Authority":"VRN","DelfiName":"-","THID":"-","LastOperationDate":"","SEV":"nein","longitude":"7,865442","latitude":"49,843009","geojson_lng":7.865442,"geojson_lat":49.843009},"geometry":{"type":"Point","coordinates":[7.865442,49.843009]}},{"type":"Feature","properties":{"SeqNo":"748818","Type":"Q","DHID":"de:07133:8178:5:R","Parent":"de:07133:8178:5","Name":"Ri Alzey Bahnhof","MunicipalityCode":"00000000","Municipality":"-","DistrictCode":"-","District":"-","Description":"","Authority":"VRN","DelfiName":"-","THID":"-","LastOperationDate":"","SEV":"nein","longitude":"7,865559","latitude":"49,843235","geojson_lng":7.865559,"geojson_lat":49.843235},"geometry":{"type":"Point","coordinates":[7.865559,49.843235]}}]}