{"type":"FeatureCollection","features":[{"type":"Feature","properties":{"highway":"bus_stop","public_transport":"platform","name":"Hoenderloseweg","ref:IFOPT":"NL:Q:40170030","_quaycode":"NL:Q:40170030","_town":"Deelen","_status":"available","_mode":"bus","_direction":261,"_visuallyAccessible":true,"_disabledAccessible":false,"geojson_lng":5.905651175729399,"geojson_lat":52.037342018013184},"geometry":{"type":"Point","coordinates":[5.905651175729399,52.037342018013184]}},{"type":"Feature","properties":{"highway":"bus_stop","public_transport":"platform","name":"C. van Maasdijklaan","ref:IFOPT":"NL:Q:40170020","_quaycode":"NL:Q:40170020","_town":"Schaarsbergen","_status":"available","_mode":"bus","_direction":81,"_visuallyAccessible":true,"_disabledAccessible":true,"geojson_lng":5.899138205974772,"geojson_lat":52.03621677486292},"geometry":{"type":"Point","coordinates":[5.899138205974772,52.03621677486292]}},{"type":"Feature","properties":{"highway":"bus_stop","public_transport":"platform","name":"C. van Maasdijklaan","ref:IFOPT":"NL:Q:40070010","_quaycode":"NL:Q:40070010","_town":"Schaarsbergen","_status":"available","_mode":"bus","_direction":261,"_visuallyAccessible":true,"_disabledAccessible":false,"geojson_lng":5.897869510484381,"geojson_lat":52.03615038018457},"geometry":{"type":"Point","coordinates":[5.897869510484381,52.03615038018457]}},{"type":"Feature","properties":{"highway":"bus_stop","public_transport":"platform","name":"I.P.C.","ref:IFOPT":"NL:Q:40079030","_quaycode":"NL:Q:40079030","_town":"Schaarsbergen","_status":"available","_mode":"bus","_direction":354,"_visuallyAccessible":true,"_disabledAccessible":true,"geojson_lng":5.906857550161082,"geojson_lat":52.03579645125285},"geometry":{"type":"Point","coordinates":[5.906857550161082,52.03579645125285]}},{"type":"Feature","properties":{"highway":"bus_stop","public_transport":"platform","name":"Viersprong","ref:IFOPT":"NL:Q:40079010","_quaycode":"NL:Q:40079010","_town":"Schaarsbergen","_status":"available","_mode":"bus","_direction":81,"_visuallyAccessible":false,"_disabledAccessible":true,"geojson_lng":5.888763158472635,"geojson_lat":52.03459641252943},"geometry":{"type":"Point","coordinates":[5.888763158472635,52.03459641252943]}}]}