{"type":"FeatureCollection","features":[{"type":"Feature","properties":{"highway":"bus_stop","public_transport":"platform","name":"Suder Stienplaat","ref:IFOPT":"NL:Q:23740810","_quaycode":"NL:Q:23740810","_town":"Leeuwarden","_status":"available","_mode":"bus","_direction":270,"_visuallyAccessible":true,"_disabledAccessible":true,"geojson_lng":5.848149714803998,"geojson_lat":53.174489149678415},"geometry":{"type":"Point","coordinates":[5.848149714803998,53.174489149678415]}},{"type":"Feature","properties":{"highway":"bus_stop","public_transport":"platform","name":"Noarder Stienplaat","ref:IFOPT":"NL:Q:23741040","_quaycode":"NL:Q:23741040","_town":"Leeuwarden","_status":"available","_mode":"bus","_direction":27,"_visuallyAccessible":true,"_disabledAccessible":true,"geojson_lng":5.847728447433271,"geojson_lat":53.18268580378101},"geometry":{"type":"Point","coordinates":[5.847728447433271,53.18268580378101]}},{"type":"Feature","properties":{"highway":"bus_stop","public_transport":"platform","name":"Apolloweg","ref:IFOPT":"NL:Q:20005340","_quaycode":"NL:Q:20005340","_town":"Leeuwarden","_status":"available","_mode":"bus","_direction":156,"_visuallyAccessible":false,"_disabledAccessible":false,"geojson_lng":5.851360897209366,"geojson_lat":53.197794817991365},"geometry":{"type":"Point","coordinates":[5.851360897209366,53.197794817991365]}},{"type":"Feature","properties":{"highway":"bus_stop","public_transport":"platform","name":"Noarder Stienplaat","ref:IFOPT":"NL:Q:23741030","_quaycode":"NL:Q:23741030","_town":"Leeuwarden","_status":"available","_mode":"bus","_direction":180,"_visuallyAccessible":true,"_disabledAccessible":true,"geojson_lng":5.847516934794836,"geojson_lat":53.182488928993656},"geometry":{"type":"Point","coordinates":[5.847516934794836,53.182488928993656]}},{"type":"Feature","properties":{"highway":"bus_stop","public_transport":"platform","name":"Ytjesân","ref:IFOPT":"NL:Q:23741010","_quaycode":"NL:Q:23741010","_town":"Leeuwarden","_status":"available","_mode":"bus","_direction":350,"_visuallyAccessible":true,"_disabledAccessible":true,"geojson_lng":5.846907108030724,"geojson_lat":53.17859144099758},"geometry":{"type":"Point","coordinates":[5.846907108030724,53.17859144099758]}},{"type":"Feature","properties":{"highway":"bus_stop","public_transport":"platform","name":"Ytjesân","ref:IFOPT":"NL:Q:23741020","_quaycode":"NL:Q:23741020","_town":"Leeuwarden","_status":"available","_mode":"bus","_direction":173,"_visuallyAccessible":true,"_disabledAccessible":true,"geojson_lng":5.846786502418236,"geojson_lat":53.1785020455351},"geometry":{"type":"Point","coordinates":[5.846786502418236,53.1785020455351]}},{"type":"Feature","properties":{"highway":"bus_stop","public_transport":"platform","name":"Jupiterweg","ref:IFOPT":"NL:Q:20002630","_quaycode":"NL:Q:20002630","_town":"Leeuwarden","_status":"available","_mode":"bus","_direction":240,"_visuallyAccessible":false,"_disabledAccessible":false,"geojson_lng":5.845453267701312,"geojson_lat":53.1966673628424},"geometry":{"type":"Point","coordinates":[5.845453267701312,53.1966673628424]}},{"type":"Feature","properties":{"highway":"bus_stop","public_transport":"platform","name":"Pallasweg","ref:IFOPT":"NL:Q:20000730","_quaycode":"NL:Q:20000730","_town":"Leeuwarden","_status":"available","_mode":"bus","_direction":99,"_visuallyAccessible":false,"_disabledAccessible":false,"geojson_lng":5.849855525168516,"geojson_lat":53.199750537206995},"geometry":{"type":"Point","coordinates":[5.849855525168516,53.199750537206995]}}]}