{"type":"FeatureCollection","features":[{"type":"Feature","properties":{"highway":"bus_stop","public_transport":"platform","name":"Pater Schreursweg","ref:IFOPT":"NL:Q:68300200","_quaycode":"NL:Q:68300200","_town":"Panheel","_status":"available","_mode":"bus","_direction":330,"_visuallyAccessible":false,"_disabledAccessible":false,"geojson_lng":5.8722912791648305,"geojson_lat":51.17676290905745},"geometry":{"type":"Point","coordinates":[5.8722912791648305,51.17676290905745]}},{"type":"Feature","properties":{"highway":"bus_stop","public_transport":"platform","name":"Panheelderweg","ref:IFOPT":"NL:Q:68200180","_quaycode":"NL:Q:68200180","_town":"Heel","_status":"available","_mode":"bus","_direction":260,"_visuallyAccessible":false,"_disabledAccessible":false,"geojson_lng":5.885441182728515,"geojson_lat":51.177489284819416},"geometry":{"type":"Point","coordinates":[5.885441182728515,51.177489284819416]}},{"type":"Feature","properties":{"highway":"bus_stop","public_transport":"platform","name":"Steenfabriek","ref:IFOPT":"NL:Q:68300330","_quaycode":"NL:Q:68300330","_town":"Wessem","_status":"available","_mode":"bus","_direction":117,"_visuallyAccessible":false,"_disabledAccessible":false,"geojson_lng":5.860170618399111,"geojson_lat":51.157927200458104},"geometry":{"type":"Point","coordinates":[5.860170618399111,51.157927200458104]}},{"type":"Feature","properties":{"highway":"bus_stop","public_transport":"platform","name":"Burg. Joostenlaan","ref:IFOPT":"NL:Q:68300300","_quaycode":"NL:Q:68300300","_town":"Wessem","_status":"available","_mode":"bus","_direction":250,"_visuallyAccessible":true,"_disabledAccessible":true,"geojson_lng":5.8782699294876295,"geojson_lat":51.160827401373496},"geometry":{"type":"Point","coordinates":[5.8782699294876295,51.160827401373496]}},{"type":"Feature","properties":{"highway":"bus_stop","public_transport":"platform","name":"Heelderweg","ref:IFOPT":"NL:Q:68300190","_quaycode":"NL:Q:68300190","_town":"Panheel","_status":"available","_mode":"bus","_direction":91,"_visuallyAccessible":true,"_disabledAccessible":false,"geojson_lng":5.87502707741907,"geojson_lat":51.175834582323695},"geometry":{"type":"Point","coordinates":[5.87502707741907,51.175834582323695]}},{"type":"Feature","properties":{"highway":"bus_stop","public_transport":"platform","name":"Burg. Joostenlaan","ref:IFOPT":"NL:Q:68300310","_quaycode":"NL:Q:68300310","_town":"Wessem","_status":"available","_mode":"bus","_direction":60,"_visuallyAccessible":true,"_disabledAccessible":true,"geojson_lng":5.879343287104408,"geojson_lat":51.16093971354697},"geometry":{"type":"Point","coordinates":[5.879343287104408,51.16093971354697]}},{"type":"Feature","properties":{"highway":"bus_stop","public_transport":"platform","name":"Van Horneplein","ref:IFOPT":"NL:Q:68300340","_quaycode":"NL:Q:68300340","_town":"Wessem","_status":"available","_mode":"bus","_direction":210,"_visuallyAccessible":true,"_disabledAccessible":true,"geojson_lng":5.881582464868992,"geojson_lat":51.16178415021026},"geometry":{"type":"Point","coordinates":[5.881582464868992,51.16178415021026]}},{"type":"Feature","properties":{"highway":"bus_stop","public_transport":"platform","name":"Pater Schreursweg","ref:IFOPT":"NL:Q:68300210","_quaycode":"NL:Q:68300210","_town":"Panheel","_status":"available","_mode":"bus","_direction":174,"_visuallyAccessible":false,"_disabledAccessible":false,"geojson_lng":5.872176691527696,"geojson_lat":51.17674540971115},"geometry":{"type":"Point","coordinates":[5.872176691527696,51.17674540971115]}},{"type":"Feature","properties":{"highway":"bus_stop","public_transport":"platform","name":"Trippaardstraat","ref:IFOPT":"NL:Q:68300240","_quaycode":"NL:Q:68300240","_town":"Thorn","_status":"available","_mode":"bus","_direction":288,"_visuallyAccessible":false,"_disabledAccessible":false,"geojson_lng":5.8461001836246576,"geojson_lat":51.16174101541546},"geometry":{"type":"Point","coordinates":[5.8461001836246576,51.16174101541546]}},{"type":"Feature","properties":{"highway":"bus_stop","public_transport":"platform","name":"Panheelderweg","ref:IFOPT":"NL:Q:68200190","_quaycode":"NL:Q:68200190","_town":"Heel","_status":"available","_mode":"bus","_direction":29,"_visuallyAccessible":false,"_disabledAccessible":false,"geojson_lng":5.885095059421092,"geojson_lat":51.177221101303616},"geometry":{"type":"Point","coordinates":[5.885095059421092,51.177221101303616]}},{"type":"Feature","properties":{"highway":"bus_stop","public_transport":"platform","name":"Trippaardstraat","ref:IFOPT":"NL:Q:68300250","_quaycode":"NL:Q:68300250","_town":"Thorn","_status":"available","_mode":"bus","_direction":108,"_visuallyAccessible":false,"_disabledAccessible":false,"geojson_lng":5.846084630855825,"geojson_lat":51.161615232241395},"geometry":{"type":"Point","coordinates":[5.846084630855825,51.161615232241395]}},{"type":"Feature","properties":{"highway":"bus_stop","public_transport":"platform","name":"Steenfabriek","ref:IFOPT":"NL:Q:68300320","_quaycode":"NL:Q:68300320","_town":"Wessem","_status":"available","_mode":"bus","_direction":279,"_visuallyAccessible":false,"_disabledAccessible":false,"geojson_lng":5.861398580223062,"geojson_lat":51.15778735573361},"geometry":{"type":"Point","coordinates":[5.861398580223062,51.15778735573361]}},{"type":"Feature","properties":{"highway":"bus_stop","public_transport":"platform","name":"Van Horneplein","ref:IFOPT":"NL:Q:68300350","_quaycode":"NL:Q:68300350","_town":"Wessem","_status":"available","_mode":"bus","_direction":329,"_visuallyAccessible":true,"_disabledAccessible":true,"geojson_lng":5.88183274271187,"geojson_lat":51.162457253630805},"geometry":{"type":"Point","coordinates":[5.88183274271187,51.162457253630805]}},{"type":"Feature","properties":{"highway":"bus_stop","public_transport":"platform","name":"Heelderweg","ref:IFOPT":"NL:Q:68300180","_quaycode":"NL:Q:68300180","_town":"Panheel","_status":"available","_mode":"bus","_direction":282,"_visuallyAccessible":true,"_disabledAccessible":false,"geojson_lng":5.874584940943388,"geojson_lat":51.175944305338},"geometry":{"type":"Point","coordinates":[5.874584940943388,51.175944305338]}}]}