{"type":"FeatureCollection","features":[{"type":"Feature","properties":{"highway":"bus_stop","public_transport":"platform","name":"Sportpark de Meent","ref:IFOPT":"NL:Q:36120020","_quaycode":"NL:Q:36120020","_town":"Alkmaar","_status":"available","_mode":"bus","_direction":239,"_visuallyAccessible":true,"_disabledAccessible":true,"geojson_lng":4.713708116189851,"geojson_lat":52.63537309667612},"geometry":{"type":"Point","coordinates":[4.713708116189851,52.63537309667612]}},{"type":"Feature","properties":{"highway":"bus_stop","public_transport":"platform","name":"Hogeschool Alkmaar","ref:IFOPT":"NL:Q:36007740","_quaycode":"NL:Q:36007740","_town":"Alkmaar","_status":"available","_mode":"bus","_direction":41,"_visuallyAccessible":true,"_disabledAccessible":true,"geojson_lng":4.723982273823854,"geojson_lat":52.64173993286311},"geometry":{"type":"Point","coordinates":[4.723982273823854,52.64173993286311]}},{"type":"Feature","properties":{"highway":"bus_stop","public_transport":"platform","name":"Sportpark de Meent","ref:IFOPT":"NL:Q:36007510","_quaycode":"NL:Q:36007510","_town":"Alkmaar","_status":"available","_mode":"bus","_direction":59,"_visuallyAccessible":true,"_disabledAccessible":false,"geojson_lng":4.713914634712405,"geojson_lat":52.63539224096283},"geometry":{"type":"Point","coordinates":[4.713914634712405,52.63539224096283]}},{"type":"Feature","properties":{"highway":"bus_stop","public_transport":"platform","name":"Hogeschool Alkmaar","ref:IFOPT":"NL:Q:36007750","_quaycode":"NL:Q:36007750","_town":"Alkmaar","_status":"available","_mode":"bus","_direction":210,"_visuallyAccessible":true,"_disabledAccessible":true,"geojson_lng":4.72419574595458,"geojson_lat":52.64228036058544},"geometry":{"type":"Point","coordinates":[4.72419574595458,52.64228036058544]}},{"type":"Feature","properties":{"highway":"bus_stop","public_transport":"platform","name":"Winkelcentrum De Hoef","ref:IFOPT":"NL:Q:36000730","_quaycode":"NL:Q:36000730","_town":"Alkmaar","_status":"available","_mode":"bus","_direction":209,"_visuallyAccessible":null,"_disabledAccessible":null,"geojson_lng":4.723288894145795,"geojson_lat":52.63089737480833},"geometry":{"type":"Point","coordinates":[4.723288894145795,52.63089737480833]}},{"type":"Feature","properties":{"highway":"bus_stop","public_transport":"platform","name":"Winkelcentrum De Hoef","ref:IFOPT":"NL:Q:36000740","_quaycode":"NL:Q:36000740","_town":"Alkmaar","_status":"available","_mode":"bus","_direction":29,"_visuallyAccessible":null,"_disabledAccessible":null,"geojson_lng":4.72358387736796,"geojson_lat":52.63092598368259},"geometry":{"type":"Point","coordinates":[4.72358387736796,52.63092598368259]}},{"type":"Feature","properties":{"highway":"bus_stop","public_transport":"platform","name":"Winkelcentrum De Hoef","ref:IFOPT":"NL:Q:36004130","_quaycode":"NL:Q:36004130","_town":"Alkmaar","_status":"available","_mode":"bus","_direction":110,"_visuallyAccessible":true,"_disabledAccessible":false,"geojson_lng":4.722777977348451,"geojson_lat":52.631478699856274},"geometry":{"type":"Point","coordinates":[4.722777977348451,52.631478699856274]}},{"type":"Feature","properties":{"highway":"bus_stop","public_transport":"platform","name":"Robonsbosweg","ref:IFOPT":"NL:Q:36002090","_quaycode":"NL:Q:36002090","_town":"Alkmaar","_status":"available","_mode":"bus","_direction":44,"_visuallyAccessible":true,"_disabledAccessible":true,"geojson_lng":4.722399294943477,"geojson_lat":52.63992464750854},"geometry":{"type":"Point","coordinates":[4.722399294943477,52.63992464750854]}},{"type":"Feature","properties":{"highway":"bus_stop","public_transport":"platform","name":"Robonsbosweg","ref:IFOPT":"NL:Q:36002070","_quaycode":"NL:Q:36002070","_town":"Alkmaar","_status":"available","_mode":"bus","_direction":221,"_visuallyAccessible":false,"_disabledAccessible":false,"geojson_lng":4.722979071866575,"geojson_lat":52.64066484563478},"geometry":{"type":"Point","coordinates":[4.722979071866575,52.64066484563478]}},{"type":"Feature","properties":{"highway":"bus_stop","public_transport":"platform","name":"Schoumanlaan","ref:IFOPT":"NL:Q:36004160","_quaycode":"NL:Q:36004160","_town":"Alkmaar","_status":"available","_mode":"bus","_direction":223,"_visuallyAccessible":false,"_disabledAccessible":false,"geojson_lng":4.720036052404499,"geojson_lat":52.63209245649249},"geometry":{"type":"Point","coordinates":[4.720036052404499,52.63209245649249]}},{"type":"Feature","properties":{"highway":"bus_stop","public_transport":"platform","name":"Winkelcentrum De Hoef","ref:IFOPT":"NL:Q:36004120","_quaycode":"NL:Q:36004120","_town":"Alkmaar","_status":"available","_mode":"bus","_direction":290,"_visuallyAccessible":true,"_disabledAccessible":true,"geojson_lng":4.722821743775248,"geojson_lat":52.631514893689534},"geometry":{"type":"Point","coordinates":[4.722821743775248,52.631514893689534]}},{"type":"Feature","properties":{"highway":"bus_stop","public_transport":"platform","name":"Troostlaan","ref:IFOPT":"NL:Q:36004150","_quaycode":"NL:Q:36004150","_town":"Alkmaar","_status":"available","_mode":"bus","_direction":43,"_visuallyAccessible":true,"_disabledAccessible":false,"geojson_lng":4.717547731679178,"geojson_lat":52.62962492923896},"geometry":{"type":"Point","coordinates":[4.717547731679178,52.62962492923896]}},{"type":"Feature","properties":{"highway":"bus_stop","public_transport":"platform","name":"Schoumanlaan","ref:IFOPT":"NL:Q:36004170","_quaycode":"NL:Q:36004170","_town":"Alkmaar","_status":"available","_mode":"bus","_direction":43,"_visuallyAccessible":false,"_disabledAccessible":true,"geojson_lng":4.720271144877943,"geojson_lat":52.63217466132937},"geometry":{"type":"Point","coordinates":[4.720271144877943,52.63217466132937]}},{"type":"Feature","properties":{"highway":"bus_stop","public_transport":"platform","name":"Troostlaan","ref:IFOPT":"NL:Q:36004140","_quaycode":"NL:Q:36004140","_town":"Alkmaar","_status":"available","_mode":"bus","_direction":223,"_visuallyAccessible":false,"_disabledAccessible":false,"geojson_lng":4.717850638617117,"geojson_lat":52.63010296298473},"geometry":{"type":"Point","coordinates":[4.717850638617117,52.63010296298473]}}]}