{"type":"FeatureCollection","features":[{"type":"Feature","properties":{"highway":"bus_stop","public_transport":"platform","name":"Erasmussingel","ref:IFOPT":"NL:Q:31002878","_quaycode":"NL:Q:31002878","_town":"Rotterdam","_status":"available","_mode":"bus","_direction":200,"_visuallyAccessible":false,"_disabledAccessible":false,"geojson_lng":4.474088604100852,"geojson_lat":51.94653792950945},"geometry":{"type":"Point","coordinates":[4.474088604100852,51.94653792950945]}},{"type":"Feature","properties":{"highway":"bus_stop","public_transport":"platform","name":"Meidoornsingel","ref:IFOPT":"NL:Q:31003078","_quaycode":"NL:Q:31003078","_town":"Rotterdam","_status":"available","_mode":"bus","_direction":346,"_visuallyAccessible":false,"_disabledAccessible":true,"geojson_lng":4.468672699195955,"geojson_lat":51.95389345826714},"geometry":{"type":"Point","coordinates":[4.468672699195955,51.95389345826714]}},{"type":"Feature","properties":{"highway":"bus_stop","public_transport":"platform","name":"Hazelaarweg","ref:IFOPT":"NL:Q:31002067","_quaycode":"NL:Q:31002067","_town":"Rotterdam","_status":"available","_mode":"bus","_direction":294,"_visuallyAccessible":false,"_disabledAccessible":false,"geojson_lng":4.474606114446277,"geojson_lat":51.964015978110524},"geometry":{"type":"Point","coordinates":[4.474606114446277,51.964015978110524]}},{"type":"Feature","properties":{"highway":"bus_stop","public_transport":"platform","name":"Gilze-Rijenstraat","ref:IFOPT":"NL:Q:31002022","_quaycode":"NL:Q:31002022","_town":"Rotterdam","_status":"available","_mode":"bus","_direction":69,"_visuallyAccessible":true,"_disabledAccessible":true,"geojson_lng":4.451597528056205,"geojson_lat":51.9530037992085},"geometry":{"type":"Point","coordinates":[4.451597528056205,51.9530037992085]}},{"type":"Feature","properties":{"highway":"bus_stop","public_transport":"platform","name":"Peppelweg","ref:IFOPT":"NL:Q:31002085","_quaycode":"NL:Q:31002085","_town":"Rotterdam","_status":"available","_mode":"bus","_direction":52,"_visuallyAccessible":true,"_disabledAccessible":true,"geojson_lng":4.470284351256214,"geojson_lat":51.960458798405625},"geometry":{"type":"Point","coordinates":[4.470284351256214,51.960458798405625]}},{"type":"Feature","properties":{"highway":"bus_stop","public_transport":"platform","name":"De Wilgenring","ref:IFOPT":"NL:Q:31003131","_quaycode":"NL:Q:31003131","_town":"Rotterdam","_status":"available","_mode":"bus","_direction":110,"_visuallyAccessible":false,"_disabledAccessible":false,"geojson_lng":4.471452156931614,"geojson_lat":51.94957358895},"geometry":{"type":"Point","coordinates":[4.471452156931614,51.94957358895]}},{"type":"Feature","properties":{"highway":"bus_stop","public_transport":"platform","name":"De Wilgenring","ref:IFOPT":"NL:Q:31003120","_quaycode":"NL:Q:31003120","_town":"Rotterdam","_status":"available","_mode":"bus","_direction":290,"_visuallyAccessible":false,"_disabledAccessible":false,"geojson_lng":4.4721631700621,"geojson_lat":51.94966002212203},"geometry":{"type":"Point","coordinates":[4.4721631700621,51.94966002212203]}},{"type":"Feature","properties":{"highway":"bus_stop","public_transport":"platform","name":"Peppelweg","ref:IFOPT":"NL:Q:31002065","_quaycode":"NL:Q:31002065","_town":"Rotterdam","_status":"available","_mode":"bus","_direction":233,"_visuallyAccessible":true,"_disabledAccessible":true,"geojson_lng":4.469271898275376,"geojson_lat":51.96016326259907},"geometry":{"type":"Point","coordinates":[4.469271898275376,51.96016326259907]}},{"type":"Feature","properties":{"highway":"bus_stop","public_transport":"platform","name":"Lutonbaan","ref:IFOPT":"NL:Q:31002008","_quaycode":"NL:Q:31002008","_town":"Rotterdam","_status":"available","_mode":"bus","_direction":69,"_visuallyAccessible":false,"_disabledAccessible":true,"geojson_lng":4.445676992331514,"geojson_lat":51.950907115537106},"geometry":{"type":"Point","coordinates":[4.445676992331514,51.950907115537106]}},{"type":"Feature","properties":{"highway":"bus_stop","public_transport":"platform","name":"Lutonbaan","ref:IFOPT":"NL:Q:31002196","_quaycode":"NL:Q:31002196","_town":"Rotterdam","_status":"available","_mode":"bus","_direction":248,"_visuallyAccessible":false,"_disabledAccessible":true,"geojson_lng":4.444591063947233,"geojson_lat":51.9506647088691},"geometry":{"type":"Point","coordinates":[4.444591063947233,51.9506647088691]}},{"type":"Feature","properties":{"highway":"bus_stop","public_transport":"platform","name":"Donkersingel","ref:IFOPT":"NL:Q:31006576","_quaycode":"NL:Q:31006576","_town":"Rotterdam","_status":"available","_mode":"bus","_direction":0,"_visuallyAccessible":false,"_disabledAccessible":true,"geojson_lng":4.470009619475606,"geojson_lat":51.951117393357215},"geometry":{"type":"Point","coordinates":[4.470009619475606,51.951117393357215]}},{"type":"Feature","properties":{"highway":"bus_stop","public_transport":"platform","name":"Meijersplein Metro","ref:IFOPT":"NL:Q:31002025","_quaycode":"NL:Q:31002025","_town":"Rotterdam","_status":"available","_mode":"bus","_direction":95,"_visuallyAccessible":true,"_disabledAccessible":true,"geojson_lng":4.4618673736912875,"geojson_lat":51.95586256872652},"geometry":{"type":"Point","coordinates":[4.4618673736912875,51.95586256872652]}},{"type":"Feature","properties":{"highway":"bus_stop","public_transport":"platform","name":"Schiehoven","ref:IFOPT":"NL:Q:31002082","_quaycode":"NL:Q:31002082","_town":"Rotterdam","_status":"available","_mode":"bus","_direction":258,"_visuallyAccessible":true,"_disabledAccessible":true,"geojson_lng":4.464690928793923,"geojson_lat":51.95368251691704},"geometry":{"type":"Point","coordinates":[4.464690928793923,51.95368251691704]}},{"type":"Feature","properties":{"highway":"bus_stop","public_transport":"platform","name":"Adrianalaan","ref:IFOPT":"NL:Q:31002087","_quaycode":"NL:Q:31002087","_town":"Rotterdam","_status":"available","_mode":"bus","_direction":52,"_visuallyAccessible":true,"_disabledAccessible":true,"geojson_lng":4.472862468739405,"geojson_lat":51.9624653703756},"geometry":{"type":"Point","coordinates":[4.472862468739405,51.9624653703756]}},{"type":"Feature","properties":{"highway":"bus_stop","public_transport":"platform","name":"Plaswijckpark","ref:IFOPT":"NL:Q:31002045","_quaycode":"NL:Q:31002045","_town":"Rotterdam","_status":"available","_mode":"bus","_direction":192,"_visuallyAccessible":false,"_disabledAccessible":false,"geojson_lng":4.478245614446689,"geojson_lat":51.95674534467736},"geometry":{"type":"Point","coordinates":[4.478245614446689,51.95674534467736]}},{"type":"Feature","properties":{"highway":"bus_stop","public_transport":"platform","name":"Hazelaarweg","ref:IFOPT":"NL:Q:31002086","_quaycode":"NL:Q:31002086","_town":"Rotterdam","_status":"available","_mode":"bus","_direction":52,"_visuallyAccessible":true,"_disabledAccessible":true,"geojson_lng":4.47452302493735,"geojson_lat":51.96380859357088},"geometry":{"type":"Point","coordinates":[4.47452302493735,51.96380859357088]}},{"type":"Feature","properties":{"highway":"bus_stop","public_transport":"platform","name":"Schiehoven","ref:IFOPT":"NL:Q:31002069","_quaycode":"NL:Q:31002069","_town":"Rotterdam","_status":"available","_mode":"bus","_direction":150,"_visuallyAccessible":true,"_disabledAccessible":true,"geojson_lng":4.464612705638111,"geojson_lat":51.95324145637601},"geometry":{"type":"Point","coordinates":[4.464612705638111,51.95324145637601]}},{"type":"Feature","properties":{"highway":"bus_stop","public_transport":"platform","name":"Kastanjeplein","ref:IFOPT":"NL:Q:31002084","_quaycode":"NL:Q:31002084","_town":"Rotterdam","_status":"available","_mode":"bus","_direction":336,"_visuallyAccessible":true,"_disabledAccessible":true,"geojson_lng":4.467966285239723,"geojson_lat":51.958553076668295},"geometry":{"type":"Point","coordinates":[4.467966285239723,51.958553076668295]}},{"type":"Feature","properties":{"highway":"bus_stop","public_transport":"platform","name":"Meijersplein","ref:IFOPT":"NL:Q:31006737","_quaycode":"NL:Q:31006737","_town":"Rotterdam","_status":"available","_mode":"bus","_direction":100,"_visuallyAccessible":false,"_disabledAccessible":false,"geojson_lng":4.460599079551889,"geojson_lat":51.95598741344952},"geometry":{"type":"Point","coordinates":[4.460599079551889,51.95598741344952]}},{"type":"Feature","properties":{"highway":"bus_stop","public_transport":"platform","name":"Melanchthonweg","ref:IFOPT":"NL:Q:31003129","_quaycode":"NL:Q:31003129","_town":"Rotterdam","_status":"available","_mode":"bus","_direction":0,"_visuallyAccessible":false,"_disabledAccessible":false,"geojson_lng":4.464537525870163,"geojson_lat":51.94840493755761},"geometry":{"type":"Point","coordinates":[4.464537525870163,51.94840493755761]}},{"type":"Feature","properties":{"highway":"bus_stop","public_transport":"platform","name":"Abeelweg","ref:IFOPT":"NL:Q:31002088","_quaycode":"NL:Q:31002088","_town":"Rotterdam","_status":"available","_mode":"bus","_direction":124,"_visuallyAccessible":false,"_disabledAccessible":true,"geojson_lng":4.4804115444071195,"geojson_lat":51.96115753322113},"geometry":{"type":"Point","coordinates":[4.4804115444071195,51.96115753322113]}},{"type":"Feature","properties":{"highway":"bus_stop","public_transport":"platform","name":"Kastanjeplein","ref:IFOPT":"NL:Q:31002066","_quaycode":"NL:Q:31002066","_town":"Rotterdam","_status":"available","_mode":"bus","_direction":149,"_visuallyAccessible":true,"_disabledAccessible":true,"geojson_lng":4.467765940507034,"geojson_lat":51.95838971396583},"geometry":{"type":"Point","coordinates":[4.467765940507034,51.95838971396583]}},{"type":"Feature","properties":{"highway":"bus_stop","public_transport":"platform","name":"Melanchthonweg","ref:IFOPT":"NL:Q:31003122","_quaycode":"NL:Q:31003122","_town":"Rotterdam","_status":"available","_mode":"bus","_direction":255,"_visuallyAccessible":false,"_disabledAccessible":true,"geojson_lng":4.465216097872584,"geojson_lat":51.948652955298066},"geometry":{"type":"Point","coordinates":[4.465216097872584,51.948652955298066]}},{"type":"Feature","properties":{"highway":"bus_stop","public_transport":"platform","name":"Buitenzorg","ref:IFOPT":"NL:Q:31002079","_quaycode":"NL:Q:31002079","_town":"Rotterdam","_status":"available","_mode":"bus","_direction":190,"_visuallyAccessible":false,"_disabledAccessible":true,"geojson_lng":4.475430128794729,"geojson_lat":51.949955059192206},"geometry":{"type":"Point","coordinates":[4.475430128794729,51.949955059192206]}},{"type":"Feature","properties":{"highway":"bus_stop","public_transport":"platform","name":"Wilgenplaslaan","ref:IFOPT":"NL:Q:31002068","_quaycode":"NL:Q:31002068","_town":"Rotterdam","_status":"available","_mode":"bus","_direction":157,"_visuallyAccessible":true,"_disabledAccessible":false,"geojson_lng":4.467116316526914,"geojson_lat":51.9560116155331},"geometry":{"type":"Point","coordinates":[4.467116316526914,51.9560116155331]}},{"type":"Feature","properties":{"highway":"bus_stop","public_transport":"platform","name":"Meijersplein","ref:IFOPT":"NL:Q:31006571","_quaycode":"NL:Q:31006571","_town":"Rotterdam","_status":"available","_mode":"bus","_direction":270,"_visuallyAccessible":false,"_disabledAccessible":false,"geojson_lng":4.460536999249456,"geojson_lat":51.95617568728933},"geometry":{"type":"Point","coordinates":[4.460536999249456,51.95617568728933]}},{"type":"Feature","properties":{"highway":"bus_stop","public_transport":"platform","name":"Kootsekade","ref:IFOPT":"NL:Q:31001143","_quaycode":"NL:Q:31001143","_town":"Rotterdam","_status":"available","_mode":"bus","_direction":38,"_visuallyAccessible":false,"_disabledAccessible":false,"geojson_lng":4.483061237863271,"geojson_lat":51.94518704773292},"geometry":{"type":"Point","coordinates":[4.483061237863271,51.94518704773292]}},{"type":"Feature","properties":{"highway":"bus_stop","public_transport":"platform","name":"Plaswijcklaan","ref:IFOPT":"NL:Q:31006104","_quaycode":"NL:Q:31006104","_town":"Rotterdam","_status":"available","_mode":"bus","_direction":57,"_visuallyAccessible":false,"_disabledAccessible":true,"geojson_lng":4.481446501204497,"geojson_lat":51.95890035913513},"geometry":{"type":"Point","coordinates":[4.481446501204497,51.95890035913513]}},{"type":"Feature","properties":{"highway":"bus_stop","public_transport":"platform","name":"Rijndam Revalidatie","ref:IFOPT":"NL:Q:31002104","_quaycode":"NL:Q:31002104","_town":"Rotterdam","_status":"available","_mode":"bus","_direction":23,"_visuallyAccessible":false,"_disabledAccessible":false,"geojson_lng":4.476561916296443,"geojson_lat":51.95224695943796},"geometry":{"type":"Point","coordinates":[4.476561916296443,51.95224695943796]}},{"type":"Feature","properties":{"highway":"bus_stop","public_transport":"platform","name":"Plaswijcklaan","ref:IFOPT":"NL:Q:31006105","_quaycode":"NL:Q:31006105","_town":"Rotterdam","_status":"available","_mode":"bus","_direction":238,"_visuallyAccessible":false,"_disabledAccessible":false,"geojson_lng":4.480997716296436,"geojson_lat":51.958789037815045},"geometry":{"type":"Point","coordinates":[4.480997716296436,51.958789037815045]}},{"type":"Feature","properties":{"highway":"bus_stop","public_transport":"platform","name":"Adrianalaan","ref:IFOPT":"NL:Q:31002064","_quaycode":"NL:Q:31002064","_town":"Rotterdam","_status":"available","_mode":"bus","_direction":233,"_visuallyAccessible":true,"_disabledAccessible":true,"geojson_lng":4.472410189577308,"geojson_lat":51.962524774408905},"geometry":{"type":"Point","coordinates":[4.472410189577308,51.962524774408905]}},{"type":"Feature","properties":{"highway":"bus_stop","public_transport":"platform","name":"Plaswijckpark","ref:IFOPT":"NL:Q:31002106","_quaycode":"NL:Q:31002106","_town":"Rotterdam","_status":"available","_mode":"bus","_direction":16,"_visuallyAccessible":false,"_disabledAccessible":false,"geojson_lng":4.478447809408638,"geojson_lat":51.95681881676187},"geometry":{"type":"Point","coordinates":[4.478447809408638,51.95681881676187]}},{"type":"Feature","properties":{"highway":"bus_stop","public_transport":"platform","name":"Donkersingel","ref:IFOPT":"NL:Q:31003077","_quaycode":"NL:Q:31003077","_town":"Rotterdam","_status":"available","_mode":"bus","_direction":330,"_visuallyAccessible":false,"_disabledAccessible":true,"geojson_lng":4.470270137630875,"geojson_lat":51.951182345937966},"geometry":{"type":"Point","coordinates":[4.470270137630875,51.951182345937966]}},{"type":"Feature","properties":{"highway":"bus_stop","public_transport":"platform","name":"Bergpolderplein","ref:IFOPT":"NL:Q:31002078","_quaycode":"NL:Q:31002078","_town":"Rotterdam","_status":"available","_mode":"bus","_direction":270,"_visuallyAccessible":false,"_disabledAccessible":true,"geojson_lng":4.47574224405763,"geojson_lat":51.94532829446444},"geometry":{"type":"Point","coordinates":[4.47574224405763,51.94532829446444]}},{"type":"Feature","properties":{"highway":"bus_stop","public_transport":"platform","name":"Meidoornsingel","ref:IFOPT":"NL:Q:31006575","_quaycode":"NL:Q:31006575","_town":"Rotterdam","_status":"available","_mode":"bus","_direction":69,"_visuallyAccessible":false,"_disabledAccessible":false,"geojson_lng":4.468047610776666,"geojson_lat":51.95387059692645},"geometry":{"type":"Point","coordinates":[4.468047610776666,51.95387059692645]}},{"type":"Feature","properties":{"highway":"bus_stop","public_transport":"platform","name":"Erasmussingel","ref:IFOPT":"NL:Q:31002877","_quaycode":"NL:Q:31002877","_town":"Rotterdam","_status":"available","_mode":"bus","_direction":22,"_visuallyAccessible":false,"_disabledAccessible":true,"geojson_lng":4.474330721868846,"geojson_lat":51.946791493270396},"geometry":{"type":"Point","coordinates":[4.474330721868846,51.946791493270396]}},{"type":"Feature","properties":{"highway":"bus_stop","public_transport":"platform","name":"Wilgenplaslaan","ref:IFOPT":"NL:Q:31002083","_quaycode":"NL:Q:31002083","_town":"Rotterdam","_status":"available","_mode":"bus","_direction":14,"_visuallyAccessible":false,"_disabledAccessible":false,"geojson_lng":4.467220530644733,"geojson_lat":51.9566056853928},"geometry":{"type":"Point","coordinates":[4.467220530644733,51.9566056853928]}},{"type":"Feature","properties":{"highway":"bus_stop","public_transport":"platform","name":"Gilze-Rijenstraat","ref:IFOPT":"NL:Q:31002028","_quaycode":"NL:Q:31002028","_town":"Rotterdam","_status":"available","_mode":"bus","_direction":248,"_visuallyAccessible":true,"_disabledAccessible":true,"geojson_lng":4.451188952211068,"geojson_lat":51.953063469016975},"geometry":{"type":"Point","coordinates":[4.451188952211068,51.953063469016975]}},{"type":"Feature","properties":{"highway":"bus_stop","public_transport":"platform","name":"Kleiweg RET","ref:IFOPT":"NL:Q:31002113","_quaycode":"NL:Q:31002113","_town":"Rotterdam","_status":"available","_mode":"bus","_direction":110,"_visuallyAccessible":false,"_disabledAccessible":true,"geojson_lng":4.468171185240768,"geojson_lat":51.944990713887115},"geometry":{"type":"Point","coordinates":[4.468171185240768,51.944990713887115]}},{"type":"Feature","properties":{"highway":"bus_stop","public_transport":"platform","name":"Buitenzorg","ref:IFOPT":"NL:Q:31002072","_quaycode":"NL:Q:31002072","_town":"Rotterdam","_status":"available","_mode":"bus","_direction":30,"_visuallyAccessible":false,"_disabledAccessible":true,"geojson_lng":4.475284744030699,"geojson_lat":51.94923483542197},"geometry":{"type":"Point","coordinates":[4.475284744030699,51.94923483542197]}},{"type":"Feature","properties":{"highway":"bus_stop","public_transport":"platform","name":"Abeelweg","ref:IFOPT":"NL:Q:31002062","_quaycode":"NL:Q:31002062","_town":"Rotterdam","_status":"available","_mode":"bus","_direction":297,"_visuallyAccessible":false,"_disabledAccessible":true,"geojson_lng":4.47996983993946,"geojson_lat":51.96141479883189},"geometry":{"type":"Point","coordinates":[4.47996983993946,51.96141479883189]}},{"type":"Feature","properties":{"highway":"bus_stop","public_transport":"platform","name":"Rijndam Revalidatie","ref:IFOPT":"NL:Q:31002047","_quaycode":"NL:Q:31002047","_town":"Rotterdam","_status":"available","_mode":"bus","_direction":207,"_visuallyAccessible":false,"_disabledAccessible":false,"geojson_lng":4.4762366811425816,"geojson_lat":51.95178601672037},"geometry":{"type":"Point","coordinates":[4.4762366811425816,51.95178601672037]}}]}