{"type":"FeatureCollection","features":[{"type":"Feature","properties":{"highway":"bus_stop","public_transport":"platform","name":"Vijfhuizerweg","ref:IFOPT":"NL:Q:56242011","_quaycode":"NL:Q:56242011","_town":"Hoofddorp","_status":"available","_mode":"bus","_direction":235,"_visuallyAccessible":false,"_disabledAccessible":false,"geojson_lng":4.720324141492928,"geojson_lat":52.32516672730928},"geometry":{"type":"Point","coordinates":[4.720324141492928,52.32516672730928]}},{"type":"Feature","properties":{"highway":"bus_stop","public_transport":"platform","name":"IJweg","ref:IFOPT":"NL:Q:56222080","_quaycode":"NL:Q:56222080","_town":"Boesingheliede","_status":"available","_mode":"bus","_direction":55,"_visuallyAccessible":false,"_disabledAccessible":false,"geojson_lng":4.729752180534672,"geojson_lat":52.35913075403774},"geometry":{"type":"Point","coordinates":[4.729752180534672,52.35913075403774]}},{"type":"Feature","properties":{"highway":"bus_stop","public_transport":"platform","name":"Hoofdweg 271","ref:IFOPT":"NL:Q:56242030","_quaycode":"NL:Q:56242030","_town":"Lijnden","_status":"available","_mode":"bus","_direction":55,"_visuallyAccessible":false,"_disabledAccessible":false,"geojson_lng":4.736763076063913,"geojson_lat":52.33652007776385},"geometry":{"type":"Point","coordinates":[4.736763076063913,52.33652007776385]}},{"type":"Feature","properties":{"highway":"bus_stop","public_transport":"platform","name":"Piersonstraat","ref:IFOPT":"NL:Q:55232210","_quaycode":"NL:Q:55232210","_town":"Zwanenburg","_status":"available","_mode":"bus","_direction":118,"_visuallyAccessible":false,"_disabledAccessible":false,"geojson_lng":4.745245807322347,"geojson_lat":52.37392885726277},"geometry":{"type":"Point","coordinates":[4.745245807322347,52.37392885726277]}},{"type":"Feature","properties":{"highway":"bus_stop","public_transport":"platform","name":"Vijfhuizen","ref:IFOPT":"NL:Q:56230080","_quaycode":"NL:Q:56230080","_town":"Vijfhuizen","_status":"available","_mode":"bus","_direction":134,"_visuallyAccessible":true,"_disabledAccessible":true,"geojson_lng":4.67692016059839,"geojson_lat":52.34433701769049},"geometry":{"type":"Point","coordinates":[4.67692016059839,52.34433701769049]}},{"type":"Feature","properties":{"highway":"bus_stop","public_transport":"platform","name":"Vijfhuizerweg","ref:IFOPT":"NL:Q:56242010","_quaycode":"NL:Q:56242010","_town":"Hoofddorp","_status":"available","_mode":"bus","_direction":55,"_visuallyAccessible":false,"_disabledAccessible":false,"geojson_lng":4.720267899929324,"geojson_lat":52.32500462781283},"geometry":{"type":"Point","coordinates":[4.720267899929324,52.32500462781283]}},{"type":"Feature","properties":{"highway":"bus_stop","public_transport":"platform","name":"Hoofdweg 271","ref:IFOPT":"NL:Q:56242031","_quaycode":"NL:Q:56242031","_town":"Lijnden","_status":"available","_mode":"bus","_direction":235,"_visuallyAccessible":false,"_disabledAccessible":false,"geojson_lng":4.736558597367696,"geojson_lat":52.33645603840333},"geometry":{"type":"Point","coordinates":[4.736558597367696,52.33645603840333]}},{"type":"Feature","properties":{"highway":"bus_stop","public_transport":"platform","name":"IJweg","ref:IFOPT":"NL:Q:56222090","_quaycode":"NL:Q:56222090","_town":"Boesingheliede","_status":"available","_mode":"bus","_direction":235,"_visuallyAccessible":false,"_disabledAccessible":false,"geojson_lng":4.729691999840813,"geojson_lat":52.35922928606884},"geometry":{"type":"Point","coordinates":[4.729691999840813,52.35922928606884]}},{"type":"Feature","properties":{"highway":"bus_stop","public_transport":"platform","name":"Hoofdweg 199","ref:IFOPT":"NL:Q:56242070","_quaycode":"NL:Q:56242070","_town":"Lijnden","_status":"available","_mode":"bus","_direction":235,"_visuallyAccessible":false,"_disabledAccessible":false,"geojson_lng":4.742862625549951,"geojson_lat":52.34085864041951},"geometry":{"type":"Point","coordinates":[4.742862625549951,52.34085864041951]}},{"type":"Feature","properties":{"highway":"bus_stop","public_transport":"platform","name":"Hoofdweg 199","ref:IFOPT":"NL:Q:56242079","_quaycode":"NL:Q:56242079","_town":"Lijnden","_status":"available","_mode":"bus","_direction":55,"_visuallyAccessible":false,"_disabledAccessible":false,"geojson_lng":4.743226971603161,"geojson_lat":52.341031393230146},"geometry":{"type":"Point","coordinates":[4.743226971603161,52.341031393230146]}},{"type":"Feature","properties":{"highway":"bus_stop","public_transport":"platform","name":"Vijfhuizen","ref:IFOPT":"NL:Q:56230090","_quaycode":"NL:Q:56230090","_town":"Vijfhuizen","_status":"available","_mode":"bus","_direction":329,"_visuallyAccessible":false,"_disabledAccessible":false,"geojson_lng":4.6765300058288926,"geojson_lat":52.34487395021298},"geometry":{"type":"Point","coordinates":[4.6765300058288926,52.34487395021298]}},{"type":"Feature","properties":{"highway":"bus_stop","public_transport":"platform","name":"De Olm","ref:IFOPT":"NL:Q:55232260","_quaycode":"NL:Q:55232260","_town":"Zwanenburg","_status":"available","_mode":"bus","_direction":215,"_visuallyAccessible":false,"_disabledAccessible":false,"geojson_lng":4.746565437393938,"geojson_lat":52.37610206578488},"geometry":{"type":"Point","coordinates":[4.746565437393938,52.37610206578488]}},{"type":"Feature","properties":{"highway":"bus_stop","public_transport":"platform","name":"EXPO Greater Amsterdam","ref:IFOPT":"NL:Q:56230070","_quaycode":"NL:Q:56230070","_town":"Vijfhuizen","_status":"available","_mode":"bus","_direction":136,"_visuallyAccessible":false,"_disabledAccessible":false,"geojson_lng":4.679064602499272,"geojson_lat":52.34238151599402},"geometry":{"type":"Point","coordinates":[4.679064602499272,52.34238151599402]}},{"type":"Feature","properties":{"highway":"bus_stop","public_transport":"platform","name":"EXPO Greater Amsterdam","ref:IFOPT":"NL:Q:56230060","_quaycode":"NL:Q:56230060","_town":"Vijfhuizen","_status":"available","_mode":"bus","_direction":140,"_visuallyAccessible":false,"_disabledAccessible":false,"geojson_lng":4.679455850855518,"geojson_lat":52.34177267826561},"geometry":{"type":"Point","coordinates":[4.679455850855518,52.34177267826561]}},{"type":"Feature","properties":{"highway":"bus_stop","public_transport":"platform","name":"Prof. Donderslaan [tijdelijk]","ref:IFOPT":"NL:Q:55040001","_quaycode":"NL:Q:55040001","_town":"Haarlem","_status":"available","_mode":"bus","_direction":180,"_visuallyAccessible":null,"_disabledAccessible":null,"geojson_lng":4.657192587988278,"geojson_lat":52.36307950900509},"geometry":{"type":"Point","coordinates":[4.657192587988278,52.36307950900509]}},{"type":"Feature","properties":{"highway":"bus_stop","public_transport":"platform","name":"R. Kochlaan [tijdelijk]","ref:IFOPT":"NL:Q:55004390","_quaycode":"NL:Q:55004390","_town":"Haarlem","_status":"available","_mode":"bus","_direction":188,"_visuallyAccessible":null,"_disabledAccessible":null,"geojson_lng":4.664901256697072,"geojson_lat":52.359879897552936},"geometry":{"type":"Point","coordinates":[4.664901256697072,52.359879897552936]}},{"type":"Feature","properties":{"highway":"bus_stop","public_transport":"platform","name":"R. Kochlaan [tijdelijk]","ref:IFOPT":"NL:Q:55004080","_quaycode":"NL:Q:55004080","_town":"Haarlem","_status":"available","_mode":"bus","_direction":8,"_visuallyAccessible":null,"_disabledAccessible":null,"geojson_lng":4.665038887547149,"geojson_lat":52.35986024125454},"geometry":{"type":"Point","coordinates":[4.665038887547149,52.35986024125454]}},{"type":"Feature","properties":{"highway":"bus_stop","public_transport":"platform","name":"Prof. Donderslaan [tijdelijk]","ref:IFOPT":"NL:Q:55040002","_quaycode":"NL:Q:55040002","_town":"Haarlem","_status":"available","_mode":"bus","_direction":0,"_visuallyAccessible":false,"_disabledAccessible":false,"geojson_lng":4.657094184445044,"geojson_lat":52.36354467182945},"geometry":{"type":"Point","coordinates":[4.657094184445044,52.36354467182945]}},{"type":"Feature","properties":{"highway":"bus_stop","public_transport":"platform","name":"Braillelaan","ref:IFOPT":"NL:Q:55040600","_quaycode":"NL:Q:55040600","_town":"Haarlem","_status":"available","_mode":"bus","_direction":174,"_visuallyAccessible":true,"_disabledAccessible":true,"geojson_lng":4.660093121658079,"geojson_lat":52.35653928416342},"geometry":{"type":"Point","coordinates":[4.660093121658079,52.35653928416342]}},{"type":"Feature","properties":{"highway":"bus_stop","public_transport":"platform","name":"Prof. Donderslaan","ref:IFOPT":"NL:Q:55040470","_quaycode":"NL:Q:55040470","_town":"Haarlem","_status":"available","_mode":"bus","_direction":90,"_visuallyAccessible":true,"_disabledAccessible":true,"geojson_lng":4.657965768327648,"geojson_lat":52.364507454232275},"geometry":{"type":"Point","coordinates":[4.657965768327648,52.364507454232275]}},{"type":"Feature","properties":{"highway":"bus_stop","public_transport":"platform","name":"R. Kochlaan","ref:IFOPT":"NL:Q:55040510","_quaycode":"NL:Q:55040510","_town":"Haarlem","_status":"available","_mode":"bus","_direction":187,"_visuallyAccessible":true,"_disabledAccessible":true,"geojson_lng":4.665113376831612,"geojson_lat":52.36105498007718},"geometry":{"type":"Point","coordinates":[4.665113376831612,52.36105498007718]}},{"type":"Feature","properties":{"highway":"bus_stop","public_transport":"platform","name":"Leonardo da Vinciplein","ref:IFOPT":"NL:Q:55040550","_quaycode":"NL:Q:55040550","_town":"Haarlem","_status":"available","_mode":"bus","_direction":184,"_visuallyAccessible":true,"_disabledAccessible":true,"geojson_lng":4.664310037412211,"geojson_lat":52.35539668657263},"geometry":{"type":"Point","coordinates":[4.664310037412211,52.35539668657263]}},{"type":"Feature","properties":{"highway":"bus_stop","public_transport":"platform","name":"Briandlaan","ref:IFOPT":"NL:Q:55040410","_quaycode":"NL:Q:55040410","_town":"Haarlem","_status":"available","_mode":"bus","_direction":182,"_visuallyAccessible":true,"_disabledAccessible":true,"geojson_lng":4.657211589867076,"geojson_lat":52.35502056594348},"geometry":{"type":"Point","coordinates":[4.657211589867076,52.35502056594348]}},{"type":"Feature","properties":{"highway":"bus_stop","public_transport":"platform","name":"A. Schweitzerlaan","ref:IFOPT":"NL:Q:55040580","_quaycode":"NL:Q:55040580","_town":"Haarlem","_status":"available","_mode":"bus","_direction":147,"_visuallyAccessible":false,"_disabledAccessible":true,"geojson_lng":4.661211514093759,"geojson_lat":52.353679006099306},"geometry":{"type":"Point","coordinates":[4.661211514093759,52.353679006099306]}},{"type":"Feature","properties":{"highway":"bus_stop","public_transport":"platform","name":"Prof. Donderslaan","ref:IFOPT":"NL:Q:55040480","_quaycode":"NL:Q:55040480","_town":"Haarlem","_status":"available","_mode":"bus","_direction":270,"_visuallyAccessible":true,"_disabledAccessible":true,"geojson_lng":4.657789454193975,"geojson_lat":52.36451535583481},"geometry":{"type":"Point","coordinates":[4.657789454193975,52.36451535583481]}},{"type":"Feature","properties":{"highway":"bus_stop","public_transport":"platform","name":"Wamstekerstraat","ref:IFOPT":"NL:Q:55040490","_quaycode":"NL:Q:55040490","_town":"Haarlem","_status":"available","_mode":"bus","_direction":90,"_visuallyAccessible":true,"_disabledAccessible":true,"geojson_lng":4.662605406675527,"geojson_lat":52.364499993646575},"geometry":{"type":"Point","coordinates":[4.662605406675527,52.364499993646575]}},{"type":"Feature","properties":{"highway":"bus_stop","public_transport":"platform","name":"R. Kochlaan","ref:IFOPT":"NL:Q:55040520","_quaycode":"NL:Q:55040520","_town":"Haarlem","_status":"available","_mode":"bus","_direction":7,"_visuallyAccessible":true,"_disabledAccessible":false,"geojson_lng":4.6653184498526645,"geojson_lat":52.36108319459727},"geometry":{"type":"Point","coordinates":[4.6653184498526645,52.36108319459727]}},{"type":"Feature","properties":{"highway":"bus_stop","public_transport":"platform","name":"Briandlaan","ref:IFOPT":"NL:Q:55040420","_quaycode":"NL:Q:55040420","_town":"Haarlem","_status":"available","_mode":"bus","_direction":338,"_visuallyAccessible":false,"_disabledAccessible":true,"geojson_lng":4.657376884240739,"geojson_lat":52.354787899557145},"geometry":{"type":"Point","coordinates":[4.657376884240739,52.354787899557145]}},{"type":"Feature","properties":{"highway":"bus_stop","public_transport":"platform","name":"Wamstekerstraat","ref:IFOPT":"NL:Q:55040500","_quaycode":"NL:Q:55040500","_town":"Haarlem","_status":"available","_mode":"bus","_direction":270,"_visuallyAccessible":true,"_disabledAccessible":true,"geojson_lng":4.662223125161422,"geojson_lat":52.36453360458549},"geometry":{"type":"Point","coordinates":[4.662223125161422,52.36453360458549]}},{"type":"Feature","properties":{"highway":"bus_stop","public_transport":"platform","name":"Braillelaan","ref:IFOPT":"NL:Q:55040590","_quaycode":"NL:Q:55040590","_town":"Haarlem","_status":"available","_mode":"bus","_direction":4,"_visuallyAccessible":true,"_disabledAccessible":true,"geojson_lng":4.660162240805383,"geojson_lat":52.35680035808876},"geometry":{"type":"Point","coordinates":[4.660162240805383,52.35680035808876]}},{"type":"Feature","properties":{"highway":"bus_stop","public_transport":"platform","name":"Leonardo da Vinciplein","ref:IFOPT":"NL:Q:55040560","_quaycode":"NL:Q:55040560","_town":"Haarlem","_status":"available","_mode":"bus","_direction":3,"_visuallyAccessible":true,"_disabledAccessible":true,"geojson_lng":4.664396785093556,"geojson_lat":52.355478107525464},"geometry":{"type":"Point","coordinates":[4.664396785093556,52.355478107525464]}},{"type":"Feature","properties":{"highway":"bus_stop","public_transport":"platform","name":"A. Schweitzerlaan","ref:IFOPT":"NL:Q:55040570","_quaycode":"NL:Q:55040570","_town":"Haarlem","_status":"available","_mode":"bus","_direction":325,"_visuallyAccessible":false,"_disabledAccessible":true,"geojson_lng":4.661104216839434,"geojson_lat":52.35395697317067},"geometry":{"type":"Point","coordinates":[4.661104216839434,52.35395697317067]}},{"type":"Feature","properties":{"highway":"bus_stop","public_transport":"platform","name":"Marshallstraat","ref:IFOPT":"NL:Q:55040530","_quaycode":"NL:Q:55040530","_town":"Haarlem","_status":"available","_mode":"bus","_direction":194,"_visuallyAccessible":true,"_disabledAccessible":true,"geojson_lng":4.664501698576063,"geojson_lat":52.35804928875707},"geometry":{"type":"Point","coordinates":[4.664501698576063,52.35804928875707]}},{"type":"Feature","properties":{"highway":"bus_stop","public_transport":"platform","name":"Marshallstraat","ref:IFOPT":"NL:Q:55040540","_quaycode":"NL:Q:55040540","_town":"Haarlem","_status":"available","_mode":"bus","_direction":14,"_visuallyAccessible":true,"_disabledAccessible":true,"geojson_lng":4.664743768639041,"geojson_lat":52.3585091494971},"geometry":{"type":"Point","coordinates":[4.664743768639041,52.3585091494971]}},{"type":"Feature","properties":{"highway":"bus_stop","public_transport":"platform","name":"Jac. v. Looystraat","ref:IFOPT":"NL:Q:55004180","_quaycode":"NL:Q:55004180","_town":"Haarlem","_status":"available","_mode":"bus","_direction":26,"_visuallyAccessible":true,"_disabledAccessible":true,"geojson_lng":4.659416245645406,"geojson_lat":52.376326460296895},"geometry":{"type":"Point","coordinates":[4.659416245645406,52.376326460296895]}},{"type":"Feature","properties":{"highway":"bus_stop","public_transport":"platform","name":"Jac. v. Looystraat","ref:IFOPT":"NL:Q:55004290","_quaycode":"NL:Q:55004290","_town":"Haarlem","_status":"available","_mode":"bus","_direction":210,"_visuallyAccessible":true,"_disabledAccessible":true,"geojson_lng":4.65884960402542,"geojson_lat":52.37595447298005},"geometry":{"type":"Point","coordinates":[4.65884960402542,52.37595447298005]}},{"type":"Feature","properties":{"highway":"bus_stop","public_transport":"platform","name":"Vincent van Goghlaan","ref:IFOPT":"NL:Q:55002780","_quaycode":"NL:Q:55002780","_town":"Haarlem","_status":"available","_mode":"bus","_direction":36,"_visuallyAccessible":false,"_disabledAccessible":true,"geojson_lng":4.662178694713422,"geojson_lat":52.37533676710213},"geometry":{"type":"Point","coordinates":[4.662178694713422,52.37533676710213]}},{"type":"Feature","properties":{"highway":"bus_stop","public_transport":"platform","name":"Sowetostraat","ref:IFOPT":"NL:Q:55002840","_quaycode":"NL:Q:55002840","_town":"Haarlem","_status":"available","_mode":"bus","_direction":211,"_visuallyAccessible":false,"_disabledAccessible":true,"geojson_lng":4.66860481534134,"geojson_lat":52.375717483344715},"geometry":{"type":"Point","coordinates":[4.66860481534134,52.375717483344715]}},{"type":"Feature","properties":{"highway":"bus_stop","public_transport":"platform","name":"Sowetostraat","ref:IFOPT":"NL:Q:55002830","_quaycode":"NL:Q:55002830","_town":"Haarlem","_status":"available","_mode":"bus","_direction":31,"_visuallyAccessible":false,"_disabledAccessible":true,"geojson_lng":4.668852555473113,"geojson_lat":52.37583582897541},"geometry":{"type":"Point","coordinates":[4.668852555473113,52.37583582897541]}},{"type":"Feature","properties":{"highway":"bus_stop","public_transport":"platform","name":"Vincent van Goghlaan","ref:IFOPT":"NL:Q:55002790","_quaycode":"NL:Q:55002790","_town":"Haarlem","_status":"available","_mode":"bus","_direction":216,"_visuallyAccessible":false,"_disabledAccessible":true,"geojson_lng":4.662002926074591,"geojson_lat":52.375308726995215},"geometry":{"type":"Point","coordinates":[4.662002926074591,52.375308726995215]}}]}