{"type":"FeatureCollection","features":[{"type":"Feature","properties":{"SeqNo":"216683","Type":"S","DHID":"de:09572:6031","Parent":"de:09572:6031","Name":"Herzogenaurach Schumannstr.","MunicipalityCode":"09572132","Municipality":"Herzogenaurach","DistrictCode":"","District":"","Description":"","Authority":"BEG","DelfiName":"-","THID":"D9256400178F","LastOperationDate":"2025-06-14T00:00:00","SEV":"nein","longitude":"10,868052","latitude":"49,558716","geojson_lng":10.868052,"geojson_lat":49.558716},"geometry":{"type":"Point","coordinates":[10.868052,49.558716]}},{"type":"Feature","properties":{"SeqNo":"216684","Type":"Q","DHID":"de:09572:6031:0:1","Parent":"de:09572:6031","Name":"1","MunicipalityCode":"00000000","Municipality":"-","DistrictCode":"-","District":"-","Description":"","Authority":"BEG","DelfiName":"-","THID":"-","LastOperationDate":"","SEV":"nein","longitude":"10,868079","latitude":"49,558599","geojson_lng":10.868079,"geojson_lat":49.558599},"geometry":{"type":"Point","coordinates":[10.868079,49.558599]}},{"type":"Feature","properties":{"SeqNo":"216685","Type":"Q","DHID":"de:09572:6031:0:2","Parent":"de:09572:6031","Name":"2","MunicipalityCode":"00000000","Municipality":"-","DistrictCode":"-","District":"-","Description":"","Authority":"BEG","DelfiName":"-","THID":"-","LastOperationDate":"","SEV":"nein","longitude":"10,868052","latitude":"49,558716","geojson_lng":10.868052,"geojson_lat":49.558716},"geometry":{"type":"Point","coordinates":[10.868052,49.558716]}},{"type":"Feature","properties":{"SeqNo":"216716","Type":"S","DHID":"de:09572:6042","Parent":"de:09572:6042","Name":"Herzogenaurach Schönthalstraße","MunicipalityCode":"09572132","Municipality":"Herzogenaurach","DistrictCode":"","District":"","Description":"","Authority":"BEG","DelfiName":"-","THID":"D9256400179A","LastOperationDate":"2025-06-14T00:00:00","SEV":"nein","longitude":"10,874241","latitude":"49,559304","geojson_lng":10.874241,"geojson_lat":49.559304},"geometry":{"type":"Point","coordinates":[10.874241,49.559304]}},{"type":"Feature","properties":{"SeqNo":"216717","Type":"Q","DHID":"de:09572:6042:0:1","Parent":"de:09572:6042","Name":"Linie 276","MunicipalityCode":"00000000","Municipality":"-","DistrictCode":"-","District":"-","Description":"","Authority":"BEG","DelfiName":"-","THID":"-","LastOperationDate":"","SEV":"nein","longitude":"10,873999","latitude":"49,559566","geojson_lng":10.873999,"geojson_lat":49.559566},"geometry":{"type":"Point","coordinates":[10.873999,49.559566]}},{"type":"Feature","properties":{"SeqNo":"216718","Type":"Q","DHID":"de:09572:6042:0:2","Parent":"de:09572:6042","Name":"277","MunicipalityCode":"00000000","Municipality":"-","DistrictCode":"-","District":"-","Description":"","Authority":"BEG","DelfiName":"-","THID":"-","LastOperationDate":"","SEV":"nein","longitude":"10,874124","latitude":"49,558919","geojson_lng":10.874124,"geojson_lat":49.558919},"geometry":{"type":"Point","coordinates":[10.874124,49.558919]}},{"type":"Feature","properties":{"SeqNo":"216719","Type":"S","DHID":"de:09572:6043","Parent":"de:09572:6043","Name":"Herzogenaurach P.-Lincke-Str.","MunicipalityCode":"09572132","Municipality":"Herzogenaurach","DistrictCode":"","District":"","Description":"","Authority":"BEG","DelfiName":"-","THID":"D9256400179B","LastOperationDate":"2025-06-14T00:00:00","SEV":"nein","longitude":"10,869579","latitude":"49,560697","geojson_lng":10.869579,"geojson_lat":49.560697},"geometry":{"type":"Point","coordinates":[10.869579,49.560697]}},{"type":"Feature","properties":{"SeqNo":"216720","Type":"Q","DHID":"de:09572:6043:0:1","Parent":"de:09572:6043","Name":"1","MunicipalityCode":"00000000","Municipality":"-","DistrictCode":"-","District":"-","Description":"","Authority":"BEG","DelfiName":"-","THID":"-","LastOperationDate":"","SEV":"nein","longitude":"10,869615","latitude":"49,560743","geojson_lng":10.869615,"geojson_lat":49.560743},"geometry":{"type":"Point","coordinates":[10.869615,49.560743]}},{"type":"Feature","properties":{"SeqNo":"216721","Type":"Q","DHID":"de:09572:6043:0:2","Parent":"de:09572:6043","Name":"2","MunicipalityCode":"00000000","Municipality":"-","DistrictCode":"-","District":"-","Description":"","Authority":"BEG","DelfiName":"-","THID":"-","LastOperationDate":"","SEV":"nein","longitude":"10,869579","latitude":"49,560697","geojson_lng":10.869579,"geojson_lat":49.560697},"geometry":{"type":"Point","coordinates":[10.869579,49.560697]}},{"type":"Feature","properties":{"SeqNo":"216741","Type":"Q","DHID":"de:09572:6050:0:1","Parent":"de:09572:6050","Name":"1","MunicipalityCode":"00000000","Municipality":"-","DistrictCode":"-","District":"-","Description":"","Authority":"BEG","DelfiName":"-","THID":"-","LastOperationDate":"","SEV":"nein","longitude":"10,868824","latitude":"49,560918","geojson_lng":10.868824,"geojson_lat":49.560918},"geometry":{"type":"Point","coordinates":[10.868824,49.560918]}}]}