{"type":"FeatureCollection","features":[{"type":"Feature","properties":{"highway":"bus_stop","public_transport":"platform","name":"Vlietwaard","ref:IFOPT":"NL:Q:36001850","_quaycode":"NL:Q:36001850","_town":"Alkmaar","_status":"available","_mode":"bus","_direction":245,"_visuallyAccessible":true,"_disabledAccessible":true,"geojson_lng":4.766760788461406,"geojson_lat":52.645448902069994},"geometry":{"type":"Point","coordinates":[4.766760788461406,52.645448902069994]}},{"type":"Feature","properties":{"highway":"bus_stop","public_transport":"platform","name":"Daalmeerpad","ref:IFOPT":"NL:Q:35111330","_quaycode":"NL:Q:35111330","_town":"Alkmaar","_status":"available","_mode":"bus","_direction":3,"_visuallyAccessible":true,"_disabledAccessible":true,"geojson_lng":4.762348067979732,"geojson_lat":52.67005078936471},"geometry":{"type":"Point","coordinates":[4.762348067979732,52.67005078936471]}},{"type":"Feature","properties":{"highway":"bus_stop","public_transport":"platform","name":"Eggestraat","ref:IFOPT":"NL:Q:35110160","_quaycode":"NL:Q:35110160","_town":"Alkmaar","_status":"available","_mode":"bus","_direction":28,"_visuallyAccessible":true,"_disabledAccessible":true,"geojson_lng":4.756552548037882,"geojson_lat":52.66491547440629},"geometry":{"type":"Point","coordinates":[4.756552548037882,52.66491547440629]}},{"type":"Feature","properties":{"highway":"bus_stop","public_transport":"platform","name":"Waterhoen","ref:IFOPT":"NL:Q:35111410","_quaycode":"NL:Q:35111410","_town":"Alkmaar","_status":"available","_mode":"bus","_direction":244,"_visuallyAccessible":false,"_disabledAccessible":true,"geojson_lng":4.766074667696196,"geojson_lat":52.65951033870861},"geometry":{"type":"Point","coordinates":[4.766074667696196,52.65951033870861]}},{"type":"Feature","properties":{"highway":"bus_stop","public_transport":"platform","name":"Vasalisstraat","ref:IFOPT":"NL:Q:35111880","_quaycode":"NL:Q:35111880","_town":"Alkmaar","_status":"available","_mode":"bus","_direction":50,"_visuallyAccessible":true,"_disabledAccessible":true,"geojson_lng":4.769492142397391,"geojson_lat":52.65401896960673},"geometry":{"type":"Point","coordinates":[4.769492142397391,52.65401896960673]}},{"type":"Feature","properties":{"highway":"bus_stop","public_transport":"platform","name":"Wijkwaard","ref:IFOPT":"NL:Q:36001530","_quaycode":"NL:Q:36001530","_town":"Alkmaar","_status":"available","_mode":"bus","_direction":80,"_visuallyAccessible":true,"_disabledAccessible":true,"geojson_lng":4.748078200489313,"geojson_lat":52.645880207749386},"geometry":{"type":"Point","coordinates":[4.748078200489313,52.645880207749386]}},{"type":"Feature","properties":{"highway":"bus_stop","public_transport":"platform","name":"Laan van Parijs","ref:IFOPT":"NL:Q:35110010","_quaycode":"NL:Q:35110010","_town":"Alkmaar","_status":"available","_mode":"bus","_direction":102,"_visuallyAccessible":true,"_disabledAccessible":true,"geojson_lng":4.767446535006787,"geojson_lat":52.66494576932106},"geometry":{"type":"Point","coordinates":[4.767446535006787,52.66494576932106]}},{"type":"Feature","properties":{"highway":"bus_stop","public_transport":"platform","name":"Ardennenstraat","ref:IFOPT":"NL:Q:35110030","_quaycode":"NL:Q:35110030","_town":"Alkmaar","_status":"available","_mode":"bus","_direction":243,"_visuallyAccessible":true,"_disabledAccessible":false,"geojson_lng":4.760306502689185,"geojson_lat":52.66703832349808},"geometry":{"type":"Point","coordinates":[4.760306502689185,52.66703832349808]}},{"type":"Feature","properties":{"highway":"bus_stop","public_transport":"platform","name":"Eggestraat","ref:IFOPT":"NL:Q:35110050","_quaycode":"NL:Q:35110050","_town":"Alkmaar","_status":"available","_mode":"bus","_direction":208,"_visuallyAccessible":true,"_disabledAccessible":false,"geojson_lng":4.756317212633972,"geojson_lat":52.664833341609075},"geometry":{"type":"Point","coordinates":[4.756317212633972,52.664833341609075]}},{"type":"Feature","properties":{"highway":"bus_stop","public_transport":"platform","name":"Faktorij","ref:IFOPT":"NL:Q:35110070","_quaycode":"NL:Q:35110070","_town":"Alkmaar","_status":"available","_mode":"bus","_direction":233,"_visuallyAccessible":true,"_disabledAccessible":true,"geojson_lng":4.753220966065722,"geojson_lat":52.662228561416974},"geometry":{"type":"Point","coordinates":[4.753220966065722,52.662228561416974]}},{"type":"Feature","properties":{"highway":"bus_stop","public_transport":"platform","name":"Ardennenstraat","ref:IFOPT":"NL:Q:35110180","_quaycode":"NL:Q:35110180","_town":"Alkmaar","_status":"available","_mode":"bus","_direction":63,"_visuallyAccessible":true,"_disabledAccessible":true,"geojson_lng":4.760425909364973,"geojson_lat":52.666958067853315},"geometry":{"type":"Point","coordinates":[4.760425909364973,52.666958067853315]}},{"type":"Feature","properties":{"highway":"bus_stop","public_transport":"platform","name":"Laan van Troyes","ref:IFOPT":"NL:Q:35110080","_quaycode":"NL:Q:35110080","_town":"Alkmaar","_status":"available","_mode":"bus","_direction":286,"_visuallyAccessible":false,"_disabledAccessible":true,"geojson_lng":4.759028668074677,"geojson_lat":52.656112113380104},"geometry":{"type":"Point","coordinates":[4.759028668074677,52.656112113380104]}},{"type":"Feature","properties":{"highway":"bus_stop","public_transport":"platform","name":"Branderij","ref:IFOPT":"NL:Q:35110090","_quaycode":"NL:Q:35110090","_town":"Alkmaar","_status":"available","_mode":"bus","_direction":208,"_visuallyAccessible":true,"_disabledAccessible":false,"geojson_lng":4.751122662726527,"geojson_lat":52.660141310428585},"geometry":{"type":"Point","coordinates":[4.751122662726527,52.660141310428585]}},{"type":"Feature","properties":{"highway":"bus_stop","public_transport":"platform","name":"Laan van Bath","ref:IFOPT":"NL:Q:35110110","_quaycode":"NL:Q:35110110","_town":"Alkmaar","_status":"available","_mode":"bus","_direction":101,"_visuallyAccessible":true,"_disabledAccessible":true,"geojson_lng":4.757821605689128,"geojson_lat":52.65784026722625},"geometry":{"type":"Point","coordinates":[4.757821605689128,52.65784026722625]}},{"type":"Feature","properties":{"highway":"bus_stop","public_transport":"platform","name":"Faktorij","ref:IFOPT":"NL:Q:35110140","_quaycode":"NL:Q:35110140","_town":"Alkmaar","_status":"available","_mode":"bus","_direction":62,"_visuallyAccessible":true,"_disabledAccessible":false,"geojson_lng":4.754102725111299,"geojson_lat":52.662583759345665},"geometry":{"type":"Point","coordinates":[4.754102725111299,52.662583759345665]}},{"type":"Feature","properties":{"highway":"bus_stop","public_transport":"platform","name":"Laan van Bath","ref:IFOPT":"NL:Q:35110100","_quaycode":"NL:Q:35110100","_town":"Alkmaar","_status":"available","_mode":"bus","_direction":288,"_visuallyAccessible":true,"_disabledAccessible":true,"geojson_lng":4.757289446845444,"geojson_lat":52.65784643732531},"geometry":{"type":"Point","coordinates":[4.757289446845444,52.65784643732531]}},{"type":"Feature","properties":{"highway":"bus_stop","public_transport":"platform","name":"Europaboulevard","ref:IFOPT":"NL:Q:35110200","_quaycode":"NL:Q:35110200","_town":"Alkmaar","_status":"available","_mode":"bus","_direction":28,"_visuallyAccessible":true,"_disabledAccessible":false,"geojson_lng":4.7586315707240425,"geojson_lat":52.653908143530636},"geometry":{"type":"Point","coordinates":[4.7586315707240425,52.653908143530636]}},{"type":"Feature","properties":{"highway":"bus_stop","public_transport":"platform","name":"Branderij","ref:IFOPT":"NL:Q:35110120","_quaycode":"NL:Q:35110120","_town":"Alkmaar","_status":"available","_mode":"bus","_direction":33,"_visuallyAccessible":true,"_disabledAccessible":true,"geojson_lng":4.751689837799905,"geojson_lat":52.66078243515755},"geometry":{"type":"Point","coordinates":[4.751689837799905,52.66078243515755]}},{"type":"Feature","properties":{"highway":"bus_stop","public_transport":"platform","name":"Laan van Parijs","ref:IFOPT":"NL:Q:35110230","_quaycode":"NL:Q:35110230","_town":"Alkmaar","_status":"available","_mode":"bus","_direction":211,"_visuallyAccessible":true,"_disabledAccessible":true,"geojson_lng":4.766487417588317,"geojson_lat":52.66482393480475},"geometry":{"type":"Point","coordinates":[4.766487417588317,52.66482393480475]}},{"type":"Feature","properties":{"highway":"bus_stop","public_transport":"platform","name":"Laan van Straatsburg","ref:IFOPT":"NL:Q:35110290","_quaycode":"NL:Q:35110290","_town":"Alkmaar","_status":"available","_mode":"bus","_direction":163,"_visuallyAccessible":true,"_disabledAccessible":true,"geojson_lng":4.757017228880979,"geojson_lat":52.65002610015901},"geometry":{"type":"Point","coordinates":[4.757017228880979,52.65002610015901]}},{"type":"Feature","properties":{"highway":"bus_stop","public_transport":"platform","name":"Laan van Straatsburg","ref:IFOPT":"NL:Q:35110280","_quaycode":"NL:Q:35110280","_town":"Alkmaar","_status":"available","_mode":"bus","_direction":354,"_visuallyAccessible":false,"_disabledAccessible":false,"geojson_lng":4.757095200745773,"geojson_lat":52.65077245451894},"geometry":{"type":"Point","coordinates":[4.757095200745773,52.65077245451894]}},{"type":"Feature","properties":{"highway":"bus_stop","public_transport":"platform","name":"Albatrosweg","ref:IFOPT":"NL:Q:35110530","_quaycode":"NL:Q:35110530","_town":"Alkmaar","_status":"available","_mode":"bus","_direction":140,"_visuallyAccessible":true,"_disabledAccessible":false,"geojson_lng":4.766801476410405,"geojson_lat":52.66247092492073},"geometry":{"type":"Point","coordinates":[4.766801476410405,52.66247092492073]}},{"type":"Feature","properties":{"highway":"bus_stop","public_transport":"platform","name":"Laan van Brussel","ref:IFOPT":"NL:Q:35110620","_quaycode":"NL:Q:35110620","_town":"Alkmaar","_status":"available","_mode":"bus","_direction":103,"_visuallyAccessible":false,"_disabledAccessible":true,"geojson_lng":4.755056219682085,"geojson_lat":52.65589334728385},"geometry":{"type":"Point","coordinates":[4.755056219682085,52.65589334728385]}},{"type":"Feature","properties":{"highway":"bus_stop","public_transport":"platform","name":"Gruttostraat","ref:IFOPT":"NL:Q:35110550","_quaycode":"NL:Q:35110550","_town":"Alkmaar","_status":"available","_mode":"bus","_direction":215,"_visuallyAccessible":true,"_disabledAccessible":false,"geojson_lng":4.763370721246271,"geojson_lat":52.6584087343793},"geometry":{"type":"Point","coordinates":[4.763370721246271,52.6584087343793]}},{"type":"Feature","properties":{"highway":"bus_stop","public_transport":"platform","name":"Gruttostraat","ref:IFOPT":"NL:Q:35110640","_quaycode":"NL:Q:35110640","_town":"Alkmaar","_status":"available","_mode":"bus","_direction":25,"_visuallyAccessible":true,"_disabledAccessible":true,"geojson_lng":4.763707831230879,"geojson_lat":52.65860822083753},"geometry":{"type":"Point","coordinates":[4.763707831230879,52.65860822083753]}},{"type":"Feature","properties":{"highway":"bus_stop","public_transport":"platform","name":"Daalmeerpad","ref:IFOPT":"NL:Q:35111320","_quaycode":"NL:Q:35111320","_town":"Alkmaar","_status":"available","_mode":"bus","_direction":181,"_visuallyAccessible":true,"_disabledAccessible":true,"geojson_lng":4.761999927852834,"geojson_lat":52.669581626030755},"geometry":{"type":"Point","coordinates":[4.761999927852834,52.669581626030755]}},{"type":"Feature","properties":{"highway":"bus_stop","public_transport":"platform","name":"Looierstraat","ref:IFOPT":"NL:Q:35110710","_quaycode":"NL:Q:35110710","_town":"Alkmaar","_status":"available","_mode":"bus","_direction":255,"_visuallyAccessible":true,"_disabledAccessible":true,"geojson_lng":4.749515142274836,"geojson_lat":52.655818831368244},"geometry":{"type":"Point","coordinates":[4.749515142274836,52.655818831368244]}},{"type":"Feature","properties":{"highway":"bus_stop","public_transport":"platform","name":"Waterhoen","ref:IFOPT":"NL:Q:35111380","_quaycode":"NL:Q:35111380","_town":"Alkmaar","_status":"available","_mode":"bus","_direction":63,"_visuallyAccessible":false,"_disabledAccessible":true,"geojson_lng":4.766839636473982,"geojson_lat":52.659765972946786},"geometry":{"type":"Point","coordinates":[4.766839636473982,52.659765972946786]}},{"type":"Feature","properties":{"highway":"bus_stop","public_transport":"platform","name":"Europaboulevard","ref:IFOPT":"NL:Q:35112100","_quaycode":"NL:Q:35112100","_town":"Alkmaar","_status":"available","_mode":"bus","_direction":208,"_visuallyAccessible":true,"_disabledAccessible":false,"geojson_lng":4.758527872761415,"geojson_lat":52.65392556990491},"geometry":{"type":"Point","coordinates":[4.758527872761415,52.65392556990491]}},{"type":"Feature","properties":{"highway":"bus_stop","public_transport":"platform","name":"Mezenstraat","ref:IFOPT":"NL:Q:35120080","_quaycode":"NL:Q:35120080","_town":"Sint Pancras","_status":"available","_mode":"bus","_direction":34,"_visuallyAccessible":false,"_disabledAccessible":true,"geojson_lng":4.779497167630504,"geojson_lat":52.65187762982293},"geometry":{"type":"Point","coordinates":[4.779497167630504,52.65187762982293]}},{"type":"Feature","properties":{"highway":"bus_stop","public_transport":"platform","name":"Mezenstraat","ref:IFOPT":"NL:Q:35120111","_quaycode":"NL:Q:35120111","_town":"Sint Pancras","_status":"available","_mode":"bus","_direction":216,"_visuallyAccessible":false,"_disabledAccessible":true,"geojson_lng":4.779262728267172,"geojson_lat":52.65173263608651},"geometry":{"type":"Point","coordinates":[4.779262728267172,52.65173263608651]}},{"type":"Feature","properties":{"highway":"bus_stop","public_transport":"platform","name":"Vinkenlaan","ref:IFOPT":"NL:Q:35120070","_quaycode":"NL:Q:35120070","_town":"Sint Pancras","_status":"available","_mode":"bus","_direction":195,"_visuallyAccessible":false,"_disabledAccessible":true,"geojson_lng":4.781987938645302,"geojson_lat":52.65987996320559},"geometry":{"type":"Point","coordinates":[4.781987938645302,52.65987996320559]}},{"type":"Feature","properties":{"highway":"bus_stop","public_transport":"platform","name":"Meeuwenlaan","ref:IFOPT":"NL:Q:35120100","_quaycode":"NL:Q:35120100","_town":"Sint Pancras","_status":"available","_mode":"bus","_direction":24,"_visuallyAccessible":false,"_disabledAccessible":true,"geojson_lng":4.780987125539006,"geojson_lat":52.65528240245437},"geometry":{"type":"Point","coordinates":[4.780987125539006,52.65528240245437]}},{"type":"Feature","properties":{"highway":"bus_stop","public_transport":"platform","name":"Vlietwaard","ref:IFOPT":"NL:Q:35111840","_quaycode":"NL:Q:35111840","_town":"Alkmaar","_status":"available","_mode":"bus","_direction":65,"_visuallyAccessible":false,"_disabledAccessible":true,"geojson_lng":4.766762309232027,"geojson_lat":52.64534106303787},"geometry":{"type":"Point","coordinates":[4.766762309232027,52.64534106303787]}},{"type":"Feature","properties":{"highway":"bus_stop","public_transport":"platform","name":"Vasalisstraat","ref:IFOPT":"NL:Q:35111890","_quaycode":"NL:Q:35111890","_town":"Alkmaar","_status":"available","_mode":"bus","_direction":233,"_visuallyAccessible":true,"_disabledAccessible":true,"geojson_lng":4.769415983633516,"geojson_lat":52.65418034410674},"geometry":{"type":"Point","coordinates":[4.769415983633516,52.65418034410674]}},{"type":"Feature","properties":{"highway":"bus_stop","public_transport":"platform","name":"Johan Huizingastraat","ref:IFOPT":"NL:Q:35111440","_quaycode":"NL:Q:35111440","_town":"Alkmaar","_status":"available","_mode":"bus","_direction":29,"_visuallyAccessible":true,"_disabledAccessible":false,"geojson_lng":4.772125732819866,"geojson_lat":52.6675403942465},"geometry":{"type":"Point","coordinates":[4.772125732819866,52.6675403942465]}},{"type":"Feature","properties":{"highway":"bus_stop","public_transport":"platform","name":"v.d.Vijzellaan","ref:IFOPT":"NL:Q:35120140","_quaycode":"NL:Q:35120140","_town":"Sint Pancras","_status":"available","_mode":"bus","_direction":30,"_visuallyAccessible":false,"_disabledAccessible":true,"geojson_lng":4.785831687026892,"geojson_lat":52.664141415343714},"geometry":{"type":"Point","coordinates":[4.785831687026892,52.664141415343714]}},{"type":"Feature","properties":{"highway":"bus_stop","public_transport":"platform","name":"Deltastraat","ref:IFOPT":"NL:Q:35120130","_quaycode":"NL:Q:35120130","_town":"Alkmaar","_status":"available","_mode":"bus","_direction":194,"_visuallyAccessible":true,"_disabledAccessible":false,"geojson_lng":4.776457525067717,"geojson_lat":52.646227064725814},"geometry":{"type":"Point","coordinates":[4.776457525067717,52.646227064725814]}},{"type":"Feature","properties":{"highway":"bus_stop","public_transport":"platform","name":"Vinkenlaan","ref:IFOPT":"NL:Q:35120120","_quaycode":"NL:Q:35120120","_town":"Sint Pancras","_status":"available","_mode":"bus","_direction":15,"_visuallyAccessible":false,"_disabledAccessible":true,"geojson_lng":4.7821198400389076,"geojson_lat":52.65996151909856},"geometry":{"type":"Point","coordinates":[4.7821198400389076,52.65996151909856]}},{"type":"Feature","properties":{"highway":"bus_stop","public_transport":"platform","name":"Ida Gerhardtstraat","ref:IFOPT":"NL:Q:35111860","_quaycode":"NL:Q:35111860","_town":"Alkmaar","_status":"available","_mode":"bus","_direction":306,"_visuallyAccessible":true,"_disabledAccessible":true,"geojson_lng":4.768452737091559,"geojson_lat":52.64911552502306},"geometry":{"type":"Point","coordinates":[4.768452737091559,52.64911552502306]}},{"type":"Feature","properties":{"highway":"bus_stop","public_transport":"platform","name":"Laan van Brussel","ref:IFOPT":"NL:Q:35110570","_quaycode":"NL:Q:35110570","_town":"Alkmaar","_status":"available","_mode":"bus","_direction":281,"_visuallyAccessible":true,"_disabledAccessible":true,"geojson_lng":4.755113910846455,"geojson_lat":52.65599251345785},"geometry":{"type":"Point","coordinates":[4.755113910846455,52.65599251345785]}},{"type":"Feature","properties":{"highway":"bus_stop","public_transport":"platform","name":"Looierstraat","ref:IFOPT":"NL:Q:35110720","_quaycode":"NL:Q:35110720","_town":"Alkmaar","_status":"available","_mode":"bus","_direction":75,"_visuallyAccessible":false,"_disabledAccessible":true,"geojson_lng":4.749737592532769,"geojson_lat":52.6557661004187},"geometry":{"type":"Point","coordinates":[4.749737592532769,52.6557661004187]}},{"type":"Feature","properties":{"highway":"bus_stop","public_transport":"platform","name":"Albatrosweg","ref:IFOPT":"NL:Q:35110660","_quaycode":"NL:Q:35110660","_town":"Alkmaar","_status":"available","_mode":"bus","_direction":322,"_visuallyAccessible":true,"_disabledAccessible":true,"geojson_lng":4.767914926846639,"geojson_lat":52.662126225883895},"geometry":{"type":"Point","coordinates":[4.767914926846639,52.662126225883895]}},{"type":"Feature","properties":{"highway":"bus_stop","public_transport":"platform","name":"Deltastraat","ref:IFOPT":"NL:Q:35120060","_quaycode":"NL:Q:35120060","_town":"Alkmaar","_status":"available","_mode":"bus","_direction":14,"_visuallyAccessible":false,"_disabledAccessible":false,"geojson_lng":4.776720852001303,"geojson_lat":52.64641714881448},"geometry":{"type":"Point","coordinates":[4.776720852001303,52.64641714881448]}},{"type":"Feature","properties":{"highway":"bus_stop","public_transport":"platform","name":"Laan van Troyes","ref:IFOPT":"NL:Q:35110130","_quaycode":"NL:Q:35110130","_town":"Alkmaar","_status":"available","_mode":"bus","_direction":105,"_visuallyAccessible":true,"_disabledAccessible":true,"geojson_lng":4.758926633905072,"geojson_lat":52.65601271491266},"geometry":{"type":"Point","coordinates":[4.758926633905072,52.65601271491266]}},{"type":"Feature","properties":{"highway":"bus_stop","public_transport":"platform","name":"Herenweg/Beverkoog","ref:IFOPT":"NL:Q:35120020","_quaycode":"NL:Q:35120020","_town":"Alkmaar","_status":"available","_mode":"bus","_direction":280,"_visuallyAccessible":true,"_disabledAccessible":true,"geojson_lng":4.777288052923559,"geojson_lat":52.64280718828834},"geometry":{"type":"Point","coordinates":[4.777288052923559,52.64280718828834]}},{"type":"Feature","properties":{"highway":"bus_stop","public_transport":"platform","name":"Station Noord","ref:IFOPT":"NL:Q:36001051","_quaycode":"NL:Q:36001051","_town":"Alkmaar","_status":"available","_mode":"bus","_direction":68,"_visuallyAccessible":true,"_disabledAccessible":true,"geojson_lng":4.763430046052788,"geojson_lat":52.64380478507514},"geometry":{"type":"Point","coordinates":[4.763430046052788,52.64380478507514]}},{"type":"Feature","properties":{"highway":"bus_stop","public_transport":"platform","name":"Station Noord","ref:IFOPT":"NL:Q:36001050","_quaycode":"NL:Q:36001050","_town":"Alkmaar","_status":"available","_mode":"bus","_direction":68,"_visuallyAccessible":true,"_disabledAccessible":true,"geojson_lng":4.763385851728614,"geojson_lat":52.64379556598966},"geometry":{"type":"Point","coordinates":[4.763385851728614,52.64379556598966]}},{"type":"Feature","properties":{"highway":"bus_stop","public_transport":"platform","name":"Schinkelwaard","ref:IFOPT":"NL:Q:36001030","_quaycode":"NL:Q:36001030","_town":"Alkmaar","_status":"available","_mode":"bus","_direction":110,"_visuallyAccessible":true,"_disabledAccessible":true,"geojson_lng":4.759030173311898,"geojson_lat":52.64669349394034},"geometry":{"type":"Point","coordinates":[4.759030173311898,52.64669349394034]}},{"type":"Feature","properties":{"highway":"bus_stop","public_transport":"platform","name":"Tochtwaard","ref:IFOPT":"NL:Q:36001570","_quaycode":"NL:Q:36001570","_town":"Alkmaar","_status":"available","_mode":"bus","_direction":146,"_visuallyAccessible":true,"_disabledAccessible":true,"geojson_lng":4.753881167966173,"geojson_lat":52.64307128046092},"geometry":{"type":"Point","coordinates":[4.753881167966173,52.64307128046092]}},{"type":"Feature","properties":{"highway":"bus_stop","public_transport":"platform","name":"Tochtwaard","ref:IFOPT":"NL:Q:36001640","_quaycode":"NL:Q:36001640","_town":"Alkmaar","_status":"available","_mode":"bus","_direction":326,"_visuallyAccessible":true,"_disabledAccessible":true,"geojson_lng":4.7538776753984635,"geojson_lat":52.643313917927486},"geometry":{"type":"Point","coordinates":[4.7538776753984635,52.643313917927486]}},{"type":"Feature","properties":{"highway":"bus_stop","public_transport":"platform","name":"Muiderwaard","ref:IFOPT":"NL:Q:36001550","_quaycode":"NL:Q:36001550","_town":"Alkmaar","_status":"available","_mode":"bus","_direction":89,"_visuallyAccessible":true,"_disabledAccessible":true,"geojson_lng":4.751294902627386,"geojson_lat":52.64618504470345},"geometry":{"type":"Point","coordinates":[4.751294902627386,52.64618504470345]}},{"type":"Feature","properties":{"highway":"bus_stop","public_transport":"platform","name":"Ida Gerhardtstraat","ref:IFOPT":"NL:Q:35111870","_quaycode":"NL:Q:35111870","_town":"Alkmaar","_status":"available","_mode":"bus","_direction":126,"_visuallyAccessible":true,"_disabledAccessible":true,"geojson_lng":4.768113148752361,"geojson_lat":52.64909578323075},"geometry":{"type":"Point","coordinates":[4.768113148752361,52.64909578323075]}},{"type":"Feature","properties":{"highway":"bus_stop","public_transport":"platform","name":"Johan Huizingastraat","ref:IFOPT":"NL:Q:35111450","_quaycode":"NL:Q:35111450","_town":"Alkmaar","_status":"available","_mode":"bus","_direction":210,"_visuallyAccessible":true,"_disabledAccessible":true,"geojson_lng":4.771453064594147,"geojson_lat":52.66701565702438},"geometry":{"type":"Point","coordinates":[4.771453064594147,52.66701565702438]}},{"type":"Feature","properties":{"highway":"bus_stop","public_transport":"platform","name":"Wijkwaard","ref:IFOPT":"NL:Q:36001680","_quaycode":"NL:Q:36001680","_town":"Alkmaar","_status":"available","_mode":"bus","_direction":259,"_visuallyAccessible":true,"_disabledAccessible":true,"geojson_lng":4.7477376015738235,"geojson_lat":52.64593230026858},"geometry":{"type":"Point","coordinates":[4.7477376015738235,52.64593230026858]}},{"type":"Feature","properties":{"highway":"bus_stop","public_transport":"platform","name":"Schinkelwaard","ref:IFOPT":"NL:Q:35110020","_quaycode":"NL:Q:35110020","_town":"Alkmaar","_status":"available","_mode":"bus","_direction":302,"_visuallyAccessible":true,"_disabledAccessible":true,"geojson_lng":4.758700504334054,"geojson_lat":52.647015293067824},"geometry":{"type":"Point","coordinates":[4.758700504334054,52.647015293067824]}},{"type":"Feature","properties":{"highway":"bus_stop","public_transport":"platform","name":"Muiderwaard","ref:IFOPT":"NL:Q:36001660","_quaycode":"NL:Q:36001660","_town":"Alkmaar","_status":"available","_mode":"bus","_direction":269,"_visuallyAccessible":true,"_disabledAccessible":true,"geojson_lng":4.751176705153528,"geojson_lat":52.64618441259118},"geometry":{"type":"Point","coordinates":[4.751176705153528,52.64618441259118]}},{"type":"Feature","properties":{"highway":"bus_stop","public_transport":"platform","name":"v.d.Vijzellaan","ref:IFOPT":"NL:Q:35120050","_quaycode":"NL:Q:35120050","_town":"Sint Pancras","_status":"available","_mode":"bus","_direction":209,"_visuallyAccessible":false,"_disabledAccessible":true,"geojson_lng":4.7855109363545205,"geojson_lat":52.663816254441926},"geometry":{"type":"Point","coordinates":[4.7855109363545205,52.663816254441926]}},{"type":"Feature","properties":{"highway":"bus_stop","public_transport":"platform","name":"Kerkplein","ref:IFOPT":"NL:Q:35120170","_quaycode":"NL:Q:35120170","_town":"Sint Pancras","_status":"available","_mode":"bus","_direction":193,"_visuallyAccessible":false,"_disabledAccessible":true,"geojson_lng":4.787018444448495,"geojson_lat":52.66599876994654},"geometry":{"type":"Point","coordinates":[4.787018444448495,52.66599876994654]}},{"type":"Feature","properties":{"highway":"bus_stop","public_transport":"platform","name":"Meeuwenlaan","ref:IFOPT":"NL:Q:35120090","_quaycode":"NL:Q:35120090","_town":"Sint Pancras","_status":"available","_mode":"bus","_direction":201,"_visuallyAccessible":false,"_disabledAccessible":true,"geojson_lng":4.780580039876378,"geojson_lat":52.65479501721923},"geometry":{"type":"Point","coordinates":[4.780580039876378,52.65479501721923]}}]}