{"type":"FeatureCollection","features":[{"type":"Feature","properties":{"SeqNo":"829839","Type":"S","DHID":"de:14522:80303","Parent":"de:14522:80303","Name":"Schrebitz, Ostrauer Str","MunicipalityCode":"14522450","Municipality":"Ostrau","DistrictCode":"","District":"","Description":"","Authority":"VVO","DelfiName":"-","THID":"D938BA0139AF","LastOperationDate":"2025-02-28T00:00:00","SEV":"nein","longitude":"13,071206","latitude":"51,204678","geojson_lng":13.071206,"geojson_lat":51.204678},"geometry":{"type":"Point","coordinates":[13.071206,51.204678]}},{"type":"Feature","properties":{"SeqNo":"829840","Type":"Q","DHID":"de:14522:80303:0:BO","Parent":"de:14522:80303","Name":"Bus Ost","MunicipalityCode":"00000000","Municipality":"-","DistrictCode":"-","District":"-","Description":"","Authority":"VVO","DelfiName":"-","THID":"-","LastOperationDate":"","SEV":"nein","longitude":"13,071323","latitude":"51,204666","geojson_lng":13.071323,"geojson_lat":51.204666},"geometry":{"type":"Point","coordinates":[13.071323,51.204666]}},{"type":"Feature","properties":{"SeqNo":"829841","Type":"Q","DHID":"de:14522:80303:0:BWSB","Parent":"de:14522:80303","Name":"Bus West Schulbus","MunicipalityCode":"00000000","Municipality":"-","DistrictCode":"-","District":"-","Description":"","Authority":"VVO","DelfiName":"-","THID":"-","LastOperationDate":"","SEV":"nein","longitude":"13,071089","latitude":"51,20474","geojson_lng":13.071089,"geojson_lat":51.20474},"geometry":{"type":"Point","coordinates":[13.071089,51.20474]}},{"type":"Feature","properties":{"SeqNo":"829852","Type":"S","DHID":"de:14522:80307","Parent":"de:14522:80307","Name":"Schrebitz, Gallschützer Str","MunicipalityCode":"14522450","Municipality":"Ostrau","DistrictCode":"-","District":"-","Description":"","Authority":"VVO","DelfiName":"-","THID":"D938BA0139B3","LastOperationDate":"2025-02-28T00:00:00","SEV":"nein","longitude":"13,06587","latitude":"51,202815","geojson_lng":13.06587,"geojson_lat":51.202815},"geometry":{"type":"Point","coordinates":[13.06587,51.202815]}},{"type":"Feature","properties":{"SeqNo":"829853","Type":"Q","DHID":"de:14522:80307:0:BN","Parent":"de:14522:80307","Name":"BN","MunicipalityCode":"00000000","Municipality":"-","DistrictCode":"-","District":"-","Description":"Bus Nord","Authority":"VVO","DelfiName":"-","THID":"-","LastOperationDate":"","SEV":"nein","longitude":"13,065852","latitude":"51,20273","geojson_lng":13.065852,"geojson_lat":51.20273},"geometry":{"type":"Point","coordinates":[13.065852,51.20273]}},{"type":"Feature","properties":{"SeqNo":"829854","Type":"Q","DHID":"de:14522:80307:0:BSSB","Parent":"de:14522:80307","Name":"BSSB","MunicipalityCode":"00000000","Municipality":"-","DistrictCode":"-","District":"-","Description":"Bus Süd Schulbus","Authority":"VVO","DelfiName":"-","THID":"-","LastOperationDate":"","SEV":"nein","longitude":"13,065915","latitude":"51,202882","geojson_lng":13.065915,"geojson_lat":51.202882},"geometry":{"type":"Point","coordinates":[13.065915,51.202882]}}]}