{"type":"FeatureCollection","features":[{"type":"Feature","properties":{"SeqNo":"480656","Type":"S","DHID":"de:13071:5515","Parent":"de:13071:5515","Name":"Neustrelitz, Kirschenallee","MunicipalityCode":"13071110","Municipality":"Neustrelitz","DistrictCode":"","District":"","Description":"","Authority":"VMV","DelfiName":"-","THID":"D9330F00158B","LastOperationDate":"2024-12-30T00:00:00","SEV":"nein","longitude":"13,078258","latitude":"53,358371","geojson_lng":13.078258,"geojson_lat":53.358371},"geometry":{"type":"Point","coordinates":[13.078258,53.358371]}},{"type":"Feature","properties":{"SeqNo":"480657","Type":"A","DHID":"de:13071:5515:1","Parent":"de:13071:5515","Name":"Bus","MunicipalityCode":"00000000","Municipality":"-","DistrictCode":"-","District":"-","Description":"","Authority":"VMV","DelfiName":"-","THID":"-","LastOperationDate":"","SEV":"nein","longitude":"13,078348","latitude":"53,358318","geojson_lng":13.078348,"geojson_lat":53.358318},"geometry":{"type":"Point","coordinates":[13.078348,53.358318]}},{"type":"Feature","properties":{"SeqNo":"480658","Type":"Q","DHID":"de:13071:5515:1:1","Parent":"de:13071:5515:1","Name":"55151","MunicipalityCode":"00000000","Municipality":"-","DistrictCode":"-","District":"-","Description":"","Authority":"VMV","DelfiName":"-","THID":"-","LastOperationDate":"","SEV":"nein","longitude":"13,078357","latitude":"53,358398","geojson_lng":13.078357,"geojson_lat":53.358398},"geometry":{"type":"Point","coordinates":[13.078357,53.358398]}},{"type":"Feature","properties":{"SeqNo":"480659","Type":"Q","DHID":"de:13071:5515:1:2","Parent":"de:13071:5515:1","Name":"55152","MunicipalityCode":"00000000","Municipality":"-","DistrictCode":"-","District":"-","Description":"","Authority":"VMV","DelfiName":"-","THID":"-","LastOperationDate":"","SEV":"nein","longitude":"13,078321","latitude":"53,358387","geojson_lng":13.078321,"geojson_lat":53.358387},"geometry":{"type":"Point","coordinates":[13.078321,53.358387]}},{"type":"Feature","properties":{"SeqNo":"480660","Type":"Q","DHID":"de:13071:5515:1:3","Parent":"de:13071:5515:1","Name":"55153","MunicipalityCode":"00000000","Municipality":"-","DistrictCode":"-","District":"-","Description":"","Authority":"VMV","DelfiName":"-","THID":"-","LastOperationDate":"","SEV":"nein","longitude":"13,078096","latitude":"53,358093","geojson_lng":13.078096,"geojson_lat":53.358093},"geometry":{"type":"Point","coordinates":[13.078096,53.358093]}},{"type":"Feature","properties":{"SeqNo":"481946","Type":"S","DHID":"de:13071:5819","Parent":"de:13071:5819","Name":"Neustrelitz Friedr-Wilhelm-Str","MunicipalityCode":"13071110","Municipality":"Neustrelitz","DistrictCode":"","District":"","Description":"","Authority":"VMV","DelfiName":"-","THID":"D9330F0016BB","LastOperationDate":"2024-12-30T00:00:00","SEV":"nein","longitude":"13,074009","latitude":"53,36311","geojson_lng":13.074009,"geojson_lat":53.36311},"geometry":{"type":"Point","coordinates":[13.074009,53.36311]}},{"type":"Feature","properties":{"SeqNo":"481947","Type":"A","DHID":"de:13071:5819:1","Parent":"de:13071:5819","Name":"Bus","MunicipalityCode":"00000000","Municipality":"-","DistrictCode":"-","District":"-","Description":"","Authority":"VMV","DelfiName":"-","THID":"-","LastOperationDate":"","SEV":"nein","longitude":"13,074045","latitude":"53,3631","geojson_lng":13.074045,"geojson_lat":53.3631},"geometry":{"type":"Point","coordinates":[13.074045,53.3631]}},{"type":"Feature","properties":{"SeqNo":"481948","Type":"Q","DHID":"de:13071:5819:1:1","Parent":"de:13071:5819:1","Name":"58191","MunicipalityCode":"00000000","Municipality":"-","DistrictCode":"-","District":"-","Description":"","Authority":"VMV","DelfiName":"-","THID":"-","LastOperationDate":"","SEV":"nein","longitude":"13,07409","latitude":"53,3631","geojson_lng":13.07409,"geojson_lat":53.3631},"geometry":{"type":"Point","coordinates":[13.07409,53.3631]}},{"type":"Feature","properties":{"SeqNo":"483746","Type":"S","DHID":"de:13071:80001","Parent":"de:13071:80001","Name":"Neustrelitz Hauptbahnhof","MunicipalityCode":"13071110","Municipality":"Neustrelitz","DistrictCode":"","District":"","Description":"","Authority":"VMV","DelfiName":"-","THID":"D9330F013881","LastOperationDate":"2025-06-14T00:00:00","SEV":"nein","longitude":"13,07435","latitude":"53,359476","geojson_lng":13.07435,"geojson_lat":53.359476},"geometry":{"type":"Point","coordinates":[13.07435,53.359476]}},{"type":"Feature","properties":{"SeqNo":"483747","Type":"A","DHID":"de:13071:80001:1","Parent":"de:13071:80001","Name":"Bus SEV","MunicipalityCode":"00000000","Municipality":"-","DistrictCode":"-","District":"-","Description":"","Authority":"VMV","DelfiName":"-","THID":"-","LastOperationDate":"","SEV":"nein","longitude":"13,073964","latitude":"53,359406","geojson_lng":13.073964,"geojson_lat":53.359406},"geometry":{"type":"Point","coordinates":[13.073964,53.359406]}},{"type":"Feature","properties":{"SeqNo":"483748","Type":"A","DHID":"de:13071:80001:2","Parent":"de:13071:80001","Name":"Gleis 1+2 B","MunicipalityCode":"00000000","Municipality":"-","DistrictCode":"-","District":"-","Description":"","Authority":"VMV","DelfiName":"-","THID":"-","LastOperationDate":"","SEV":"nein","longitude":"13,074332","latitude":"53,359208","geojson_lng":13.074332,"geojson_lat":53.359208},"geometry":{"type":"Point","coordinates":[13.074332,53.359208]}},{"type":"Feature","properties":{"SeqNo":"483749","Type":"A","DHID":"de:13071:80001:3","Parent":"de:13071:80001","Name":"Gleis 3+4 HRO/HST","MunicipalityCode":"00000000","Municipality":"-","DistrictCode":"-","District":"-","Description":"","Authority":"VMV","DelfiName":"-","THID":"-","LastOperationDate":"","SEV":"nein","longitude":"13,074521","latitude":"53,359122","geojson_lng":13.074521,"geojson_lat":53.359122},"geometry":{"type":"Point","coordinates":[13.074521,53.359122]}},{"type":"Feature","properties":{"SeqNo":"483750","Type":"A","DHID":"de:13071:80001:70","Parent":"de:13071:80001","Name":"Unterf端hrung","MunicipalityCode":"00000000","Municipality":"-","DistrictCode":"-","District":"-","Description":"","Authority":"VMV","DelfiName":"-","THID":"-","LastOperationDate":"","SEV":"nein","longitude":"13,074161","latitude":"53,358763","geojson_lng":13.074161,"geojson_lat":53.358763},"geometry":{"type":"Point","coordinates":[13.074161,53.358763]}},{"type":"Feature","properties":{"SeqNo":"483752","Type":"A","DHID":"de:13071:80001:81","Parent":"de:13071:80001","Name":"P+R Nord","MunicipalityCode":"00000000","Municipality":"-","DistrictCode":"-","District":"-","Description":"","Authority":"VMV","DelfiName":"-","THID":"-","LastOperationDate":"","SEV":"nein","longitude":"13,07417","latitude":"53,359937","geojson_lng":13.07417,"geojson_lat":53.359937},"geometry":{"type":"Point","coordinates":[13.07417,53.359937]}},{"type":"Feature","properties":{"SeqNo":"483753","Type":"A","DHID":"de:13071:80001:82","Parent":"de:13071:80001","Name":"B+R","MunicipalityCode":"00000000","Municipality":"-","DistrictCode":"-","District":"-","Description":"","Authority":"VMV","DelfiName":"-","THID":"-","LastOperationDate":"","SEV":"nein","longitude":"13,073631","latitude":"53,359856","geojson_lng":13.073631,"geojson_lat":53.359856},"geometry":{"type":"Point","coordinates":[13.073631,53.359856]}},{"type":"Feature","properties":{"SeqNo":"483754","Type":"A","DHID":"de:13071:80001:83","Parent":"de:13071:80001","Name":"Taxi","MunicipalityCode":"00000000","Municipality":"-","DistrictCode":"-","District":"-","Description":"","Authority":"VMV","DelfiName":"-","THID":"-","LastOperationDate":"","SEV":"nein","longitude":"13,073946","latitude":"53,359293","geojson_lng":13.073946,"geojson_lat":53.359293},"geometry":{"type":"Point","coordinates":[13.073946,53.359293]}},{"type":"Feature","properties":{"SeqNo":"483755","Type":"A","DHID":"de:13071:80001:90","Parent":"de:13071:80001","Name":"Haupteingang","MunicipalityCode":"00000000","Municipality":"-","DistrictCode":"-","District":"-","Description":"","Authority":"VMV","DelfiName":"-","THID":"-","LastOperationDate":"","SEV":"nein","longitude":"13,074072","latitude":"53,359427","geojson_lng":13.074072,"geojson_lat":53.359427},"geometry":{"type":"Point","coordinates":[13.074072,53.359427]}},{"type":"Feature","properties":{"SeqNo":"483756","Type":"A","DHID":"de:13071:80001:91","Parent":"de:13071:80001","Name":"Eingang Nordwest","MunicipalityCode":"00000000","Municipality":"-","DistrictCode":"-","District":"-","Description":"","Authority":"VMV","DelfiName":"-","THID":"-","LastOperationDate":"","SEV":"nein","longitude":"13,074566","latitude":"53,35962","geojson_lng":13.074566,"geojson_lat":53.35962},"geometry":{"type":"Point","coordinates":[13.074566,53.35962]}},{"type":"Feature","properties":{"SeqNo":"483757","Type":"A","DHID":"de:13071:80001:92","Parent":"de:13071:80001","Name":"Eingang S端dwest","MunicipalityCode":"00000000","Municipality":"-","DistrictCode":"-","District":"-","Description":"","Authority":"VMV","DelfiName":"-","THID":"-","LastOperationDate":"","SEV":"nein","longitude":"13,073874","latitude":"53,359154","geojson_lng":13.073874,"geojson_lat":53.359154},"geometry":{"type":"Point","coordinates":[13.073874,53.359154]}},{"type":"Feature","properties":{"SeqNo":"483758","Type":"A","DHID":"de:13071:80001:93","Parent":"de:13071:80001","Name":"Eingang S端d","MunicipalityCode":"00000000","Municipality":"-","DistrictCode":"-","District":"-","Description":"","Authority":"VMV","DelfiName":"-","THID":"-","LastOperationDate":"","SEV":"nein","longitude":"13,073847","latitude":"53,358886","geojson_lng":13.073847,"geojson_lat":53.358886},"geometry":{"type":"Point","coordinates":[13.073847,53.358886]}},{"type":"Feature","properties":{"SeqNo":"483759","Type":"A","DHID":"de:13071:80001:94","Parent":"de:13071:80001","Name":"Eingang Ost","MunicipalityCode":"00000000","Municipality":"-","DistrictCode":"-","District":"-","Description":"","Authority":"VMV","DelfiName":"-","THID":"-","LastOperationDate":"","SEV":"nein","longitude":"13,074898","latitude":"53,358886","geojson_lng":13.074898,"geojson_lat":53.358886},"geometry":{"type":"Point","coordinates":[13.074898,53.358886]}},{"type":"Feature","properties":{"SeqNo":"483760","Type":"A","DHID":"de:13071:80001:95","Parent":"de:13071:80001","Name":"Eingang S端dost","MunicipalityCode":"00000000","Municipality":"-","DistrictCode":"-","District":"-","Description":"","Authority":"VMV","DelfiName":"-","THID":"-","LastOperationDate":"","SEV":"nein","longitude":"13,074835","latitude":"53,358768","geojson_lng":13.074835,"geojson_lat":53.358768},"geometry":{"type":"Point","coordinates":[13.074835,53.358768]}},{"type":"Feature","properties":{"SeqNo":"483761","Type":"Q","DHID":"de:13071:80001:2:1","Parent":"de:13071:80001:2","Name":"Gleis 1","MunicipalityCode":"00000000","Municipality":"-","DistrictCode":"-","District":"-","Description":"","Authority":"VMV","DelfiName":"-","THID":"-","LastOperationDate":"","SEV":"nein","longitude":"13,075716","latitude":"53,360639","geojson_lng":13.075716,"geojson_lat":53.360639},"geometry":{"type":"Point","coordinates":[13.075716,53.360639]}},{"type":"Feature","properties":{"SeqNo":"483762","Type":"Q","DHID":"de:13071:80001:2:2","Parent":"de:13071:80001:2","Name":"Gleis 2","MunicipalityCode":"00000000","Municipality":"-","DistrictCode":"-","District":"-","Description":"","Authority":"VMV","DelfiName":"-","THID":"-","LastOperationDate":"","SEV":"nein","longitude":"13,074503","latitude":"53,359283","geojson_lng":13.074503,"geojson_lat":53.359283},"geometry":{"type":"Point","coordinates":[13.074503,53.359283]}},{"type":"Feature","properties":{"SeqNo":"483763","Type":"Q","DHID":"de:13071:80001:3:3","Parent":"de:13071:80001:3","Name":"Gleis 3","MunicipalityCode":"00000000","Municipality":"-","DistrictCode":"-","District":"-","Description":"","Authority":"VMV","DelfiName":"-","THID":"-","LastOperationDate":"","SEV":"nein","longitude":"13,074557","latitude":"53,359261","geojson_lng":13.074557,"geojson_lat":53.359261},"geometry":{"type":"Point","coordinates":[13.074557,53.359261]}},{"type":"Feature","properties":{"SeqNo":"483764","Type":"Q","DHID":"de:13071:80001:3:4","Parent":"de:13071:80001:3","Name":"Gleis 4","MunicipalityCode":"00000000","Municipality":"-","DistrictCode":"-","District":"-","Description":"","Authority":"VMV","DelfiName":"-","THID":"-","LastOperationDate":"","SEV":"nein","longitude":"13,074736","latitude":"53,359218","geojson_lng":13.074736,"geojson_lat":53.359218},"geometry":{"type":"Point","coordinates":[13.074736,53.359218]}}]}