{"type":"FeatureCollection","features":[{"type":"Feature","properties":{"SeqNo":"37824","Type":"A","DHID":"de:08212:1002:54","Parent":"de:08212:1002","Name":"Treppe S","MunicipalityCode":"00000000","Municipality":"-","DistrictCode":"-","District":"-","Description":"","Authority":"NVBW","DelfiName":"-","THID":"-","LastOperationDate":"","SEV":"nein","longitude":"8,410953","latitude":"49,009061","geojson_lng":8.410953,"geojson_lat":49.009061},"geometry":{"type":"Point","coordinates":[8.410953,49.009061]}},{"type":"Feature","properties":{"SeqNo":"38729","Type":"Q","DHID":"de:08212:3:16:16","Parent":"de:08212:3:16","Name":"Bus >EUS(NL4)","MunicipalityCode":"00000000","Municipality":"-","DistrictCode":"-","District":"-","Description":"","Authority":"NVBW","DelfiName":"-","THID":"-","LastOperationDate":"","SEV":"nein","longitude":"8,414097","latitude":"49,009138","geojson_lng":8.414097,"geojson_lat":49.009138},"geometry":{"type":"Point","coordinates":[8.414097,49.009138]}},{"type":"Feature","properties":{"SeqNo":"39346","Type":"S","DHID":"de:08212:4201","Parent":"de:08212:4201","Name":"Karlsruhe Kapellenstraße","MunicipalityCode":"08212000","Municipality":"Karlsruhe","DistrictCode":"","District":"","Description":"","Authority":"NVBW","DelfiName":"-","THID":"D92014001069","LastOperationDate":"2025-06-13T00:00:00","SEV":"nein","longitude":"8,413558","latitude":"49,00694","geojson_lng":8.413558,"geojson_lat":49.00694},"geometry":{"type":"Point","coordinates":[8.413558,49.00694]}},{"type":"Feature","properties":{"SeqNo":"39347","Type":"A","DHID":"de:08212:4201:11","Parent":"de:08212:4201","Name":"Bus","MunicipalityCode":"00000000","Municipality":"-","DistrictCode":"-","District":"-","Description":"","Authority":"NVBW","DelfiName":"-","THID":"-","LastOperationDate":"","SEV":"nein","longitude":"8,41354","latitude":"49,006898","geojson_lng":8.41354,"geojson_lat":49.006898},"geometry":{"type":"Point","coordinates":[8.41354,49.006898]}},{"type":"Feature","properties":{"SeqNo":"39348","Type":"Q","DHID":"de:08212:4201:11:11","Parent":"de:08212:4201:11","Name":"Bus >DTO(42)","MunicipalityCode":"00000000","Municipality":"-","DistrictCode":"-","District":"-","Description":"","Authority":"NVBW","DelfiName":"-","THID":"-","LastOperationDate":"","SEV":"nein","longitude":"8,413495","latitude":"49,006934","geojson_lng":8.413495,"geojson_lat":49.006934},"geometry":{"type":"Point","coordinates":[8.413495,49.006934]}},{"type":"Feature","properties":{"SeqNo":"40299","Type":"S","DHID":"de:08212:621","Parent":"de:08212:621","Name":"Karlsruhe Philipp-Reis-Straße","MunicipalityCode":"08212000","Municipality":"Karlsruhe","DistrictCode":"","District":"","Description":"","Authority":"NVBW","DelfiName":"-","THID":"D9201400026D","LastOperationDate":"2025-06-14T00:00:00","SEV":"nein","longitude":"8,411231","latitude":"49,004477","geojson_lng":8.411231,"geojson_lat":49.004477},"geometry":{"type":"Point","coordinates":[8.411231,49.004477]}},{"type":"Feature","properties":{"SeqNo":"40300","Type":"A","DHID":"de:08212:621:1","Parent":"de:08212:621","Name":"Tram/34 >West","MunicipalityCode":"00000000","Municipality":"-","DistrictCode":"-","District":"-","Description":"","Authority":"NVBW","DelfiName":"-","THID":"-","LastOperationDate":"","SEV":"nein","longitude":"8,410899","latitude":"49,004512","geojson_lng":8.410899,"geojson_lat":49.004512},"geometry":{"type":"Point","coordinates":[8.410899,49.004512]}},{"type":"Feature","properties":{"SeqNo":"40301","Type":"A","DHID":"de:08212:621:2","Parent":"de:08212:621","Name":"Tram/34 >Ost","MunicipalityCode":"00000000","Municipality":"-","DistrictCode":"-","District":"-","Description":"","Authority":"NVBW","DelfiName":"-","THID":"-","LastOperationDate":"","SEV":"nein","longitude":"8,411456","latitude":"49,004441","geojson_lng":8.411456,"geojson_lat":49.004441},"geometry":{"type":"Point","coordinates":[8.411456,49.004441]}},{"type":"Feature","properties":{"SeqNo":"40302","Type":"A","DHID":"de:08212:621:21","Parent":"de:08212:621","Name":"SEV >West","MunicipalityCode":"00000000","Municipality":"-","DistrictCode":"-","District":"-","Description":"","Authority":"NVBW","DelfiName":"-","THID":"-","LastOperationDate":"","SEV":"nein","longitude":"8,410908","latitude":"49,004659","geojson_lng":8.410908,"geojson_lat":49.004659},"geometry":{"type":"Point","coordinates":[8.410908,49.004659]}},{"type":"Feature","properties":{"SeqNo":"40303","Type":"A","DHID":"de:08212:621:22","Parent":"de:08212:621","Name":"SEV >Ost","MunicipalityCode":"00000000","Municipality":"-","DistrictCode":"-","District":"-","Description":"","Authority":"NVBW","DelfiName":"-","THID":"-","LastOperationDate":"","SEV":"nein","longitude":"8,411851","latitude":"49,004594","geojson_lng":8.411851,"geojson_lat":49.004594},"geometry":{"type":"Point","coordinates":[8.411851,49.004594]}},{"type":"Feature","properties":{"SeqNo":"40304","Type":"Q","DHID":"de:08212:621:1:1","Parent":"de:08212:621:1","Name":"Tram/34 >West","MunicipalityCode":"00000000","Municipality":"-","DistrictCode":"-","District":"-","Description":"","Authority":"NVBW","DelfiName":"-","THID":"-","LastOperationDate":"","SEV":"nein","longitude":"8,410899","latitude":"49,004488","geojson_lng":8.410899,"geojson_lat":49.004488},"geometry":{"type":"Point","coordinates":[8.410899,49.004488]}},{"type":"Feature","properties":{"SeqNo":"40305","Type":"Q","DHID":"de:08212:621:2:2","Parent":"de:08212:621:2","Name":"Tram/34 >Ost","MunicipalityCode":"00000000","Municipality":"-","DistrictCode":"-","District":"-","Description":"","Authority":"NVBW","DelfiName":"-","THID":"-","LastOperationDate":"","SEV":"nein","longitude":"8,411456","latitude":"49,004471","geojson_lng":8.411456,"geojson_lat":49.004471},"geometry":{"type":"Point","coordinates":[8.411456,49.004471]}},{"type":"Feature","properties":{"SeqNo":"40306","Type":"Q","DHID":"de:08212:621:21:21","Parent":"de:08212:621:21","Name":"SEV >West","MunicipalityCode":"00000000","Municipality":"-","DistrictCode":"-","District":"-","Description":"","Authority":"NVBW","DelfiName":"-","THID":"-","LastOperationDate":"","SEV":"nein","longitude":"8,410908","latitude":"49,004636","geojson_lng":8.410908,"geojson_lat":49.004636},"geometry":{"type":"Point","coordinates":[8.410908,49.004636]}},{"type":"Feature","properties":{"SeqNo":"40307","Type":"Q","DHID":"de:08212:621:22:22","Parent":"de:08212:621:22","Name":"SEV >Ost","MunicipalityCode":"00000000","Municipality":"-","DistrictCode":"-","District":"-","Description":"","Authority":"NVBW","DelfiName":"-","THID":"-","LastOperationDate":"","SEV":"nein","longitude":"8,411851","latitude":"49,00463","geojson_lng":8.411851,"geojson_lat":49.00463},"geometry":{"type":"Point","coordinates":[8.411851,49.00463]}},{"type":"Feature","properties":{"SeqNo":"40335","Type":"A","DHID":"de:08212:622:22","Parent":"de:08212:622","Name":"Bus/E >Ost","MunicipalityCode":"00000000","Municipality":"-","DistrictCode":"-","District":"-","Description":"","Authority":"NVBW","DelfiName":"-","THID":"-","LastOperationDate":"","SEV":"nein","longitude":"8,4154","latitude":"49,004618","geojson_lng":8.4154,"geojson_lat":49.004618},"geometry":{"type":"Point","coordinates":[8.4154,49.004618]}},{"type":"Feature","properties":{"SeqNo":"40339","Type":"Q","DHID":"de:08212:622:22:22","Parent":"de:08212:622:22","Name":"Bus/E >Ost","MunicipalityCode":"00000000","Municipality":"-","DistrictCode":"-","District":"-","Description":"","Authority":"NVBW","DelfiName":"-","THID":"-","LastOperationDate":"","SEV":"nein","longitude":"8,415301","latitude":"49,004494","geojson_lng":8.415301,"geojson_lat":49.004494},"geometry":{"type":"Point","coordinates":[8.415301,49.004494]}},{"type":"Feature","properties":{"SeqNo":"40596","Type":"A","DHID":"de:08212:72:21","Parent":"de:08212:72","Name":"Bus/E >West","MunicipalityCode":"00000000","Municipality":"-","DistrictCode":"-","District":"-","Description":"","Authority":"NVBW","DelfiName":"-","THID":"-","LastOperationDate":"","SEV":"nein","longitude":"8,404755","latitude":"49,003934","geojson_lng":8.404755,"geojson_lat":49.003934},"geometry":{"type":"Point","coordinates":[8.404755,49.003934]}},{"type":"Feature","properties":{"SeqNo":"40604","Type":"Q","DHID":"de:08212:72:21:21","Parent":"de:08212:72:21","Name":"Bus/E >West (Baumeisterstr.)","MunicipalityCode":"00000000","Municipality":"-","DistrictCode":"-","District":"-","Description":"","Authority":"NVBW","DelfiName":"-","THID":"-","LastOperationDate":"","SEV":"nein","longitude":"8,404755","latitude":"49,003911","geojson_lng":8.404755,"geojson_lat":49.003911},"geometry":{"type":"Point","coordinates":[8.404755,49.003911]}},{"type":"Feature","properties":{"SeqNo":"40747","Type":"S","DHID":"de:08212:80","Parent":"de:08212:80","Name":"Karlsruhe Kronenplatz","MunicipalityCode":"08212000","Municipality":"Karlsruhe","DistrictCode":"","District":"","Description":"","Authority":"NVBW","DelfiName":"-","THID":"D92014000050","LastOperationDate":"2025-06-06T00:00:00","SEV":"nein","longitude":"8,410073","latitude":"49,008855","geojson_lng":8.410073,"geojson_lat":49.008855},"geometry":{"type":"Point","coordinates":[8.410073,49.008855]}},{"type":"Feature","properties":{"SeqNo":"40748","Type":"A","DHID":"de:08212:80:1","Parent":"de:08212:80","Name":"Tram/34 >Süd","MunicipalityCode":"00000000","Municipality":"-","DistrictCode":"-","District":"-","Description":"","Authority":"NVBW","DelfiName":"-","THID":"-","LastOperationDate":"","SEV":"nein","longitude":"8,410001","latitude":"49,00869","geojson_lng":8.410001,"geojson_lat":49.00869},"geometry":{"type":"Point","coordinates":[8.410001,49.00869]}},{"type":"Feature","properties":{"SeqNo":"40749","Type":"A","DHID":"de:08212:80:2","Parent":"de:08212:80","Name":"Tram/34 >Nord","MunicipalityCode":"00000000","Municipality":"-","DistrictCode":"-","District":"-","Description":"","Authority":"NVBW","DelfiName":"-","THID":"-","LastOperationDate":"","SEV":"nein","longitude":"8,410144","latitude":"49,008984","geojson_lng":8.410144,"geojson_lat":49.008984},"geometry":{"type":"Point","coordinates":[8.410144,49.008984]}},{"type":"Feature","properties":{"SeqNo":"40750","Type":"A","DHID":"de:08212:80:21","Parent":"de:08212:80","Name":"Bus/E >Süd","MunicipalityCode":"00000000","Municipality":"-","DistrictCode":"-","District":"-","Description":"","Authority":"NVBW","DelfiName":"-","THID":"-","LastOperationDate":"","SEV":"nein","longitude":"8,40983","latitude":"49,008436","geojson_lng":8.40983,"geojson_lat":49.008436},"geometry":{"type":"Point","coordinates":[8.40983,49.008436]}},{"type":"Feature","properties":{"SeqNo":"40751","Type":"A","DHID":"de:08212:80:22","Parent":"de:08212:80","Name":"SEV >Nord","MunicipalityCode":"00000000","Municipality":"-","DistrictCode":"-","District":"-","Description":"","Authority":"NVBW","DelfiName":"-","THID":"-","LastOperationDate":"","SEV":"nein","longitude":"8,410234","latitude":"49,008542","geojson_lng":8.410234,"geojson_lat":49.008542},"geometry":{"type":"Point","coordinates":[8.410234,49.008542]}},{"type":"Feature","properties":{"SeqNo":"40752","Type":"Q","DHID":"de:08212:80:1:1","Parent":"de:08212:80:1","Name":"Tram/34 >Süd","MunicipalityCode":"00000000","Municipality":"-","DistrictCode":"-","District":"-","Description":"","Authority":"NVBW","DelfiName":"-","THID":"-","LastOperationDate":"","SEV":"nein","longitude":"8,410037","latitude":"49,008684","geojson_lng":8.410037,"geojson_lat":49.008684},"geometry":{"type":"Point","coordinates":[8.410037,49.008684]}},{"type":"Feature","properties":{"SeqNo":"40753","Type":"Q","DHID":"de:08212:80:2:2","Parent":"de:08212:80:2","Name":"Tram/34 >Nord","MunicipalityCode":"00000000","Municipality":"-","DistrictCode":"-","District":"-","Description":"","Authority":"NVBW","DelfiName":"-","THID":"-","LastOperationDate":"","SEV":"nein","longitude":"8,410109","latitude":"49,008996","geojson_lng":8.410109,"geojson_lat":49.008996},"geometry":{"type":"Point","coordinates":[8.410109,49.008996]}},{"type":"Feature","properties":{"SeqNo":"40754","Type":"Q","DHID":"de:08212:80:21:21","Parent":"de:08212:80:21","Name":"Bus/E >Süd","MunicipalityCode":"00000000","Municipality":"-","DistrictCode":"-","District":"-","Description":"","Authority":"NVBW","DelfiName":"-","THID":"-","LastOperationDate":"","SEV":"nein","longitude":"8,409866","latitude":"49,008431","geojson_lng":8.409866,"geojson_lat":49.008431},"geometry":{"type":"Point","coordinates":[8.409866,49.008431]}},{"type":"Feature","properties":{"SeqNo":"40755","Type":"Q","DHID":"de:08212:80:22:22","Parent":"de:08212:80:22","Name":"SEV >Nord","MunicipalityCode":"00000000","Municipality":"-","DistrictCode":"-","District":"-","Description":"","Authority":"NVBW","DelfiName":"-","THID":"-","LastOperationDate":"","SEV":"nein","longitude":"8,410198","latitude":"49,008542","geojson_lng":8.410198,"geojson_lat":49.008542},"geometry":{"type":"Point","coordinates":[8.410198,49.008542]}},{"type":"Feature","properties":{"SeqNo":"40842","Type":"S","DHID":"de:08212:85","Parent":"de:08212:85","Name":"Karlsruhe Rüppurrer Tor","MunicipalityCode":"08212000","Municipality":"Karlsruhe","DistrictCode":"","District":"","Description":"","Authority":"NVBW","DelfiName":"-","THID":"D92014000055","LastOperationDate":"2025-03-04T00:00:00","SEV":"nein","longitude":"8,410055","latitude":"49,00582","geojson_lng":8.410055,"geojson_lat":49.00582},"geometry":{"type":"Point","coordinates":[8.410055,49.00582]}},{"type":"Feature","properties":{"SeqNo":"40843","Type":"A","DHID":"de:08212:85:1","Parent":"de:08212:85","Name":"Tram >Süd","MunicipalityCode":"00000000","Municipality":"-","DistrictCode":"-","District":"-","Description":"","Authority":"NVBW","DelfiName":"-","THID":"-","LastOperationDate":"","SEV":"nein","longitude":"8,410333","latitude":"49,004824","geojson_lng":8.410333,"geojson_lat":49.004824},"geometry":{"type":"Point","coordinates":[8.410333,49.004824]}},{"type":"Feature","properties":{"SeqNo":"40844","Type":"A","DHID":"de:08212:85:2","Parent":"de:08212:85","Name":"Tram >Nord","MunicipalityCode":"00000000","Municipality":"-","DistrictCode":"-","District":"-","Description":"","Authority":"NVBW","DelfiName":"-","THID":"-","LastOperationDate":"","SEV":"nein","longitude":"8,41045","latitude":"49,005643","geojson_lng":8.41045,"geojson_lat":49.005643},"geometry":{"type":"Point","coordinates":[8.41045,49.005643]}},{"type":"Feature","properties":{"SeqNo":"40845","Type":"A","DHID":"de:08212:85:21","Parent":"de:08212:85","Name":"Bus/E >West","MunicipalityCode":"00000000","Municipality":"-","DistrictCode":"-","District":"-","Description":"","Authority":"NVBW","DelfiName":"-","THID":"-","LastOperationDate":"","SEV":"nein","longitude":"8,409417","latitude":"49,00605","geojson_lng":8.409417,"geojson_lat":49.00605},"geometry":{"type":"Point","coordinates":[8.409417,49.00605]}},{"type":"Feature","properties":{"SeqNo":"40846","Type":"A","DHID":"de:08212:85:22","Parent":"de:08212:85","Name":"Bus/E >Ost","MunicipalityCode":"00000000","Municipality":"-","DistrictCode":"-","District":"-","Description":"","Authority":"NVBW","DelfiName":"-","THID":"-","LastOperationDate":"","SEV":"nein","longitude":"8,409731","latitude":"49,005749","geojson_lng":8.409731,"geojson_lat":49.005749},"geometry":{"type":"Point","coordinates":[8.409731,49.005749]}},{"type":"Feature","properties":{"SeqNo":"40847","Type":"A","DHID":"de:08212:85:23","Parent":"de:08212:85","Name":"Bus/E >Süd","MunicipalityCode":"00000000","Municipality":"-","DistrictCode":"-","District":"-","Description":"","Authority":"NVBW","DelfiName":"-","THID":"-","LastOperationDate":"","SEV":"nein","longitude":"8,410198","latitude":"49,004942","geojson_lng":8.410198,"geojson_lat":49.004942},"geometry":{"type":"Point","coordinates":[8.410198,49.004942]}},{"type":"Feature","properties":{"SeqNo":"40848","Type":"A","DHID":"de:08212:85:24","Parent":"de:08212:85","Name":"Bus/E >Nord","MunicipalityCode":"00000000","Municipality":"-","DistrictCode":"-","District":"-","Description":"","Authority":"NVBW","DelfiName":"-","THID":"-","LastOperationDate":"","SEV":"nein","longitude":"8,410612","latitude":"49,004972","geojson_lng":8.410612,"geojson_lat":49.004972},"geometry":{"type":"Point","coordinates":[8.410612,49.004972]}},{"type":"Feature","properties":{"SeqNo":"40849","Type":"A","DHID":"de:08212:85:91","Parent":"de:08212:85","Name":"Tram/55 >West","MunicipalityCode":"00000000","Municipality":"-","DistrictCode":"-","District":"-","Description":"","Authority":"NVBW","DelfiName":"-","THID":"-","LastOperationDate":"","SEV":"nein","longitude":"8,408617","latitude":"49,005844","geojson_lng":8.408617,"geojson_lat":49.005844},"geometry":{"type":"Point","coordinates":[8.408617,49.005844]}},{"type":"Feature","properties":{"SeqNo":"40850","Type":"A","DHID":"de:08212:85:92","Parent":"de:08212:85","Name":"Tram/55 >Ost","MunicipalityCode":"00000000","Municipality":"-","DistrictCode":"-","District":"-","Description":"","Authority":"NVBW","DelfiName":"-","THID":"-","LastOperationDate":"","SEV":"nein","longitude":"8,409749","latitude":"49,005873","geojson_lng":8.409749,"geojson_lat":49.005873},"geometry":{"type":"Point","coordinates":[8.409749,49.005873]}},{"type":"Feature","properties":{"SeqNo":"40851","Type":"Q","DHID":"de:08212:85:1:1","Parent":"de:08212:85:1","Name":"Tram >Süd","MunicipalityCode":"00000000","Municipality":"-","DistrictCode":"-","District":"-","Description":"","Authority":"NVBW","DelfiName":"-","THID":"-","LastOperationDate":"","SEV":"nein","longitude":"8,410369","latitude":"49,004824","geojson_lng":8.410369,"geojson_lat":49.004824},"geometry":{"type":"Point","coordinates":[8.410369,49.004824]}},{"type":"Feature","properties":{"SeqNo":"40852","Type":"Q","DHID":"de:08212:85:2:2","Parent":"de:08212:85:2","Name":"Tram >Nord","MunicipalityCode":"00000000","Municipality":"-","DistrictCode":"-","District":"-","Description":"","Authority":"NVBW","DelfiName":"-","THID":"-","LastOperationDate":"","SEV":"nein","longitude":"8,410378","latitude":"49,005643","geojson_lng":8.410378,"geojson_lat":49.005643},"geometry":{"type":"Point","coordinates":[8.410378,49.005643]}},{"type":"Feature","properties":{"SeqNo":"40853","Type":"Q","DHID":"de:08212:85:21:21","Parent":"de:08212:85:21","Name":"Bus/E >West (Kriegsstr.)","MunicipalityCode":"00000000","Municipality":"-","DistrictCode":"-","District":"-","Description":"","Authority":"NVBW","DelfiName":"-","THID":"-","LastOperationDate":"","SEV":"nein","longitude":"8,409417","latitude":"49,00602","geojson_lng":8.409417,"geojson_lat":49.00602},"geometry":{"type":"Point","coordinates":[8.409417,49.00602]}},{"type":"Feature","properties":{"SeqNo":"40854","Type":"Q","DHID":"de:08212:85:21:23","Parent":"de:08212:85:21","Name":"SEV >Süd (Kriegsstr.)","MunicipalityCode":"00000000","Municipality":"-","DistrictCode":"-","District":"-","Description":"","Authority":"NVBW","DelfiName":"-","THID":"-","LastOperationDate":"","SEV":"nein","longitude":"8,410055","latitude":"49,005767","geojson_lng":8.410055,"geojson_lat":49.005767},"geometry":{"type":"Point","coordinates":[8.410055,49.005767]}},{"type":"Feature","properties":{"SeqNo":"40855","Type":"Q","DHID":"de:08212:85:22:22","Parent":"de:08212:85:22","Name":"Bus/E >Ost (Kriegsstr.)","MunicipalityCode":"00000000","Municipality":"-","DistrictCode":"-","District":"-","Description":"","Authority":"NVBW","DelfiName":"-","THID":"-","LastOperationDate":"","SEV":"nein","longitude":"8,409722","latitude":"49,005785","geojson_lng":8.409722,"geojson_lat":49.005785},"geometry":{"type":"Point","coordinates":[8.409722,49.005785]}},{"type":"Feature","properties":{"SeqNo":"40856","Type":"Q","DHID":"de:08212:85:23:23","Parent":"de:08212:85:23","Name":"Bus/E >Süd (Rüppurrer Str.)","MunicipalityCode":"00000000","Municipality":"-","DistrictCode":"-","District":"-","Description":"","Authority":"NVBW","DelfiName":"-","THID":"-","LastOperationDate":"","SEV":"nein","longitude":"8,410243","latitude":"49,004942","geojson_lng":8.410243,"geojson_lat":49.004942},"geometry":{"type":"Point","coordinates":[8.410243,49.004942]}},{"type":"Feature","properties":{"SeqNo":"40857","Type":"Q","DHID":"de:08212:85:24:24","Parent":"de:08212:85:24","Name":"Bus/E >Nord (Rüppurrer Str.)","MunicipalityCode":"00000000","Municipality":"-","DistrictCode":"-","District":"-","Description":"","Authority":"NVBW","DelfiName":"-","THID":"-","LastOperationDate":"","SEV":"nein","longitude":"8,410567","latitude":"49,004977","geojson_lng":8.410567,"geojson_lat":49.004977},"geometry":{"type":"Point","coordinates":[8.410567,49.004977]}},{"type":"Feature","properties":{"SeqNo":"40858","Type":"Q","DHID":"de:08212:85:91:1","Parent":"de:08212:85:91","Name":"Tram/55(2) >West (Kriegsstr.)","MunicipalityCode":"00000000","Municipality":"-","DistrictCode":"-","District":"-","Description":"","Authority":"NVBW","DelfiName":"-","THID":"-","LastOperationDate":"","SEV":"nein","longitude":"8,408563","latitude":"49,00582","geojson_lng":8.408563,"geojson_lat":49.00582},"geometry":{"type":"Point","coordinates":[8.408563,49.00582]}},{"type":"Feature","properties":{"SeqNo":"40859","Type":"Q","DHID":"de:08212:85:92:2","Parent":"de:08212:85:92","Name":"Tram/55(2) >Ost (Kriegsstr.)","MunicipalityCode":"00000000","Municipality":"-","DistrictCode":"-","District":"-","Description":"","Authority":"NVBW","DelfiName":"-","THID":"-","LastOperationDate":"","SEV":"nein","longitude":"8,409803","latitude":"49,005932","geojson_lng":8.409803,"geojson_lat":49.005932},"geometry":{"type":"Point","coordinates":[8.409803,49.005932]}},{"type":"Feature","properties":{"SeqNo":"40992","Type":"S","DHID":"de:08212:90010","Parent":"de:08212:90010","Name":"Karlsruhe ACHAT Hotel","MunicipalityCode":"08212000","Municipality":"Karlsruhe","DistrictCode":"","District":"","Description":"","Authority":"NVBW","DelfiName":"-","THID":"D92014015F9A","LastOperationDate":"2024-05-16T00:00:00","SEV":"nein","longitude":"8,410216","latitude":"49,005207","geojson_lng":8.410216,"geojson_lat":49.005207},"geometry":{"type":"Point","coordinates":[8.410216,49.005207]}},{"type":"Feature","properties":{"SeqNo":"40993","Type":"Q","DHID":"de:08212:90010:0:1","Parent":"de:08212:90010","Name":"Bus","MunicipalityCode":"00000000","Municipality":"-","DistrictCode":"-","District":"-","Description":"","Authority":"NVBW","DelfiName":"-","THID":"-","LastOperationDate":"","SEV":"nein","longitude":"8,41027","latitude":"49,005207","geojson_lng":8.41027,"geojson_lat":49.005207},"geometry":{"type":"Point","coordinates":[8.41027,49.005207]}},{"type":"Feature","properties":{"SeqNo":"40994","Type":"Q","DHID":"de:08212:90010:0:2","Parent":"de:08212:90010","Name":"Bus","MunicipalityCode":"00000000","Municipality":"-","DistrictCode":"-","District":"-","Description":"","Authority":"NVBW","DelfiName":"-","THID":"-","LastOperationDate":"","SEV":"nein","longitude":"8,410585","latitude":"49,005072","geojson_lng":8.410585,"geojson_lat":49.005072},"geometry":{"type":"Point","coordinates":[8.410585,49.005072]}},{"type":"Feature","properties":{"SeqNo":"41097","Type":"S","DHID":"de:08212:91025","Parent":"de:08212:91025","Name":"Karlsruhe Schillerschule","MunicipalityCode":"08212000","Municipality":"Karlsruhe","DistrictCode":"","District":"","Description":"","Authority":"NVBW","DelfiName":"-","THID":"D92014016391","LastOperationDate":"1999-12-31T00:00:00","SEV":"nein","longitude":"8,415067","latitude":"49,007782","geojson_lng":8.415067,"geojson_lat":49.007782},"geometry":{"type":"Point","coordinates":[8.415067,49.007782]}},{"type":"Feature","properties":{"SeqNo":"41098","Type":"Q","DHID":"de:08212:91025:0:1","Parent":"de:08212:91025","Name":"Bus","MunicipalityCode":"00000000","Municipality":"-","DistrictCode":"-","District":"-","Description":"","Authority":"NVBW","DelfiName":"-","THID":"-","LastOperationDate":"","SEV":"nein","longitude":"8,415085","latitude":"49,007788","geojson_lng":8.415085,"geojson_lat":49.007788},"geometry":{"type":"Point","coordinates":[8.415085,49.007788]}},{"type":"Feature","properties":{"SeqNo":"41125","Type":"S","DHID":"de:08212:91039","Parent":"de:08212:91039","Name":"KA Friedrich-List-Schule","MunicipalityCode":"08212000","Municipality":"Karlsruhe","DistrictCode":"","District":"","Description":"","Authority":"NVBW","DelfiName":"-","THID":"D9201401639F","LastOperationDate":"1999-12-31T00:00:00","SEV":"nein","longitude":"8,41487","latitude":"49,005478","geojson_lng":8.41487,"geojson_lat":49.005478},"geometry":{"type":"Point","coordinates":[8.41487,49.005478]}},{"type":"Feature","properties":{"SeqNo":"41126","Type":"Q","DHID":"de:08212:91039:0:1","Parent":"de:08212:91039","Name":"Bus","MunicipalityCode":"00000000","Municipality":"-","DistrictCode":"-","District":"-","Description":"","Authority":"NVBW","DelfiName":"-","THID":"-","LastOperationDate":"","SEV":"nein","longitude":"8,414888","latitude":"49,005467","geojson_lng":8.414888,"geojson_lat":49.005467},"geometry":{"type":"Point","coordinates":[8.414888,49.005467]}}]}