{"type":"FeatureCollection","features":[{"type":"Feature","properties":{"SeqNo":"9277","Type":"S","DHID":"de:08116:4211","Parent":"de:08116:4211","Name":"Kirchheim (T)","MunicipalityCode":"08116033","Municipality":"Kirchheim unter Teck","DistrictCode":"","District":"","Description":"","Authority":"NVBW","DelfiName":"-","THID":"D91FB4001073","LastOperationDate":"2025-02-28T00:00:00","SEV":"nein","longitude":"9,443872","latitude":"48,64416","geojson_lng":9.443872,"geojson_lat":48.64416},"geometry":{"type":"Point","coordinates":[9.443872,48.64416]}},{"type":"Feature","properties":{"SeqNo":"9278","Type":"A","DHID":"de:08116:4211:1","Parent":"de:08116:4211","Name":"S-Bahn","MunicipalityCode":"00000000","Municipality":"-","DistrictCode":"-","District":"-","Description":"","Authority":"NVBW","DelfiName":"-","THID":"-","LastOperationDate":"","SEV":"nein","longitude":"9,443836","latitude":"48,644332","geojson_lng":9.443836,"geojson_lat":48.644332},"geometry":{"type":"Point","coordinates":[9.443836,48.644332]}},{"type":"Feature","properties":{"SeqNo":"9279","Type":"A","DHID":"de:08116:4211:2","Parent":"de:08116:4211","Name":"Gleis 3","MunicipalityCode":"00000000","Municipality":"-","DistrictCode":"-","District":"-","Description":"","Authority":"NVBW","DelfiName":"-","THID":"-","LastOperationDate":"","SEV":"nein","longitude":"9,44389","latitude":"48,64416","geojson_lng":9.44389,"geojson_lat":48.64416},"geometry":{"type":"Point","coordinates":[9.44389,48.64416]}},{"type":"Feature","properties":{"SeqNo":"9280","Type":"A","DHID":"de:08116:4211:3","Parent":"de:08116:4211","Name":"Bussteig 1-3","MunicipalityCode":"00000000","Municipality":"-","DistrictCode":"-","District":"-","Description":"","Authority":"NVBW","DelfiName":"-","THID":"-","LastOperationDate":"","SEV":"nein","longitude":"9,444671","latitude":"48,644361","geojson_lng":9.444671,"geojson_lat":48.644361},"geometry":{"type":"Point","coordinates":[9.444671,48.644361]}},{"type":"Feature","properties":{"SeqNo":"9281","Type":"A","DHID":"de:08116:4211:4","Parent":"de:08116:4211","Name":"Bussteig 4-7","MunicipalityCode":"00000000","Municipality":"-","DistrictCode":"-","District":"-","Description":"","Authority":"NVBW","DelfiName":"-","THID":"-","LastOperationDate":"","SEV":"nein","longitude":"9,445004","latitude":"48,644225","geojson_lng":9.445004,"geojson_lat":48.644225},"geometry":{"type":"Point","coordinates":[9.445004,48.644225]}},{"type":"Feature","properties":{"SeqNo":"9282","Type":"A","DHID":"de:08116:4211:5","Parent":"de:08116:4211","Name":"Bussteig 8/9/11","MunicipalityCode":"00000000","Municipality":"-","DistrictCode":"-","District":"-","Description":"","Authority":"NVBW","DelfiName":"-","THID":"-","LastOperationDate":"","SEV":"nein","longitude":"9,443971","latitude":"48,644652","geojson_lng":9.443971,"geojson_lat":48.644652},"geometry":{"type":"Point","coordinates":[9.443971,48.644652]}},{"type":"Feature","properties":{"SeqNo":"9283","Type":"A","DHID":"de:08116:4211:6","Parent":"de:08116:4211","Name":"Gleis 1","MunicipalityCode":"00000000","Municipality":"-","DistrictCode":"-","District":"-","Description":"","Authority":"NVBW","DelfiName":"-","THID":"-","LastOperationDate":"","SEV":"nein","longitude":"9,444662","latitude":"48,64416","geojson_lng":9.444662,"geojson_lat":48.64416},"geometry":{"type":"Point","coordinates":[9.444662,48.64416]}},{"type":"Feature","properties":{"SeqNo":"9284","Type":"A","DHID":"de:08116:4211:80","Parent":"de:08116:4211","Name":"Unterführung","MunicipalityCode":"00000000","Municipality":"-","DistrictCode":"-","District":"-","Description":"","Authority":"NVBW","DelfiName":"-","THID":"-","LastOperationDate":"","SEV":"nein","longitude":"9,443926","latitude":"48,644225","geojson_lng":9.443926,"geojson_lat":48.644225},"geometry":{"type":"Point","coordinates":[9.443926,48.644225]}},{"type":"Feature","properties":{"SeqNo":"9285","Type":"A","DHID":"de:08116:4211:90","Parent":"de:08116:4211","Name":"Zg Süd West","MunicipalityCode":"00000000","Municipality":"-","DistrictCode":"-","District":"-","Description":"","Authority":"NVBW","DelfiName":"-","THID":"-","LastOperationDate":"","SEV":"nein","longitude":"9,443665","latitude":"48,644059","geojson_lng":9.443665,"geojson_lat":48.644059},"geometry":{"type":"Point","coordinates":[9.443665,48.644059]}},{"type":"Feature","properties":{"SeqNo":"9286","Type":"A","DHID":"de:08116:4211:91","Parent":"de:08116:4211","Name":"Zg Süd Ost","MunicipalityCode":"00000000","Municipality":"-","DistrictCode":"-","District":"-","Description":"","Authority":"NVBW","DelfiName":"-","THID":"-","LastOperationDate":"","SEV":"nein","longitude":"9,443953","latitude":"48,643999","geojson_lng":9.443953,"geojson_lat":48.643999},"geometry":{"type":"Point","coordinates":[9.443953,48.643999]}},{"type":"Feature","properties":{"SeqNo":"9287","Type":"A","DHID":"de:08116:4211:92","Parent":"de:08116:4211","Name":"Zg Treppe Unterführg","MunicipalityCode":"00000000","Municipality":"-","DistrictCode":"-","District":"-","Description":"","Authority":"NVBW","DelfiName":"-","THID":"-","LastOperationDate":"","SEV":"nein","longitude":"9,443953","latitude":"48,644338","geojson_lng":9.443953,"geojson_lat":48.644338},"geometry":{"type":"Point","coordinates":[9.443953,48.644338]}},{"type":"Feature","properties":{"SeqNo":"9288","Type":"A","DHID":"de:08116:4211:93","Parent":"de:08116:4211","Name":"Zg Gleis 1","MunicipalityCode":"00000000","Municipality":"-","DistrictCode":"-","District":"-","Description":"","Authority":"NVBW","DelfiName":"-","THID":"-","LastOperationDate":"","SEV":"nein","longitude":"9,444698","latitude":"48,644231","geojson_lng":9.444698,"geojson_lat":48.644231},"geometry":{"type":"Point","coordinates":[9.444698,48.644231]}},{"type":"Feature","properties":{"SeqNo":"9289","Type":"Q","DHID":"de:08116:4211:1:2","Parent":"de:08116:4211:1","Name":"Gleis 2","MunicipalityCode":"00000000","Municipality":"-","DistrictCode":"-","District":"-","Description":"","Authority":"NVBW","DelfiName":"-","THID":"-","LastOperationDate":"","SEV":"nein","longitude":"9,443809","latitude":"48,644266","geojson_lng":9.443809,"geojson_lat":48.644266},"geometry":{"type":"Point","coordinates":[9.443809,48.644266]}},{"type":"Feature","properties":{"SeqNo":"9290","Type":"Q","DHID":"de:08116:4211:2:3","Parent":"de:08116:4211:2","Name":"Gleis 3","MunicipalityCode":"00000000","Municipality":"-","DistrictCode":"-","District":"-","Description":"","Authority":"NVBW","DelfiName":"-","THID":"-","LastOperationDate":"","SEV":"nein","longitude":"9,443845","latitude":"48,644124","geojson_lng":9.443845,"geojson_lat":48.644124},"geometry":{"type":"Point","coordinates":[9.443845,48.644124]}},{"type":"Feature","properties":{"SeqNo":"9291","Type":"Q","DHID":"de:08116:4211:3:1","Parent":"de:08116:4211:3","Name":"Bstg 1","MunicipalityCode":"00000000","Municipality":"-","DistrictCode":"-","District":"-","Description":"","Authority":"NVBW","DelfiName":"-","THID":"-","LastOperationDate":"","SEV":"nein","longitude":"9,444555","latitude":"48,644421","geojson_lng":9.444555,"geojson_lat":48.644421},"geometry":{"type":"Point","coordinates":[9.444555,48.644421]}},{"type":"Feature","properties":{"SeqNo":"9292","Type":"Q","DHID":"de:08116:4211:3:2","Parent":"de:08116:4211:3","Name":"Bstg 2","MunicipalityCode":"00000000","Municipality":"-","DistrictCode":"-","District":"-","Description":"","Authority":"NVBW","DelfiName":"-","THID":"-","LastOperationDate":"","SEV":"nein","longitude":"9,444662","latitude":"48,644379","geojson_lng":9.444662,"geojson_lat":48.644379},"geometry":{"type":"Point","coordinates":[9.444662,48.644379]}},{"type":"Feature","properties":{"SeqNo":"9293","Type":"Q","DHID":"de:08116:4211:3:3","Parent":"de:08116:4211:3","Name":"Bstg 3","MunicipalityCode":"00000000","Municipality":"-","DistrictCode":"-","District":"-","Description":"","Authority":"NVBW","DelfiName":"-","THID":"-","LastOperationDate":"","SEV":"nein","longitude":"9,444752","latitude":"48,644344","geojson_lng":9.444752,"geojson_lat":48.644344},"geometry":{"type":"Point","coordinates":[9.444752,48.644344]}},{"type":"Feature","properties":{"SeqNo":"9294","Type":"Q","DHID":"de:08116:4211:3:33","Parent":"de:08116:4211:3","Name":"Ausstieg 1-3","MunicipalityCode":"00000000","Municipality":"-","DistrictCode":"-","District":"-","Description":"","Authority":"NVBW","DelfiName":"-","THID":"-","LastOperationDate":"","SEV":"nein","longitude":"9,444671","latitude":"48,644326","geojson_lng":9.444671,"geojson_lat":48.644326},"geometry":{"type":"Point","coordinates":[9.444671,48.644326]}},{"type":"Feature","properties":{"SeqNo":"9295","Type":"Q","DHID":"de:08116:4211:4:35","Parent":"de:08116:4211:4","Name":"Ausstieg 7","MunicipalityCode":"00000000","Municipality":"-","DistrictCode":"-","District":"-","Description":"","Authority":"NVBW","DelfiName":"-","THID":"-","LastOperationDate":"","SEV":"nein","longitude":"9,445219","latitude":"48,644201","geojson_lng":9.445219,"geojson_lat":48.644201},"geometry":{"type":"Point","coordinates":[9.445219,48.644201]}},{"type":"Feature","properties":{"SeqNo":"9296","Type":"Q","DHID":"de:08116:4211:4:4","Parent":"de:08116:4211:4","Name":"Bstg 4","MunicipalityCode":"00000000","Municipality":"-","DistrictCode":"-","District":"-","Description":"","Authority":"NVBW","DelfiName":"-","THID":"-","LastOperationDate":"","SEV":"nein","longitude":"9,444851","latitude":"48,644302","geojson_lng":9.444851,"geojson_lat":48.644302},"geometry":{"type":"Point","coordinates":[9.444851,48.644302]}},{"type":"Feature","properties":{"SeqNo":"9297","Type":"Q","DHID":"de:08116:4211:4:5","Parent":"de:08116:4211:4","Name":"Bstg 5","MunicipalityCode":"00000000","Municipality":"-","DistrictCode":"-","District":"-","Description":"","Authority":"NVBW","DelfiName":"-","THID":"-","LastOperationDate":"","SEV":"nein","longitude":"9,44495","latitude":"48,64426","geojson_lng":9.44495,"geojson_lat":48.64426},"geometry":{"type":"Point","coordinates":[9.44495,48.64426]}},{"type":"Feature","properties":{"SeqNo":"9298","Type":"Q","DHID":"de:08116:4211:4:6","Parent":"de:08116:4211:4","Name":"Bstg 6","MunicipalityCode":"00000000","Municipality":"-","DistrictCode":"-","District":"-","Description":"","Authority":"NVBW","DelfiName":"-","THID":"-","LastOperationDate":"","SEV":"nein","longitude":"9,445058","latitude":"48,644225","geojson_lng":9.445058,"geojson_lat":48.644225},"geometry":{"type":"Point","coordinates":[9.445058,48.644225]}},{"type":"Feature","properties":{"SeqNo":"9299","Type":"Q","DHID":"de:08116:4211:4:7","Parent":"de:08116:4211:4","Name":"Bstg 7","MunicipalityCode":"00000000","Municipality":"-","DistrictCode":"-","District":"-","Description":"","Authority":"NVBW","DelfiName":"-","THID":"-","LastOperationDate":"","SEV":"nein","longitude":"9,445201","latitude":"48,644207","geojson_lng":9.445201,"geojson_lat":48.644207},"geometry":{"type":"Point","coordinates":[9.445201,48.644207]}},{"type":"Feature","properties":{"SeqNo":"9300","Type":"Q","DHID":"de:08116:4211:5:11","Parent":"de:08116:4211:5","Name":"Bstg 11","MunicipalityCode":"00000000","Municipality":"-","DistrictCode":"-","District":"-","Description":"","Authority":"NVBW","DelfiName":"-","THID":"-","LastOperationDate":"","SEV":"nein","longitude":"9,443692","latitude":"48,644765","geojson_lng":9.443692,"geojson_lat":48.644765},"geometry":{"type":"Point","coordinates":[9.443692,48.644765]}},{"type":"Feature","properties":{"SeqNo":"9301","Type":"Q","DHID":"de:08116:4211:5:34","Parent":"de:08116:4211:5","Name":"Ausstieg 8a","MunicipalityCode":"00000000","Municipality":"-","DistrictCode":"-","District":"-","Description":"","Authority":"NVBW","DelfiName":"-","THID":"-","LastOperationDate":"","SEV":"nein","longitude":"9,444231","latitude":"48,644403","geojson_lng":9.444231,"geojson_lat":48.644403},"geometry":{"type":"Point","coordinates":[9.444231,48.644403]}},{"type":"Feature","properties":{"SeqNo":"9302","Type":"Q","DHID":"de:08116:4211:5:8","Parent":"de:08116:4211:5","Name":"8 Linien 161, 163, 165","MunicipalityCode":"00000000","Municipality":"-","DistrictCode":"-","District":"-","Description":"","Authority":"NVBW","DelfiName":"-","THID":"-","LastOperationDate":"","SEV":"nein","longitude":"9,444213","latitude":"48,644534","geojson_lng":9.444213,"geojson_lat":48.644534},"geometry":{"type":"Point","coordinates":[9.444213,48.644534]}},{"type":"Feature","properties":{"SeqNo":"9303","Type":"Q","DHID":"de:08116:4211:5:8a","Parent":"de:08116:4211:5","Name":"Bstg 8a","MunicipalityCode":"00000000","Municipality":"-","DistrictCode":"-","District":"-","Description":"","Authority":"NVBW","DelfiName":"-","THID":"-","LastOperationDate":"","SEV":"nein","longitude":"9,444231","latitude":"48,644403","geojson_lng":9.444231,"geojson_lat":48.644403},"geometry":{"type":"Point","coordinates":[9.444231,48.644403]}},{"type":"Feature","properties":{"SeqNo":"9304","Type":"Q","DHID":"de:08116:4211:5:9","Parent":"de:08116:4211:5","Name":"Bstg 9","MunicipalityCode":"00000000","Municipality":"-","DistrictCode":"-","District":"-","Description":"","Authority":"NVBW","DelfiName":"-","THID":"-","LastOperationDate":"","SEV":"nein","longitude":"9,444393","latitude":"48,644812","geojson_lng":9.444393,"geojson_lat":48.644812},"geometry":{"type":"Point","coordinates":[9.444393,48.644812]}},{"type":"Feature","properties":{"SeqNo":"9305","Type":"Q","DHID":"de:08116:4211:6:1","Parent":"de:08116:4211:6","Name":"Gleis 1","MunicipalityCode":"00000000","Municipality":"-","DistrictCode":"-","District":"-","Description":"","Authority":"NVBW","DelfiName":"-","THID":"-","LastOperationDate":"","SEV":"nein","longitude":"9,444662","latitude":"48,644112","geojson_lng":9.444662,"geojson_lat":48.644112},"geometry":{"type":"Point","coordinates":[9.444662,48.644112]}},{"type":"Feature","properties":{"SeqNo":"9695","Type":"S","DHID":"de:08116:4336","Parent":"de:08116:4336","Name":"Kirchheim (T) Schülestraße","MunicipalityCode":"08116033","Municipality":"Kirchheim unter Teck","DistrictCode":"-","District":"-","Description":"","Authority":"NVBW","DelfiName":"-","THID":"D91FB40010F0","LastOperationDate":"1999-12-31T00:00:00","SEV":"nein","longitude":"9,448336","latitude":"48,647495","geojson_lng":9.448336,"geojson_lat":48.647495},"geometry":{"type":"Point","coordinates":[9.448336,48.647495]}},{"type":"Feature","properties":{"SeqNo":"9696","Type":"S","DHID":"de:08116:4337","Parent":"de:08116:4337","Name":"Kirchheim (T) Marktkauf","MunicipalityCode":"08116033","Municipality":"Kirchheim unter Teck","DistrictCode":"-","District":"-","Description":"","Authority":"NVBW","DelfiName":"-","THID":"D91FB40010F1","LastOperationDate":"1999-12-31T00:00:00","SEV":"nein","longitude":"9,445731","latitude":"48,646718","geojson_lng":9.445731,"geojson_lat":48.646718},"geometry":{"type":"Point","coordinates":[9.445731,48.646718]}},{"type":"Feature","properties":{"SeqNo":"9753","Type":"S","DHID":"de:08116:4356","Parent":"de:08116:4356","Name":"Kirchheim (T) Uhlandgymnasium","MunicipalityCode":"08116033","Municipality":"Kirchheim unter Teck","DistrictCode":"-","District":"-","Description":"","Authority":"NVBW","DelfiName":"-","THID":"D91FB4001104","LastOperationDate":"2025-02-28T00:00:00","SEV":"nein","longitude":"9,446737","latitude":"48,641269","geojson_lng":9.446737,"geojson_lat":48.641269},"geometry":{"type":"Point","coordinates":[9.446737,48.641269]}},{"type":"Feature","properties":{"SeqNo":"9754","Type":"Q","DHID":"de:08116:4356:0:3","Parent":"de:08116:4356","Name":"3","MunicipalityCode":"00000000","Municipality":"-","DistrictCode":"-","District":"-","Description":"eRtg Kirchheim (T)","Authority":"NVBW","DelfiName":"-","THID":"-","LastOperationDate":"","SEV":"nein","longitude":"9,446737","latitude":"48,641269","geojson_lng":9.446737,"geojson_lat":48.641269},"geometry":{"type":"Point","coordinates":[9.446737,48.641269]}},{"type":"Feature","properties":{"SeqNo":"9755","Type":"Q","DHID":"de:08116:4356:0:4","Parent":"de:08116:4356","Name":"4","MunicipalityCode":"00000000","Municipality":"-","DistrictCode":"-","District":"-","Description":"eRtg Kirchheim (T)","Authority":"NVBW","DelfiName":"-","THID":"-","LastOperationDate":"","SEV":"nein","longitude":"9,446737","latitude":"48,641269","geojson_lng":9.446737,"geojson_lat":48.641269},"geometry":{"type":"Point","coordinates":[9.446737,48.641269]}},{"type":"Feature","properties":{"SeqNo":"9756","Type":"S","DHID":"de:08116:4357","Parent":"de:08116:4357","Name":"Kirchheim (T) Holbeinweg","MunicipalityCode":"08116033","Municipality":"Kirchheim unter Teck","DistrictCode":"-","District":"-","Description":"","Authority":"NVBW","DelfiName":"-","THID":"D91FB4001105","LastOperationDate":"2025-02-28T00:00:00","SEV":"nein","longitude":"9,443719","latitude":"48,641963","geojson_lng":9.443719,"geojson_lat":48.641963},"geometry":{"type":"Point","coordinates":[9.443719,48.641963]}},{"type":"Feature","properties":{"SeqNo":"9757","Type":"Q","DHID":"de:08116:4357:0:3","Parent":"de:08116:4357","Name":"3","MunicipalityCode":"00000000","Municipality":"-","DistrictCode":"-","District":"-","Description":"eRtg Rembrandtweg","Authority":"NVBW","DelfiName":"-","THID":"-","LastOperationDate":"","SEV":"nein","longitude":"9,443719","latitude":"48,641963","geojson_lng":9.443719,"geojson_lat":48.641963},"geometry":{"type":"Point","coordinates":[9.443719,48.641963]}},{"type":"Feature","properties":{"SeqNo":"9758","Type":"S","DHID":"de:08116:4358","Parent":"de:08116:4358","Name":"Kirchheim (T) Rembrandtweg","MunicipalityCode":"08116033","Municipality":"Kirchheim unter Teck","DistrictCode":"-","District":"-","Description":"","Authority":"NVBW","DelfiName":"-","THID":"D91FB4001106","LastOperationDate":"2025-02-28T00:00:00","SEV":"nein","longitude":"9,440081","latitude":"48,643186","geojson_lng":9.440081,"geojson_lat":48.643186},"geometry":{"type":"Point","coordinates":[9.440081,48.643186]}},{"type":"Feature","properties":{"SeqNo":"9759","Type":"Q","DHID":"de:08116:4358:0:3","Parent":"de:08116:4358","Name":"3","MunicipalityCode":"00000000","Municipality":"-","DistrictCode":"-","District":"-","Description":"eRtg Marktplatz","Authority":"NVBW","DelfiName":"-","THID":"-","LastOperationDate":"","SEV":"nein","longitude":"9,440081","latitude":"48,643186","geojson_lng":9.440081,"geojson_lat":48.643186},"geometry":{"type":"Point","coordinates":[9.440081,48.643186]}},{"type":"Feature","properties":{"SeqNo":"9786","Type":"S","DHID":"de:08116:4371","Parent":"de:08116:4371","Name":"Kirchheim (T) Hans-Thoma-Weg","MunicipalityCode":"08116033","Municipality":"Kirchheim unter Teck","DistrictCode":"-","District":"-","Description":"","Authority":"NVBW","DelfiName":"-","THID":"D91FB4001113","LastOperationDate":"2025-02-28T00:00:00","SEV":"nein","longitude":"9,447609","latitude":"48,640135","geojson_lng":9.447609,"geojson_lat":48.640135},"geometry":{"type":"Point","coordinates":[9.447609,48.640135]}},{"type":"Feature","properties":{"SeqNo":"9787","Type":"Q","DHID":"de:08116:4371:0:3","Parent":"de:08116:4371","Name":"3","MunicipalityCode":"00000000","Municipality":"-","DistrictCode":"-","District":"-","Description":"eRtg Uhlandgymnasium","Authority":"NVBW","DelfiName":"-","THID":"-","LastOperationDate":"","SEV":"nein","longitude":"9,447609","latitude":"48,640135","geojson_lng":9.447609,"geojson_lat":48.640135},"geometry":{"type":"Point","coordinates":[9.447609,48.640135]}},{"type":"Feature","properties":{"SeqNo":"9819","Type":"S","DHID":"de:08116:4385","Parent":"de:08116:4385","Name":"Kirchheim (T) Henriettenstraße","MunicipalityCode":"08116033","Municipality":"Kirchheim unter Teck","DistrictCode":"","District":"","Description":"","Authority":"NVBW","DelfiName":"-","THID":"D91FB4001121","LastOperationDate":"2025-02-28T00:00:00","SEV":"nein","longitude":"9,444249","latitude":"48,646427","geojson_lng":9.444249,"geojson_lat":48.646427},"geometry":{"type":"Point","coordinates":[9.444249,48.646427]}},{"type":"Feature","properties":{"SeqNo":"9820","Type":"Q","DHID":"de:08116:4385:0:3","Parent":"de:08116:4385","Name":"eRtg Nägelestal","MunicipalityCode":"00000000","Municipality":"-","DistrictCode":"-","District":"-","Description":"","Authority":"NVBW","DelfiName":"-","THID":"-","LastOperationDate":"","SEV":"nein","longitude":"9,444249","latitude":"48,646433","geojson_lng":9.444249,"geojson_lat":48.646433},"geometry":{"type":"Point","coordinates":[9.444249,48.646433]}}]}