{"type":"FeatureCollection","features":[{"type":"Feature","properties":{"highway":"bus_stop","public_transport":"platform","name":"Aviko","ref:IFOPT":"NL:Q:41430180","_quaycode":"NL:Q:41430180","_town":"Steenderen","_status":"available","_mode":"bus","_direction":236,"_visuallyAccessible":false,"_disabledAccessible":false,"geojson_lng":6.1908165200008725,"geojson_lat":52.06574977909951},"geometry":{"type":"Point","coordinates":[6.1908165200008725,52.06574977909951]}},{"type":"Feature","properties":{"highway":"bus_stop","public_transport":"platform","name":"Aviko","ref:IFOPT":"NL:Q:41430170","_quaycode":"NL:Q:41430170","_town":"Steenderen","_status":"available","_mode":"bus","_direction":54,"_visuallyAccessible":false,"_disabledAccessible":false,"geojson_lng":6.191228899609041,"geojson_lat":52.06587981453152},"geometry":{"type":"Point","coordinates":[6.191228899609041,52.06587981453152]}},{"type":"Feature","properties":{"highway":"bus_stop","public_transport":"platform","name":"Zuivelfabriek","ref:IFOPT":"NL:Q:41430120","_quaycode":"NL:Q:41430120","_town":"Steenderen","_status":"available","_mode":"bus","_direction":108,"_visuallyAccessible":false,"_disabledAccessible":true,"geojson_lng":6.196314677435375,"geojson_lat":52.05929438191419},"geometry":{"type":"Point","coordinates":[6.196314677435375,52.05929438191419]}},{"type":"Feature","properties":{"highway":"bus_stop","public_transport":"platform","name":"Dorp","ref:IFOPT":"NL:Q:41430160","_quaycode":"NL:Q:41430160","_town":"Steenderen","_status":"available","_mode":"bus","_direction":124,"_visuallyAccessible":false,"_disabledAccessible":true,"geojson_lng":6.188099299395015,"geojson_lat":52.06304479694928},"geometry":{"type":"Point","coordinates":[6.188099299395015,52.06304479694928]}},{"type":"Feature","properties":{"highway":"bus_stop","public_transport":"platform","name":"Dorp","ref:IFOPT":"NL:Q:41430150","_quaycode":"NL:Q:41430150","_town":"Steenderen","_status":"available","_mode":"bus","_direction":321,"_visuallyAccessible":false,"_disabledAccessible":true,"geojson_lng":6.188016316013235,"geojson_lat":52.063297037722464},"geometry":{"type":"Point","coordinates":[6.188016316013235,52.063297037722464]}},{"type":"Feature","properties":{"highway":"bus_stop","public_transport":"platform","name":"Zuivelfabriek","ref:IFOPT":"NL:Q:41430110","_quaycode":"NL:Q:41430110","_town":"Steenderen","_status":"available","_mode":"bus","_direction":288,"_visuallyAccessible":false,"_disabledAccessible":true,"geojson_lng":6.196404108477962,"geojson_lat":52.05940162885962},"geometry":{"type":"Point","coordinates":[6.196404108477962,52.05940162885962]}},{"type":"Feature","properties":{"highway":"bus_stop","public_transport":"platform","name":"Gemeentehuis","ref:IFOPT":"NL:Q:41430140","_quaycode":"NL:Q:41430140","_town":"Steenderen","_status":"available","_mode":"bus","_direction":117,"_visuallyAccessible":false,"_disabledAccessible":false,"geojson_lng":6.1894746087775045,"geojson_lat":52.06166919146216},"geometry":{"type":"Point","coordinates":[6.1894746087775045,52.06166919146216]}},{"type":"Feature","properties":{"highway":"bus_stop","public_transport":"platform","name":"Gemeentehuis","ref:IFOPT":"NL:Q:41430130","_quaycode":"NL:Q:41430130","_town":"Steenderen","_status":"available","_mode":"bus","_direction":279,"_visuallyAccessible":false,"_disabledAccessible":false,"geojson_lng":6.191059402432316,"geojson_lat":52.06140670713288},"geometry":{"type":"Point","coordinates":[6.191059402432316,52.06140670713288]}}]}