{"type":"FeatureCollection","features":[{"type":"Feature","properties":{"highway":"bus_stop","public_transport":"platform","name":"Pont Buitenhuizen","ref:IFOPT":"NL:Q:57421090","_quaycode":"NL:Q:57421090","_town":"Spaarndam","_status":"available","_mode":"bus","_direction":52,"_visuallyAccessible":false,"_disabledAccessible":false,"geojson_lng":4.722720129630229,"geojson_lat":52.431667852405894},"geometry":{"type":"Point","coordinates":[4.722720129630229,52.431667852405894]}},{"type":"Feature","properties":{"highway":"bus_stop","public_transport":"platform","name":"Festina Lente","ref:IFOPT":"NL:Q:37330230","_quaycode":"NL:Q:37330230","_town":"Assendelft","_status":"available","_mode":"bus","_direction":67,"_visuallyAccessible":false,"_disabledAccessible":true,"geojson_lng":4.7445612187380215,"geojson_lat":52.46675032915133},"geometry":{"type":"Point","coordinates":[4.7445612187380215,52.46675032915133]}},{"type":"Feature","properties":{"highway":"bus_stop","public_transport":"platform","name":"Kaapstadweg","ref:IFOPT":"NL:Q:57320070","_quaycode":"NL:Q:57320070","_town":"Amsterdam","_status":"available","_mode":"bus","_direction":171,"_visuallyAccessible":true,"_disabledAccessible":true,"geojson_lng":4.7400351892819526,"geojson_lat":52.41098405905328},"geometry":{"type":"Point","coordinates":[4.7400351892819526,52.41098405905328]}},{"type":"Feature","properties":{"highway":"bus_stop","public_transport":"platform","name":"Pont Buitenhuizen","ref:IFOPT":"NL:Q:37330400","_quaycode":"NL:Q:37330400","_town":"Nauerna","_status":"available","_mode":"bus","_direction":121,"_visuallyAccessible":false,"_disabledAccessible":false,"geojson_lng":4.725622178418404,"geojson_lat":52.43623187082545},"geometry":{"type":"Point","coordinates":[4.725622178418404,52.43623187082545]}},{"type":"Feature","properties":{"highway":"bus_stop","public_transport":"platform","name":"De Zaaier","ref:IFOPT":"NL:Q:37330160","_quaycode":"NL:Q:37330160","_town":"Assendelft","_status":"available","_mode":"bus","_direction":210,"_visuallyAccessible":false,"_disabledAccessible":false,"geojson_lng":4.736662890288749,"geojson_lat":52.460469833175274},"geometry":{"type":"Point","coordinates":[4.736662890288749,52.460469833175274]}},{"type":"Feature","properties":{"highway":"bus_stop","public_transport":"platform","name":"Banne","ref:IFOPT":"NL:Q:55232330","_quaycode":"NL:Q:55232330","_town":"Zwanenburg","_status":"available","_mode":"bus","_direction":298,"_visuallyAccessible":true,"_disabledAccessible":true,"geojson_lng":4.7324820181960865,"geojson_lat":52.37907189450104},"geometry":{"type":"Point","coordinates":[4.7324820181960865,52.37907189450104]}},{"type":"Feature","properties":{"highway":"bus_stop","public_transport":"platform","name":"Genieweg","ref:IFOPT":"NL:Q:37330140","_quaycode":"NL:Q:37330140","_town":"Assendelft","_status":"available","_mode":"bus","_direction":208,"_visuallyAccessible":false,"_disabledAccessible":false,"geojson_lng":4.737767128443201,"geojson_lat":52.46242620665823},"geometry":{"type":"Point","coordinates":[4.737767128443201,52.46242620665823]}},{"type":"Feature","properties":{"highway":"bus_stop","public_transport":"platform","name":"Genieweg","ref:IFOPT":"NL:Q:37330190","_quaycode":"NL:Q:37330190","_town":"Assendelft","_status":"available","_mode":"bus","_direction":30,"_visuallyAccessible":false,"_disabledAccessible":false,"geojson_lng":4.738070039651631,"geojson_lat":52.462841297170144},"geometry":{"type":"Point","coordinates":[4.738070039651631,52.462841297170144]}},{"type":"Feature","properties":{"highway":"bus_stop","public_transport":"platform","name":"Pont Buitenhuizen","ref:IFOPT":"NL:Q:37330350","_quaycode":"NL:Q:37330350","_town":"Nauerna","_status":"available","_mode":"bus","_direction":139,"_visuallyAccessible":false,"_disabledAccessible":true,"geojson_lng":4.72638699804948,"geojson_lat":52.4352385023157},"geometry":{"type":"Point","coordinates":[4.72638699804948,52.4352385023157]}},{"type":"Feature","properties":{"highway":"bus_stop","public_transport":"platform","name":"De Zaaier","ref:IFOPT":"NL:Q:37330170","_quaycode":"NL:Q:37330170","_town":"Assendelft","_status":"available","_mode":"bus","_direction":30,"_visuallyAccessible":false,"_disabledAccessible":false,"geojson_lng":4.737167926060125,"geojson_lat":52.4611466769706},"geometry":{"type":"Point","coordinates":[4.737167926060125,52.4611466769706]}},{"type":"Feature","properties":{"highway":"bus_stop","public_transport":"platform","name":"Kinheim","ref:IFOPT":"NL:Q:55232400","_quaycode":"NL:Q:55232400","_town":"Zwanenburg","_status":"available","_mode":"bus","_direction":118,"_visuallyAccessible":false,"_disabledAccessible":false,"geojson_lng":4.7306080961702,"geojson_lat":52.38362732290544},"geometry":{"type":"Point","coordinates":[4.7306080961702,52.38362732290544]}},{"type":"Feature","properties":{"highway":"bus_stop","public_transport":"platform","name":"Seevank","ref:IFOPT":"NL:Q:55232180","_quaycode":"NL:Q:55232180","_town":"Zwanenburg","_status":"available","_mode":"bus","_direction":46,"_visuallyAccessible":false,"_disabledAccessible":false,"geojson_lng":4.728054747425613,"geojson_lat":52.38444900064488},"geometry":{"type":"Point","coordinates":[4.728054747425613,52.38444900064488]}},{"type":"Feature","properties":{"highway":"bus_stop","public_transport":"platform","name":"Piersonstraat","ref:IFOPT":"NL:Q:55232210","_quaycode":"NL:Q:55232210","_town":"Zwanenburg","_status":"available","_mode":"bus","_direction":118,"_visuallyAccessible":false,"_disabledAccessible":false,"geojson_lng":4.745245807322347,"geojson_lat":52.37392885726277},"geometry":{"type":"Point","coordinates":[4.745245807322347,52.37392885726277]}},{"type":"Feature","properties":{"highway":"bus_stop","public_transport":"platform","name":"Durbanweg","ref:IFOPT":"NL:Q:30002325","_quaycode":"NL:Q:30002325","_town":"Amsterdam","_status":"available","_mode":"bus","_direction":286,"_visuallyAccessible":null,"_disabledAccessible":null,"geojson_lng":4.7383413030598245,"geojson_lat":52.407217912437275},"geometry":{"type":"Point","coordinates":[4.7383413030598245,52.407217912437275]}},{"type":"Feature","properties":{"highway":"bus_stop","public_transport":"platform","name":"Zuideinde","ref:IFOPT":"NL:Q:37330300","_quaycode":"NL:Q:37330300","_town":"Assendelft","_status":"available","_mode":"bus","_direction":210,"_visuallyAccessible":false,"_disabledAccessible":false,"geojson_lng":4.7159746615948555,"geojson_lat":52.438208846064114},"geometry":{"type":"Point","coordinates":[4.7159746615948555,52.438208846064114]}},{"type":"Feature","properties":{"highway":"bus_stop","public_transport":"platform","name":"De Olm","ref:IFOPT":"NL:Q:55232250","_quaycode":"NL:Q:55232250","_town":"Zwanenburg","_status":"available","_mode":"bus","_direction":51,"_visuallyAccessible":false,"_disabledAccessible":false,"geojson_lng":4.74714776248967,"geojson_lat":52.3764557393923},"geometry":{"type":"Point","coordinates":[4.74714776248967,52.3764557393923]}},{"type":"Feature","properties":{"highway":"bus_stop","public_transport":"platform","name":"Gemeentehuis","ref:IFOPT":"NL:Q:37330700","_quaycode":"NL:Q:37330700","_town":"Assendelft","_status":"available","_mode":"bus","_direction":38,"_visuallyAccessible":false,"_disabledAccessible":true,"geojson_lng":4.740028061800742,"geojson_lat":52.465790959576964},"geometry":{"type":"Point","coordinates":[4.740028061800742,52.465790959576964]}},{"type":"Feature","properties":{"highway":"bus_stop","public_transport":"platform","name":"O.L. School","ref:IFOPT":"NL:Q:37330130","_quaycode":"NL:Q:37330130","_town":"Assendelft","_status":"available","_mode":"bus","_direction":70,"_visuallyAccessible":false,"_disabledAccessible":false,"geojson_lng":4.7282266654371465,"geojson_lat":52.45390718722128},"geometry":{"type":"Point","coordinates":[4.7282266654371465,52.45390718722128]}},{"type":"Feature","properties":{"highway":"bus_stop","public_transport":"platform","name":"Haster","ref:IFOPT":"NL:Q:37330260","_quaycode":"NL:Q:37330260","_town":"Assendelft","_status":"available","_mode":"bus","_direction":211,"_visuallyAccessible":false,"_disabledAccessible":false,"geojson_lng":4.720227715979799,"geojson_lat":52.44484780467457},"geometry":{"type":"Point","coordinates":[4.720227715979799,52.44484780467457]}},{"type":"Feature","properties":{"highway":"bus_stop","public_transport":"platform","name":"Hornlaan","ref:IFOPT":"NL:Q:37330250","_quaycode":"NL:Q:37330250","_town":"Assendelft","_status":"available","_mode":"bus","_direction":298,"_visuallyAccessible":true,"_disabledAccessible":true,"geojson_lng":4.74301922155577,"geojson_lat":52.469564078162136},"geometry":{"type":"Point","coordinates":[4.74301922155577,52.469564078162136]}},{"type":"Feature","properties":{"highway":"bus_stop","public_transport":"platform","name":"Waterschot","ref:IFOPT":"NL:Q:37330270","_quaycode":"NL:Q:37330270","_town":"Assendelft","_status":"available","_mode":"bus","_direction":204,"_visuallyAccessible":false,"_disabledAccessible":false,"geojson_lng":4.7441967638849505,"geojson_lat":52.471574709897155},"geometry":{"type":"Point","coordinates":[4.7441967638849505,52.471574709897155]}},{"type":"Feature","properties":{"highway":"bus_stop","public_transport":"platform","name":"Seevank","ref:IFOPT":"NL:Q:55232380","_quaycode":"NL:Q:55232380","_town":"Zwanenburg","_status":"available","_mode":"bus","_direction":118,"_visuallyAccessible":false,"_disabledAccessible":false,"geojson_lng":4.728860613363947,"geojson_lat":52.38458830302572},"geometry":{"type":"Point","coordinates":[4.728860613363947,52.38458830302572]}},{"type":"Feature","properties":{"highway":"bus_stop","public_transport":"platform","name":"Nauerna","ref:IFOPT":"NL:Q:55232320","_quaycode":"NL:Q:55232320","_town":"Zwanenburg","_status":"available","_mode":"bus","_direction":118,"_visuallyAccessible":false,"_disabledAccessible":false,"geojson_lng":4.73521009427571,"geojson_lat":52.37932063067712},"geometry":{"type":"Point","coordinates":[4.73521009427571,52.37932063067712]}},{"type":"Feature","properties":{"highway":"bus_stop","public_transport":"platform","name":"'t Witte Huis","ref:IFOPT":"NL:Q:37330110","_quaycode":"NL:Q:37330110","_town":"Assendelft","_status":"available","_mode":"bus","_direction":27,"_visuallyAccessible":false,"_disabledAccessible":false,"geojson_lng":4.724143288400287,"geojson_lat":52.45053201501916},"geometry":{"type":"Point","coordinates":[4.724143288400287,52.45053201501916]}},{"type":"Feature","properties":{"highway":"bus_stop","public_transport":"platform","name":"Pont Buitenhuizen","ref:IFOPT":"NL:Q:37330360","_quaycode":"NL:Q:37330360","_town":"Nauerna","_status":"available","_mode":"bus","_direction":316,"_visuallyAccessible":false,"_disabledAccessible":true,"geojson_lng":4.726442461278605,"geojson_lat":52.43546350424904},"geometry":{"type":"Point","coordinates":[4.726442461278605,52.43546350424904]}},{"type":"Feature","properties":{"highway":"bus_stop","public_transport":"platform","name":"van Vliet","ref:IFOPT":"NL:Q:37330240","_quaycode":"NL:Q:37330240","_town":"Assendelft","_status":"available","_mode":"bus","_direction":214,"_visuallyAccessible":false,"_disabledAccessible":false,"geojson_lng":4.72235701565751,"geojson_lat":52.448014446211694},"geometry":{"type":"Point","coordinates":[4.72235701565751,52.448014446211694]}},{"type":"Feature","properties":{"highway":"bus_stop","public_transport":"platform","name":"'t Witte Huis","ref:IFOPT":"NL:Q:37330220","_quaycode":"NL:Q:37330220","_town":"Assendelft","_status":"available","_mode":"bus","_direction":207,"_visuallyAccessible":false,"_disabledAccessible":false,"geojson_lng":4.724039785014943,"geojson_lat":52.45056738675359},"geometry":{"type":"Point","coordinates":[4.724039785014943,52.45056738675359]}},{"type":"Feature","properties":{"highway":"bus_stop","public_transport":"platform","name":"S. de Beauvoirstraat","ref:IFOPT":"NL:Q:37330210","_quaycode":"NL:Q:37330210","_town":"Assendelft","_status":"available","_mode":"bus","_direction":112,"_visuallyAccessible":false,"_disabledAccessible":false,"geojson_lng":4.73957523009156,"geojson_lat":52.46455718044763},"geometry":{"type":"Point","coordinates":[4.73957523009156,52.46455718044763]}},{"type":"Feature","properties":{"highway":"bus_stop","public_transport":"platform","name":"Haster","ref:IFOPT":"NL:Q:37330070","_quaycode":"NL:Q:37330070","_town":"Assendelft","_status":"available","_mode":"bus","_direction":31,"_visuallyAccessible":false,"_disabledAccessible":false,"geojson_lng":4.720433889485772,"geojson_lat":52.44483098924797},"geometry":{"type":"Point","coordinates":[4.720433889485772,52.44483098924797]}},{"type":"Feature","properties":{"highway":"bus_stop","public_transport":"platform","name":"Zaandammerweg","ref:IFOPT":"NL:Q:37330150","_quaycode":"NL:Q:37330150","_town":"Assendelft","_status":"available","_mode":"bus","_direction":34,"_visuallyAccessible":false,"_disabledAccessible":false,"geojson_lng":4.734894589819261,"geojson_lat":52.4576559689277},"geometry":{"type":"Point","coordinates":[4.734894589819261,52.4576559689277]}},{"type":"Feature","properties":{"highway":"bus_stop","public_transport":"platform","name":"Troelstralaan","ref:IFOPT":"NL:Q:55232290","_quaycode":"NL:Q:55232290","_town":"Zwanenburg","_status":"available","_mode":"bus","_direction":119,"_visuallyAccessible":false,"_disabledAccessible":false,"geojson_lng":4.737993098200353,"geojson_lat":52.37782597103736},"geometry":{"type":"Point","coordinates":[4.737993098200353,52.37782597103736]}},{"type":"Feature","properties":{"highway":"bus_stop","public_transport":"platform","name":"Waterschot","ref:IFOPT":"NL:Q:37330060","_quaycode":"NL:Q:37330060","_town":"Assendelft","_status":"available","_mode":"bus","_direction":25,"_visuallyAccessible":false,"_disabledAccessible":true,"geojson_lng":4.744891658948167,"geojson_lat":52.47236938665224},"geometry":{"type":"Point","coordinates":[4.744891658948167,52.47236938665224]}},{"type":"Feature","properties":{"highway":"bus_stop","public_transport":"platform","name":"Gemeentehuis","ref:IFOPT":"NL:Q:37330690","_quaycode":"NL:Q:37330690","_town":"Assendelft","_status":"available","_mode":"bus","_direction":218,"_visuallyAccessible":false,"_disabledAccessible":true,"geojson_lng":4.739910083972938,"geojson_lat":52.46580829086277},"geometry":{"type":"Point","coordinates":[4.739910083972938,52.46580829086277]}},{"type":"Feature","properties":{"highway":"bus_stop","public_transport":"platform","name":"Koreman","ref:IFOPT":"NL:Q:37330280","_quaycode":"NL:Q:37330280","_town":"Assendelft","_status":"available","_mode":"bus","_direction":220,"_visuallyAccessible":false,"_disabledAccessible":false,"geojson_lng":4.718282431799779,"geojson_lat":52.44217648379937},"geometry":{"type":"Point","coordinates":[4.718282431799779,52.44217648379937]}},{"type":"Feature","properties":{"highway":"bus_stop","public_transport":"platform","name":"Zuideinde","ref:IFOPT":"NL:Q:37330030","_quaycode":"NL:Q:37330030","_town":"Assendelft","_status":"available","_mode":"bus","_direction":30,"_visuallyAccessible":false,"_disabledAccessible":false,"geojson_lng":4.7159892304443485,"geojson_lat":52.43821791628449},"geometry":{"type":"Point","coordinates":[4.7159892304443485,52.43821791628449]}},{"type":"Feature","properties":{"highway":"bus_stop","public_transport":"platform","name":"O.L. School","ref:IFOPT":"NL:Q:37330200","_quaycode":"NL:Q:37330200","_town":"Assendelft","_status":"available","_mode":"bus","_direction":250,"_visuallyAccessible":false,"_disabledAccessible":false,"geojson_lng":4.7282266654371465,"geojson_lat":52.45390718722128},"geometry":{"type":"Point","coordinates":[4.7282266654371465,52.45390718722128]}},{"type":"Feature","properties":{"highway":"bus_stop","public_transport":"platform","name":"Koreman","ref:IFOPT":"NL:Q:37330050","_quaycode":"NL:Q:37330050","_town":"Assendelft","_status":"available","_mode":"bus","_direction":40,"_visuallyAccessible":false,"_disabledAccessible":false,"geojson_lng":4.718647649481357,"geojson_lat":52.44234032301681},"geometry":{"type":"Point","coordinates":[4.718647649481357,52.44234032301681]}},{"type":"Feature","properties":{"highway":"bus_stop","public_transport":"platform","name":"Vuurlinie","ref:IFOPT":"NL:Q:37330010","_quaycode":"NL:Q:37330010","_town":"Assendelft","_status":"available","_mode":"bus","_direction":118,"_visuallyAccessible":false,"_disabledAccessible":false,"geojson_lng":4.683390776477425,"geojson_lat":52.452660828114645},"geometry":{"type":"Point","coordinates":[4.683390776477425,52.452660828114645]}},{"type":"Feature","properties":{"highway":"bus_stop","public_transport":"platform","name":"Zaandammerweg","ref:IFOPT":"NL:Q:37330180","_quaycode":"NL:Q:37330180","_town":"Assendelft","_status":"available","_mode":"bus","_direction":214,"_visuallyAccessible":false,"_disabledAccessible":false,"geojson_lng":4.734575573979142,"geojson_lat":52.45733964518423},"geometry":{"type":"Point","coordinates":[4.734575573979142,52.45733964518423]}},{"type":"Feature","properties":{"highway":"bus_stop","public_transport":"platform","name":"Hornlaan","ref:IFOPT":"NL:Q:37330080","_quaycode":"NL:Q:37330080","_town":"Assendelft","_status":"available","_mode":"bus","_direction":118,"_visuallyAccessible":false,"_disabledAccessible":true,"geojson_lng":4.7430205305745305,"geojson_lat":52.46947420898522},"geometry":{"type":"Point","coordinates":[4.7430205305745305,52.46947420898522]}},{"type":"Feature","properties":{"highway":"bus_stop","public_transport":"platform","name":"Festina Lente","ref:IFOPT":"NL:Q:37330100","_quaycode":"NL:Q:37330100","_town":"Assendelft","_status":"available","_mode":"bus","_direction":244,"_visuallyAccessible":false,"_disabledAccessible":true,"geojson_lng":4.744969184415266,"geojson_lat":52.46703115612771},"geometry":{"type":"Point","coordinates":[4.744969184415266,52.46703115612771]}},{"type":"Feature","properties":{"highway":"bus_stop","public_transport":"platform","name":"Pont Buitenhuizen","ref:IFOPT":"NL:Q:37330390","_quaycode":"NL:Q:37330390","_town":"Nauerna","_status":"available","_mode":"bus","_direction":320,"_visuallyAccessible":false,"_disabledAccessible":false,"geojson_lng":4.725988850974452,"geojson_lat":52.43629683106312},"geometry":{"type":"Point","coordinates":[4.725988850974452,52.43629683106312]}},{"type":"Feature","properties":{"highway":"bus_stop","public_transport":"platform","name":"De Olm","ref:IFOPT":"NL:Q:55232260","_quaycode":"NL:Q:55232260","_town":"Zwanenburg","_status":"available","_mode":"bus","_direction":215,"_visuallyAccessible":false,"_disabledAccessible":false,"geojson_lng":4.746565437393938,"geojson_lat":52.37610206578488},"geometry":{"type":"Point","coordinates":[4.746565437393938,52.37610206578488]}},{"type":"Feature","properties":{"highway":"bus_stop","public_transport":"platform","name":"Camping De Duindoorn","ref:IFOPT":"NL:Q:56204560","_quaycode":"NL:Q:56204560","_town":"IJmuiden","_status":"available","_mode":"bus","_direction":270,"_visuallyAccessible":false,"_disabledAccessible":true,"geojson_lng":4.5730416281525095,"geojson_lat":52.45583702127696},"geometry":{"type":"Point","coordinates":[4.5730416281525095,52.45583702127696]}},{"type":"Feature","properties":{"highway":"bus_stop","public_transport":"platform","name":"Noorderbegraafplaats","ref:IFOPT":"NL:Q:55102740","_quaycode":"NL:Q:55102740","_town":"Haarlem","_status":"available","_mode":"bus","_direction":48,"_visuallyAccessible":true,"_disabledAccessible":true,"geojson_lng":4.660489841666231,"geojson_lat":52.42282709653321},"geometry":{"type":"Point","coordinates":[4.660489841666231,52.42282709653321]}},{"type":"Feature","properties":{"highway":"bus_stop","public_transport":"platform","name":"Centrum/Houtplein","ref:IFOPT":"NL:Q:55000150","_quaycode":"NL:Q:55000150","_town":"Haarlem","_status":"available","_mode":"bus","_direction":206,"_visuallyAccessible":false,"_disabledAccessible":true,"geojson_lng":4.630292143285588,"geojson_lat":52.37471477589604},"geometry":{"type":"Point","coordinates":[4.630292143285588,52.37471477589604]}},{"type":"Feature","properties":{"highway":"bus_stop","public_transport":"platform","name":"Centrum/Houtplein","ref:IFOPT":"NL:Q:55000151","_quaycode":"NL:Q:55000151","_town":"Haarlem","_status":"available","_mode":"bus","_direction":186,"_visuallyAccessible":null,"_disabledAccessible":null,"geojson_lng":4.630163397252877,"geojson_lat":52.37408500893882},"geometry":{"type":"Point","coordinates":[4.630163397252877,52.37408500893882]}},{"type":"Feature","properties":{"highway":"bus_stop","public_transport":"platform","name":"Hagelingerweg","ref:IFOPT":"NL:Q:56320690","_quaycode":"NL:Q:56320690","_town":"Santpoort-Noord","_status":"available","_mode":"bus","_direction":177,"_visuallyAccessible":false,"_disabledAccessible":false,"geojson_lng":4.643855179068629,"geojson_lat":52.43377888501978},"geometry":{"type":"Point","coordinates":[4.643855179068629,52.43377888501978]}},{"type":"Feature","properties":{"highway":"bus_stop","public_transport":"platform","name":"Stolbergstraat","ref:IFOPT":"NL:Q:55002130","_quaycode":"NL:Q:55002130","_town":"Haarlem","_status":"available","_mode":"bus","_direction":273,"_visuallyAccessible":null,"_disabledAccessible":null,"geojson_lng":4.625218453228311,"geojson_lat":52.37598547438771},"geometry":{"type":"Point","coordinates":[4.625218453228311,52.37598547438771]}},{"type":"Feature","properties":{"highway":"bus_stop","public_transport":"platform","name":"Vuurlinie","ref:IFOPT":"NL:Q:37430020","_quaycode":"NL:Q:37430020","_town":"Assendelft","_status":"available","_mode":"bus","_direction":298,"_visuallyAccessible":false,"_disabledAccessible":false,"geojson_lng":4.686177870266285,"geojson_lat":52.45131121100912},"geometry":{"type":"Point","coordinates":[4.686177870266285,52.45131121100912]}},{"type":"Feature","properties":{"highway":"bus_stop","public_transport":"platform","name":"RK Kerk","ref:IFOPT":"NL:Q:37330290","_quaycode":"NL:Q:37330290","_town":"Assendelft","_status":"available","_mode":"bus","_direction":0,"_visuallyAccessible":true,"_disabledAccessible":true,"geojson_lng":4.746003332778133,"geojson_lat":52.47385836001217},"geometry":{"type":"Point","coordinates":[4.746003332778133,52.47385836001217]}},{"type":"Feature","properties":{"highway":"bus_stop","public_transport":"platform","name":"van Vliet","ref:IFOPT":"NL:Q:37330090","_quaycode":"NL:Q:37330090","_town":"Assendelft","_status":"available","_mode":"bus","_direction":34,"_visuallyAccessible":false,"_disabledAccessible":false,"geojson_lng":4.7222749767980075,"geojson_lat":52.447600552440605},"geometry":{"type":"Point","coordinates":[4.7222749767980075,52.447600552440605]}},{"type":"Feature","properties":{"highway":"bus_stop","public_transport":"platform","name":"RK Kerk","ref:IFOPT":"NL:Q:37330040","_quaycode":"NL:Q:37330040","_town":"Assendelft","_status":"available","_mode":"bus","_direction":213,"_visuallyAccessible":false,"_disabledAccessible":true,"geojson_lng":4.7461734234697,"geojson_lat":52.47430866043932},"geometry":{"type":"Point","coordinates":[4.7461734234697,52.47430866043932]}},{"type":"Feature","properties":{"highway":"bus_stop","public_transport":"platform","name":"Gasthuissingel [tijdelijk]","ref:IFOPT":"NL:Q:55000210","_quaycode":"NL:Q:55000210","_town":"Haarlem","_status":"available","_mode":"bus","_direction":93,"_visuallyAccessible":false,"_disabledAccessible":false,"geojson_lng":4.631202395160888,"geojson_lat":52.37584802517912},"geometry":{"type":"Point","coordinates":[4.631202395160888,52.37584802517912]}},{"type":"Feature","properties":{"highway":"bus_stop","public_transport":"platform","name":"Stadsschouwburg/Raamvest [tijdelijk]","ref:IFOPT":"NL:Q:55000200","_quaycode":"NL:Q:55000200","_town":"Haarlem","_status":"available","_mode":"bus","_direction":299,"_visuallyAccessible":false,"_disabledAccessible":false,"geojson_lng":4.6269262342136015,"geojson_lat":52.37745249323367},"geometry":{"type":"Point","coordinates":[4.6269262342136015,52.37745249323367]}},{"type":"Feature","properties":{"highway":"bus_stop","public_transport":"platform","name":"Centrum/Houtplein","ref:IFOPT":"NL:Q:55000120","_quaycode":"NL:Q:55000120","_town":"Haarlem","_status":"available","_mode":"bus","_direction":13,"_visuallyAccessible":false,"_disabledAccessible":false,"geojson_lng":4.63083023382544,"geojson_lat":52.37502380342971},"geometry":{"type":"Point","coordinates":[4.63083023382544,52.37502380342971]}},{"type":"Feature","properties":{"highway":"bus_stop","public_transport":"platform","name":"Skiheuvel","ref:IFOPT":"NL:Q:56320030","_quaycode":"NL:Q:56320030","_town":"Velsen-Zuid","_status":"available","_mode":"bus","_direction":118,"_visuallyAccessible":true,"_disabledAccessible":true,"geojson_lng":4.679779376899676,"geojson_lat":52.45034746434152},"geometry":{"type":"Point","coordinates":[4.679779376899676,52.45034746434152]}},{"type":"Feature","properties":{"highway":"bus_stop","public_transport":"platform","name":"Zwanebloemplantsoen","ref:IFOPT":"NL:Q:56320100","_quaycode":"NL:Q:56320100","_town":"Velserbroek","_status":"available","_mode":"bus","_direction":105,"_visuallyAccessible":true,"_disabledAccessible":false,"geojson_lng":4.651161844339031,"geojson_lat":52.42857562925148},"geometry":{"type":"Point","coordinates":[4.651161844339031,52.42857562925148]}},{"type":"Feature","properties":{"highway":"bus_stop","public_transport":"platform","name":"Skiheuvel","ref:IFOPT":"NL:Q:56320040","_quaycode":"NL:Q:56320040","_town":"Velsen-Zuid","_status":"available","_mode":"bus","_direction":297,"_visuallyAccessible":true,"_disabledAccessible":true,"geojson_lng":4.678558409869137,"geojson_lat":52.45126590640337},"geometry":{"type":"Point","coordinates":[4.678558409869137,52.45126590640337]}},{"type":"Feature","properties":{"highway":"bus_stop","public_transport":"platform","name":"Zwanebloemplantsoen","ref:IFOPT":"NL:Q:56320110","_quaycode":"NL:Q:56320110","_town":"Velserbroek","_status":"available","_mode":"bus","_direction":283,"_visuallyAccessible":true,"_disabledAccessible":true,"geojson_lng":4.651409832721292,"geojson_lat":52.42869401055403},"geometry":{"type":"Point","coordinates":[4.651409832721292,52.42869401055403]}},{"type":"Feature","properties":{"highway":"bus_stop","public_transport":"platform","name":"Laaglandersluisweg","ref:IFOPT":"NL:Q:56320060","_quaycode":"NL:Q:56320060","_town":"Velsen-Zuid","_status":"available","_mode":"bus","_direction":106,"_visuallyAccessible":true,"_disabledAccessible":true,"geojson_lng":4.668771622686341,"geojson_lat":52.45514361816439},"geometry":{"type":"Point","coordinates":[4.668771622686341,52.45514361816439]}},{"type":"Feature","properties":{"highway":"bus_stop","public_transport":"platform","name":"Zijkanaal B","ref:IFOPT":"NL:Q:56320020","_quaycode":"NL:Q:56320020","_town":"Velsen-Zuid","_status":"available","_mode":"bus","_direction":293,"_visuallyAccessible":true,"_disabledAccessible":false,"geojson_lng":4.687352147620614,"geojson_lat":52.44496383503137},"geometry":{"type":"Point","coordinates":[4.687352147620614,52.44496383503137]}},{"type":"Feature","properties":{"highway":"bus_stop","public_transport":"platform","name":"Heerenduinweg","ref:IFOPT":"NL:Q:56200080","_quaycode":"NL:Q:56200080","_town":"IJmuiden","_status":"available","_mode":"bus","_direction":209,"_visuallyAccessible":true,"_disabledAccessible":true,"geojson_lng":4.6287612819125385,"geojson_lat":52.45304291289007},"geometry":{"type":"Point","coordinates":[4.6287612819125385,52.45304291289007]}},{"type":"Feature","properties":{"highway":"bus_stop","public_transport":"platform","name":"Plein 1945","ref:IFOPT":"NL:Q:56200180","_quaycode":"NL:Q:56200180","_town":"IJmuiden","_status":"available","_mode":"bus","_direction":261,"_visuallyAccessible":true,"_disabledAccessible":false,"geojson_lng":4.62485233704821,"geojson_lat":52.459623837974476},"geometry":{"type":"Point","coordinates":[4.62485233704821,52.459623837974476]}},{"type":"Feature","properties":{"highway":"bus_stop","public_transport":"platform","name":"Centrum","ref:IFOPT":"NL:Q:56320620","_quaycode":"NL:Q:56320620","_town":"Velserbroek","_status":"available","_mode":"bus","_direction":250,"_visuallyAccessible":true,"_disabledAccessible":true,"geojson_lng":4.659079057737793,"geojson_lat":52.43531144344131},"geometry":{"type":"Point","coordinates":[4.659079057737793,52.43531144344131]}},{"type":"Feature","properties":{"highway":"bus_stop","public_transport":"platform","name":"Heerenduinweg","ref:IFOPT":"NL:Q:56200140","_quaycode":"NL:Q:56200140","_town":"IJmuiden","_status":"available","_mode":"bus","_direction":27,"_visuallyAccessible":true,"_disabledAccessible":true,"geojson_lng":4.629087053816224,"geojson_lat":52.452919168165536},"geometry":{"type":"Point","coordinates":[4.629087053816224,52.452919168165536]}},{"type":"Feature","properties":{"highway":"bus_stop","public_transport":"platform","name":"Scheldestraat","ref:IFOPT":"NL:Q:56200130","_quaycode":"NL:Q:56200130","_town":"IJmuiden","_status":"available","_mode":"bus","_direction":84,"_visuallyAccessible":true,"_disabledAccessible":true,"geojson_lng":4.612002447946315,"geojson_lat":52.457383448580984},"geometry":{"type":"Point","coordinates":[4.612002447946315,52.457383448580984]}},{"type":"Feature","properties":{"highway":"bus_stop","public_transport":"platform","name":"Plein 1945","ref:IFOPT":"NL:Q:56200190","_quaycode":"NL:Q:56200190","_town":"IJmuiden","_status":"available","_mode":"bus","_direction":81,"_visuallyAccessible":true,"_disabledAccessible":true,"geojson_lng":4.625250489864489,"geojson_lat":52.459572471100714},"geometry":{"type":"Point","coordinates":[4.625250489864489,52.459572471100714]}},{"type":"Feature","properties":{"highway":"bus_stop","public_transport":"platform","name":"Zwaluwstraat","ref:IFOPT":"NL:Q:55102090","_quaycode":"NL:Q:55102090","_town":"Haarlem","_status":"available","_mode":"bus","_direction":137,"_visuallyAccessible":true,"_disabledAccessible":true,"geojson_lng":4.6562090716854385,"geojson_lat":52.41408259961236},"geometry":{"type":"Point","coordinates":[4.6562090716854385,52.41408259961236]}},{"type":"Feature","properties":{"highway":"bus_stop","public_transport":"platform","name":"Emmaplein","ref:IFOPT":"NL:Q:55002150","_quaycode":"NL:Q:55002150","_town":"Haarlem","_status":"available","_mode":"bus","_direction":223,"_visuallyAccessible":false,"_disabledAccessible":true,"geojson_lng":4.621694200285504,"geojson_lat":52.3751178786977},"geometry":{"type":"Point","coordinates":[4.621694200285504,52.3751178786977]}},{"type":"Feature","properties":{"highway":"bus_stop","public_transport":"platform","name":"Marktplein","ref:IFOPT":"NL:Q:56200150","_quaycode":"NL:Q:56200150","_town":"IJmuiden","_status":"available","_mode":"bus","_direction":80,"_visuallyAccessible":true,"_disabledAccessible":true,"geojson_lng":4.616626154535504,"geojson_lat":52.45800678513768},"geometry":{"type":"Point","coordinates":[4.616626154535504,52.45800678513768]}},{"type":"Feature","properties":{"highway":"bus_stop","public_transport":"platform","name":"Kaapstadweg","ref:IFOPT":"NL:Q:57320060","_quaycode":"NL:Q:57320060","_town":"Amsterdam","_status":"available","_mode":"bus","_direction":354,"_visuallyAccessible":true,"_disabledAccessible":true,"geojson_lng":4.740162330791494,"geojson_lat":52.41234190249832},"geometry":{"type":"Point","coordinates":[4.740162330791494,52.41234190249832]}},{"type":"Feature","properties":{"highway":"bus_stop","public_transport":"platform","name":"Station Halfweg-Zwanenburg","ref:IFOPT":"NL:Q:55230110","_quaycode":"NL:Q:55230110","_town":"Halfweg","_status":"available","_mode":"bus","_direction":97,"_visuallyAccessible":true,"_disabledAccessible":true,"geojson_lng":4.746237368178504,"geojson_lat":52.38559140045398},"geometry":{"type":"Point","coordinates":[4.746237368178504,52.38559140045398]}},{"type":"Feature","properties":{"highway":"bus_stop","public_transport":"platform","name":"Tetterode","ref:IFOPT":"NL:Q:55104450","_quaycode":"NL:Q:55104450","_town":"Overveen","_status":"available","_mode":"bus","_direction":87,"_visuallyAccessible":false,"_disabledAccessible":false,"geojson_lng":4.598333884076968,"geojson_lat":52.391376465276},"geometry":{"type":"Point","coordinates":[4.598333884076968,52.391376465276]}},{"type":"Feature","properties":{"highway":"bus_stop","public_transport":"platform","name":"Gemeentehuis","ref:IFOPT":"NL:Q:55105520","_quaycode":"NL:Q:55105520","_town":"Bloemendaal","_status":"available","_mode":"bus","_direction":355,"_visuallyAccessible":false,"_disabledAccessible":false,"geojson_lng":4.613387088222152,"geojson_lat":52.39671571926962},"geometry":{"type":"Point","coordinates":[4.613387088222152,52.39671571926962]}},{"type":"Feature","properties":{"highway":"bus_stop","public_transport":"platform","name":"Gemeentehuis","ref:IFOPT":"NL:Q:55105290","_quaycode":"NL:Q:55105290","_town":"Bloemendaal","_status":"available","_mode":"bus","_direction":161,"_visuallyAccessible":false,"_disabledAccessible":false,"geojson_lng":4.613122805790725,"geojson_lat":52.396705004349926},"geometry":{"type":"Point","coordinates":[4.613122805790725,52.396705004349926]}},{"type":"Feature","properties":{"highway":"bus_stop","public_transport":"platform","name":"Roos en Beeklaan","ref:IFOPT":"NL:Q:56320700","_quaycode":"NL:Q:56320700","_town":"Santpoort","_status":"available","_mode":"bus","_direction":355,"_visuallyAccessible":false,"_disabledAccessible":false,"geojson_lng":4.636433669871715,"geojson_lat":52.434379220543896},"geometry":{"type":"Point","coordinates":[4.636433669871715,52.434379220543896]}},{"type":"Feature","properties":{"highway":"bus_stop","public_transport":"platform","name":"Dennekoplaan","ref:IFOPT":"NL:Q:56200020","_quaycode":"NL:Q:56200020","_town":"IJmuiden","_status":"available","_mode":"bus","_direction":120,"_visuallyAccessible":true,"_disabledAccessible":true,"geojson_lng":4.590067671456163,"geojson_lat":52.44991293536915},"geometry":{"type":"Point","coordinates":[4.590067671456163,52.44991293536915]}},{"type":"Feature","properties":{"highway":"bus_stop","public_transport":"platform","name":"Zaanenlaan","ref:IFOPT":"NL:Q:55100100","_quaycode":"NL:Q:55100100","_town":"Haarlem","_status":"available","_mode":"bus","_direction":44,"_visuallyAccessible":false,"_disabledAccessible":true,"geojson_lng":4.6457540050256,"geojson_lat":52.40205482937432},"geometry":{"type":"Point","coordinates":[4.6457540050256,52.40205482937432]}},{"type":"Feature","properties":{"highway":"bus_stop","public_transport":"platform","name":"J.W. Lucasweg","ref:IFOPT":"NL:Q:55008840","_quaycode":"NL:Q:55008840","_town":"Haarlem","_status":"available","_mode":"bus","_direction":149,"_visuallyAccessible":false,"_disabledAccessible":false,"geojson_lng":4.667319735949416,"geojson_lat":52.392454043066486},"geometry":{"type":"Point","coordinates":[4.667319735949416,52.392454043066486]}},{"type":"Feature","properties":{"highway":"bus_stop","public_transport":"platform","name":"Vijver","ref:IFOPT":"NL:Q:55003190","_quaycode":"NL:Q:55003190","_town":"Haarlem","_status":"available","_mode":"bus","_direction":284,"_visuallyAccessible":false,"_disabledAccessible":true,"geojson_lng":4.609091453400088,"geojson_lat":52.38195641523228},"geometry":{"type":"Point","coordinates":[4.609091453400088,52.38195641523228]}},{"type":"Feature","properties":{"highway":"bus_stop","public_transport":"platform","name":"Tempeliersstraat","ref:IFOPT":"NL:Q:55002110","_quaycode":"NL:Q:55002110","_town":"Haarlem","_status":"available","_mode":"bus","_direction":279,"_visuallyAccessible":false,"_disabledAccessible":false,"geojson_lng":4.630060992010734,"geojson_lat":52.375351438894775},"geometry":{"type":"Point","coordinates":[4.630060992010734,52.375351438894775]}},{"type":"Feature","properties":{"highway":"bus_stop","public_transport":"platform","name":"Straalzender","ref:IFOPT":"NL:Q:55008870","_quaycode":"NL:Q:55008870","_town":"Haarlem","_status":"available","_mode":"bus","_direction":328,"_visuallyAccessible":false,"_disabledAccessible":false,"geojson_lng":4.670076083043707,"geojson_lat":52.38826445969912},"geometry":{"type":"Point","coordinates":[4.670076083043707,52.38826445969912]}},{"type":"Feature","properties":{"highway":"bus_stop","public_transport":"platform","name":"Straalzender","ref:IFOPT":"NL:Q:55008860","_quaycode":"NL:Q:55008860","_town":"Haarlem","_status":"available","_mode":"bus","_direction":145,"_visuallyAccessible":false,"_disabledAccessible":false,"geojson_lng":4.670050922354837,"geojson_lat":52.38800365989995},"geometry":{"type":"Point","coordinates":[4.670050922354837,52.38800365989995]}},{"type":"Feature","properties":{"highway":"bus_stop","public_transport":"platform","name":"Station Spaarnwoude","ref:IFOPT":"NL:Q:55000320","_quaycode":"NL:Q:55000320","_town":"Haarlem","_status":"available","_mode":"bus","_direction":135,"_visuallyAccessible":false,"_disabledAccessible":false,"geojson_lng":4.671290657708713,"geojson_lat":52.38218703643093},"geometry":{"type":"Point","coordinates":[4.671290657708713,52.38218703643093]}},{"type":"Feature","properties":{"highway":"bus_stop","public_transport":"platform","name":"Beveland","ref:IFOPT":"NL:Q:37436000","_quaycode":"NL:Q:37436000","_town":"Beverwijk","_status":"available","_mode":"bus","_direction":203,"_visuallyAccessible":false,"_disabledAccessible":false,"geojson_lng":4.669120870723301,"geojson_lat":52.468070053446326},"geometry":{"type":"Point","coordinates":[4.669120870723301,52.468070053446326]}},{"type":"Feature","properties":{"highway":"bus_stop","public_transport":"platform","name":"Fl. Balthasarstraat","ref:IFOPT":"NL:Q:55102500","_quaycode":"NL:Q:55102500","_town":"Spaarndam","_status":"available","_mode":"bus","_direction":82,"_visuallyAccessible":false,"_disabledAccessible":false,"geojson_lng":4.688321232743697,"geojson_lat":52.41433031517288},"geometry":{"type":"Point","coordinates":[4.688321232743697,52.41433031517288]}},{"type":"Feature","properties":{"highway":"bus_stop","public_transport":"platform","name":"Ds. J. Schardamstraat","ref:IFOPT":"NL:Q:55102490","_quaycode":"NL:Q:55102490","_town":"Spaarndam","_status":"available","_mode":"bus","_direction":236,"_visuallyAccessible":false,"_disabledAccessible":false,"geojson_lng":4.684430620980099,"geojson_lat":52.413120912573326},"geometry":{"type":"Point","coordinates":[4.684430620980099,52.413120912573326]}},{"type":"Feature","properties":{"highway":"bus_stop","public_transport":"platform","name":"Ds. J. Schardamstraat","ref:IFOPT":"NL:Q:55102480","_quaycode":"NL:Q:55102480","_town":"Spaarndam","_status":"available","_mode":"bus","_direction":73,"_visuallyAccessible":false,"_disabledAccessible":false,"geojson_lng":4.684885364152156,"geojson_lat":52.41317753599742},"geometry":{"type":"Point","coordinates":[4.684885364152156,52.41317753599742]}},{"type":"Feature","properties":{"highway":"bus_stop","public_transport":"platform","name":"Westhoff","ref:IFOPT":"NL:Q:55102510","_quaycode":"NL:Q:55102510","_town":"Spaarndam","_status":"available","_mode":"bus","_direction":126,"_visuallyAccessible":false,"_disabledAccessible":false,"geojson_lng":4.6901620603406595,"geojson_lat":52.41317274909475},"geometry":{"type":"Point","coordinates":[4.6901620603406595,52.41317274909475]}},{"type":"Feature","properties":{"highway":"bus_stop","public_transport":"platform","name":"Fl. Balthasarstraat","ref:IFOPT":"NL:Q:55102530","_quaycode":"NL:Q:55102530","_town":"Spaarndam","_status":"available","_mode":"bus","_direction":255,"_visuallyAccessible":false,"_disabledAccessible":false,"geojson_lng":4.688012876902889,"geojson_lat":52.414310520171604},"geometry":{"type":"Point","coordinates":[4.688012876902889,52.414310520171604]}},{"type":"Feature","properties":{"highway":"bus_stop","public_transport":"platform","name":"Stolbergstraat","ref:IFOPT":"NL:Q:55002220","_quaycode":"NL:Q:55002220","_town":"Haarlem","_status":"available","_mode":"bus","_direction":99,"_visuallyAccessible":null,"_disabledAccessible":null,"geojson_lng":4.625352000946047,"geojson_lat":52.37590544267697},"geometry":{"type":"Point","coordinates":[4.625352000946047,52.37590544267697]}},{"type":"Feature","properties":{"highway":"bus_stop","public_transport":"platform","name":"Station Halfweg-Zwanenburg","ref:IFOPT":"NL:Q:55230100","_quaycode":"NL:Q:55230100","_town":"Halfweg","_status":"available","_mode":"bus","_direction":277,"_visuallyAccessible":false,"_disabledAccessible":true,"geojson_lng":4.744865549999184,"geojson_lat":52.38598841769459},"geometry":{"type":"Point","coordinates":[4.744865549999184,52.38598841769459]}},{"type":"Feature","properties":{"highway":"bus_stop","public_transport":"platform","name":"Prins Bernhardlaan","ref:IFOPT":"NL:Q:55007520","_quaycode":"NL:Q:55007520","_town":"Haarlem","_status":"available","_mode":"bus","_direction":192,"_visuallyAccessible":true,"_disabledAccessible":true,"geojson_lng":4.660499041969257,"geojson_lat":52.3801529554763},"geometry":{"type":"Point","coordinates":[4.660499041969257,52.3801529554763]}},{"type":"Feature","properties":{"highway":"bus_stop","public_transport":"platform","name":"Kennemerlaan","ref:IFOPT":"NL:Q:56202120","_quaycode":"NL:Q:56202120","_town":"IJmuiden","_status":"available","_mode":"bus","_direction":98,"_visuallyAccessible":true,"_disabledAccessible":true,"geojson_lng":4.606739506926652,"geojson_lat":52.4604766596316},"geometry":{"type":"Point","coordinates":[4.606739506926652,52.4604766596316]}},{"type":"Feature","properties":{"highway":"bus_stop","public_transport":"platform","name":"Winkelcentrum Marsmanplein","ref:IFOPT":"NL:Q:55100180","_quaycode":"NL:Q:55100180","_town":"Haarlem","_status":"available","_mode":"bus","_direction":341,"_visuallyAccessible":true,"_disabledAccessible":true,"geojson_lng":4.649514839798932,"geojson_lat":52.41623413048675},"geometry":{"type":"Point","coordinates":[4.649514839798932,52.41623413048675]}},{"type":"Feature","properties":{"highway":"bus_stop","public_transport":"platform","name":"Station","ref:IFOPT":"NL:Q:55000253","_quaycode":"NL:Q:55000253","_town":"Haarlem","_status":"available","_mode":"bus","_direction":10,"_visuallyAccessible":false,"_disabledAccessible":true,"geojson_lng":4.637595928037919,"geojson_lat":52.38744314902858},"geometry":{"type":"Point","coordinates":[4.637595928037919,52.38744314902858]}},{"type":"Feature","properties":{"highway":"bus_stop","public_transport":"platform","name":"Station","ref:IFOPT":"NL:Q:55100240","_quaycode":"NL:Q:55100240","_town":"Haarlem","_status":"available","_mode":"bus","_direction":10,"_visuallyAccessible":false,"_disabledAccessible":true,"geojson_lng":4.637890297102118,"geojson_lat":52.387409060586975},"geometry":{"type":"Point","coordinates":[4.637890297102118,52.387409060586975]}},{"type":"Feature","properties":{"highway":"bus_stop","public_transport":"platform","name":"Rotonde Stadspark","ref:IFOPT":"NL:Q:56200250","_quaycode":"NL:Q:56200250","_town":"IJmuiden","_status":"available","_mode":"bus","_direction":74,"_visuallyAccessible":true,"_disabledAccessible":true,"geojson_lng":4.606611522217842,"geojson_lat":52.4568896981686},"geometry":{"type":"Point","coordinates":[4.606611522217842,52.4568896981686]}},{"type":"Feature","properties":{"highway":"bus_stop","public_transport":"platform","name":"Kromhoutstraat","ref:IFOPT":"NL:Q:56204530","_quaycode":"NL:Q:56204530","_town":"IJmuiden","_status":"available","_mode":"bus","_direction":84,"_visuallyAccessible":false,"_disabledAccessible":true,"geojson_lng":4.590820017440745,"geojson_lat":52.45469949875126},"geometry":{"type":"Point","coordinates":[4.590820017440745,52.45469949875126]}},{"type":"Feature","properties":{"highway":"bus_stop","public_transport":"platform","name":"Parkweg","ref:IFOPT":"NL:Q:56202010","_quaycode":"NL:Q:56202010","_town":"Velsen-Zuid","_status":"available","_mode":"bus","_direction":296,"_visuallyAccessible":true,"_disabledAccessible":true,"geojson_lng":4.648452279994048,"geojson_lat":52.459665392401746},"geometry":{"type":"Point","coordinates":[4.648452279994048,52.459665392401746]}},{"type":"Feature","properties":{"highway":"bus_stop","public_transport":"platform","name":"De Bazaar","ref:IFOPT":"NL:Q:56300830","_quaycode":"NL:Q:56300830","_town":"Beverwijk","_status":"available","_mode":"bus","_direction":74,"_visuallyAccessible":false,"_disabledAccessible":false,"geojson_lng":4.666381480538824,"geojson_lat":52.47993514587246},"geometry":{"type":"Point","coordinates":[4.666381480538824,52.47993514587246]}},{"type":"Feature","properties":{"highway":"bus_stop","public_transport":"platform","name":"V. van Vrieslandstraat","ref:IFOPT":"NL:Q:55101050","_quaycode":"NL:Q:55101050","_town":"Haarlem","_status":"available","_mode":"bus","_direction":224,"_visuallyAccessible":false,"_disabledAccessible":false,"geojson_lng":4.6417121855309835,"geojson_lat":52.41520561717834},"geometry":{"type":"Point","coordinates":[4.6417121855309835,52.41520561717834]}},{"type":"Feature","properties":{"highway":"bus_stop","public_transport":"platform","name":"Laaglandersluisweg","ref:IFOPT":"NL:Q:56320050","_quaycode":"NL:Q:56320050","_town":"Velsen-Zuid","_status":"available","_mode":"bus","_direction":320,"_visuallyAccessible":true,"_disabledAccessible":true,"geojson_lng":4.667071499578129,"geojson_lat":52.456553362142515},"geometry":{"type":"Point","coordinates":[4.667071499578129,52.456553362142515]}},{"type":"Feature","properties":{"highway":"bus_stop","public_transport":"platform","name":"Westergracht","ref:IFOPT":"NL:Q:55003220","_quaycode":"NL:Q:55003220","_town":"Haarlem","_status":"available","_mode":"bus","_direction":285,"_visuallyAccessible":false,"_disabledAccessible":true,"geojson_lng":4.619741895390932,"geojson_lat":52.3784577270542},"geometry":{"type":"Point","coordinates":[4.619741895390932,52.3784577270542]}},{"type":"Feature","properties":{"highway":"bus_stop","public_transport":"platform","name":"Korte Zijlweg","ref:IFOPT":"NL:Q:55004050","_quaycode":"NL:Q:55004050","_town":"Overveen","_status":"available","_mode":"bus","_direction":16,"_visuallyAccessible":false,"_disabledAccessible":true,"geojson_lng":4.607358226275628,"geojson_lat":52.3878051263596},"geometry":{"type":"Point","coordinates":[4.607358226275628,52.3878051263596]}},{"type":"Feature","properties":{"highway":"bus_stop","public_transport":"platform","name":"Koudenhorn","ref:IFOPT":"NL:Q:55004250","_quaycode":"NL:Q:55004250","_town":"Haarlem","_status":"available","_mode":"bus","_direction":0,"_visuallyAccessible":false,"_disabledAccessible":true,"geojson_lng":4.641523138209889,"geojson_lat":52.38364809821442},"geometry":{"type":"Point","coordinates":[4.641523138209889,52.38364809821442]}},{"type":"Feature","properties":{"highway":"bus_stop","public_transport":"platform","name":"Velserstraat","ref:IFOPT":"NL:Q:55101040","_quaycode":"NL:Q:55101040","_town":"Haarlem","_status":"available","_mode":"bus","_direction":82,"_visuallyAccessible":false,"_disabledAccessible":true,"geojson_lng":4.631958254619662,"geojson_lat":52.392431548089505},"geometry":{"type":"Point","coordinates":[4.631958254619662,52.392431548089505]}},{"type":"Feature","properties":{"highway":"bus_stop","public_transport":"platform","name":"Spaarnhovenstraat","ref:IFOPT":"NL:Q:55100120","_quaycode":"NL:Q:55100120","_town":"Haarlem","_status":"available","_mode":"bus","_direction":26,"_visuallyAccessible":true,"_disabledAccessible":false,"geojson_lng":4.648227531670788,"geojson_lat":52.4044071240803},"geometry":{"type":"Point","coordinates":[4.648227531670788,52.4044071240803]}},{"type":"Feature","properties":{"highway":"bus_stop","public_transport":"platform","name":"Scheldestraat","ref:IFOPT":"NL:Q:56200240","_quaycode":"NL:Q:56200240","_town":"IJmuiden","_status":"available","_mode":"bus","_direction":264,"_visuallyAccessible":true,"_disabledAccessible":true,"geojson_lng":4.611442476110433,"geojson_lat":52.45743371215994},"geometry":{"type":"Point","coordinates":[4.611442476110433,52.45743371215994]}},{"type":"Feature","properties":{"highway":"bus_stop","public_transport":"platform","name":"Zaanenlaan","ref:IFOPT":"NL:Q:55100150","_quaycode":"NL:Q:55100150","_town":"Haarlem","_status":"available","_mode":"bus","_direction":209,"_visuallyAccessible":true,"_disabledAccessible":true,"geojson_lng":4.644648852718871,"geojson_lat":52.40048402193889},"geometry":{"type":"Point","coordinates":[4.644648852718871,52.40048402193889]}},{"type":"Feature","properties":{"highway":"bus_stop","public_transport":"platform","name":"Schotersingel","ref:IFOPT":"NL:Q:55101020","_quaycode":"NL:Q:55101020","_town":"Haarlem","_status":"available","_mode":"bus","_direction":14,"_visuallyAccessible":false,"_disabledAccessible":true,"geojson_lng":4.631047883834197,"geojson_lat":52.38981925618651},"geometry":{"type":"Point","coordinates":[4.631047883834197,52.38981925618651]}},{"type":"Feature","properties":{"highway":"bus_stop","public_transport":"platform","name":"Delftplein/Spaarne Gasthuis","ref:IFOPT":"NL:Q:55100030","_quaycode":"NL:Q:55100030","_town":"Haarlem","_status":"available","_mode":"bus","_direction":170,"_visuallyAccessible":true,"_disabledAccessible":true,"geojson_lng":4.648294376500772,"geojson_lat":52.42330891329278},"geometry":{"type":"Point","coordinates":[4.648294376500772,52.42330891329278]}},{"type":"Feature","properties":{"highway":"bus_stop","public_transport":"platform","name":"M. Philipsplantsoen","ref:IFOPT":"NL:Q:55101030","_quaycode":"NL:Q:55101030","_town":"Haarlem","_status":"available","_mode":"bus","_direction":195,"_visuallyAccessible":false,"_disabledAccessible":true,"geojson_lng":4.643901535205701,"geojson_lat":52.41787976621733},"geometry":{"type":"Point","coordinates":[4.643901535205701,52.41787976621733]}},{"type":"Feature","properties":{"highway":"bus_stop","public_transport":"platform","name":"Florapad","ref:IFOPT":"NL:Q:56320120","_quaycode":"NL:Q:56320120","_town":"Velserbroek","_status":"available","_mode":"bus","_direction":58,"_visuallyAccessible":true,"_disabledAccessible":false,"geojson_lng":4.658310917936932,"geojson_lat":52.43105550699436},"geometry":{"type":"Point","coordinates":[4.658310917936932,52.43105550699436]}},{"type":"Feature","properties":{"highway":"bus_stop","public_transport":"platform","name":"Boterplein","ref:IFOPT":"NL:Q:55000520","_quaycode":"NL:Q:55000520","_town":"Haarlem","_status":"available","_mode":"bus","_direction":211,"_visuallyAccessible":true,"_disabledAccessible":true,"geojson_lng":4.627261026959072,"geojson_lat":52.381058791095924},"geometry":{"type":"Point","coordinates":[4.627261026959072,52.381058791095924]}},{"type":"Feature","properties":{"highway":"bus_stop","public_transport":"platform","name":"Gibraltarstraat","ref:IFOPT":"NL:Q:55003150","_quaycode":"NL:Q:55003150","_town":"Haarlem","_status":"available","_mode":"bus","_direction":42,"_visuallyAccessible":false,"_disabledAccessible":true,"geojson_lng":4.613054372969638,"geojson_lat":52.37791086895317},"geometry":{"type":"Point","coordinates":[4.613054372969638,52.37791086895317]}},{"type":"Feature","properties":{"highway":"bus_stop","public_transport":"platform","name":"Brouwerskolkweg","ref:IFOPT":"NL:Q:55005350","_quaycode":"NL:Q:55005350","_town":"Overveen","_status":"available","_mode":"bus","_direction":222,"_visuallyAccessible":false,"_disabledAccessible":false,"geojson_lng":4.598608802835623,"geojson_lat":52.39243886850084},"geometry":{"type":"Point","coordinates":[4.598608802835623,52.39243886850084]}},{"type":"Feature","properties":{"highway":"bus_stop","public_transport":"platform","name":"Centrum/Verwulft","ref:IFOPT":"NL:Q:55000610","_quaycode":"NL:Q:55000610","_town":"Haarlem","_status":"available","_mode":"bus","_direction":336,"_visuallyAccessible":true,"_disabledAccessible":true,"geojson_lng":4.63255974329398,"geojson_lat":52.380400612978896},"geometry":{"type":"Point","coordinates":[4.63255974329398,52.380400612978896]}},{"type":"Feature","properties":{"highway":"bus_stop","public_transport":"platform","name":"Station","ref:IFOPT":"NL:Q:55000420","_quaycode":"NL:Q:55000420","_town":"Haarlem","_status":"available","_mode":"bus","_direction":10,"_visuallyAccessible":false,"_disabledAccessible":true,"geojson_lng":4.637787328750113,"geojson_lat":52.387417396860634},"geometry":{"type":"Point","coordinates":[4.637787328750113,52.387417396860634]}},{"type":"Feature","properties":{"highway":"bus_stop","public_transport":"platform","name":"Station Spaarnwoude","ref:IFOPT":"NL:Q:55000310","_quaycode":"NL:Q:55000310","_town":"Haarlem","_status":"available","_mode":"bus","_direction":338,"_visuallyAccessible":false,"_disabledAccessible":false,"geojson_lng":4.671051055490648,"geojson_lat":52.38338097176542},"geometry":{"type":"Point","coordinates":[4.671051055490648,52.38338097176542]}},{"type":"Feature","properties":{"highway":"bus_stop","public_transport":"platform","name":"Station","ref:IFOPT":"NL:Q:55000226","_quaycode":"NL:Q:55000226","_town":"Haarlem","_status":"available","_mode":"bus","_direction":10,"_visuallyAccessible":false,"_disabledAccessible":true,"geojson_lng":4.638199201928424,"geojson_lat":52.38738405122808},"geometry":{"type":"Point","coordinates":[4.638199201928424,52.38738405122808]}},{"type":"Feature","properties":{"highway":"bus_stop","public_transport":"platform","name":"Centrum/Verwulft","ref:IFOPT":"NL:Q:55000600","_quaycode":"NL:Q:55000600","_town":"Haarlem","_status":"available","_mode":"bus","_direction":154,"_visuallyAccessible":true,"_disabledAccessible":true,"geojson_lng":4.632582229318755,"geojson_lat":52.37994237389925},"geometry":{"type":"Point","coordinates":[4.632582229318755,52.37994237389925]}},{"type":"Feature","properties":{"highway":"bus_stop","public_transport":"platform","name":"Delftplein/Spaarne Gasthuis","ref:IFOPT":"NL:Q:55100220","_quaycode":"NL:Q:55100220","_town":"Haarlem","_status":"available","_mode":"bus","_direction":346,"_visuallyAccessible":true,"_disabledAccessible":true,"geojson_lng":4.64842607678248,"geojson_lat":52.42334568571699},"geometry":{"type":"Point","coordinates":[4.64842607678248,52.42334568571699]}},{"type":"Feature","properties":{"highway":"bus_stop","public_transport":"platform","name":"Theemsplein","ref:IFOPT":"NL:Q:55003100","_quaycode":"NL:Q:55003100","_town":"Haarlem","_status":"available","_mode":"bus","_direction":192,"_visuallyAccessible":false,"_disabledAccessible":true,"geojson_lng":4.61137618374893,"geojson_lat":52.37561695363859},"geometry":{"type":"Point","coordinates":[4.61137618374893,52.37561695363859]}},{"type":"Feature","properties":{"highway":"bus_stop","public_transport":"platform","name":"Gibraltarstraat","ref:IFOPT":"NL:Q:55003080","_quaycode":"NL:Q:55003080","_town":"Haarlem","_status":"available","_mode":"bus","_direction":221,"_visuallyAccessible":false,"_disabledAccessible":true,"geojson_lng":4.612634948614961,"geojson_lat":52.37753962138257},"geometry":{"type":"Point","coordinates":[4.612634948614961,52.37753962138257]}},{"type":"Feature","properties":{"highway":"bus_stop","public_transport":"platform","name":"Theemsplein","ref:IFOPT":"NL:Q:55003130","_quaycode":"NL:Q:55003130","_town":"Haarlem","_status":"available","_mode":"bus","_direction":23,"_visuallyAccessible":false,"_disabledAccessible":true,"geojson_lng":4.6115644046539,"geojson_lat":52.37577098148095},"geometry":{"type":"Point","coordinates":[4.6115644046539,52.37577098148095]}},{"type":"Feature","properties":{"highway":"bus_stop","public_transport":"platform","name":"Vijver","ref:IFOPT":"NL:Q:55003040","_quaycode":"NL:Q:55003040","_town":"Haarlem","_status":"available","_mode":"bus","_direction":103,"_visuallyAccessible":false,"_disabledAccessible":true,"geojson_lng":4.609054019273546,"geojson_lat":52.381578677060034},"geometry":{"type":"Point","coordinates":[4.609054019273546,52.381578677060034]}},{"type":"Feature","properties":{"highway":"bus_stop","public_transport":"platform","name":"de Ruijterweg","ref:IFOPT":"NL:Q:55003060","_quaycode":"NL:Q:55003060","_town":"Haarlem","_status":"available","_mode":"bus","_direction":226,"_visuallyAccessible":false,"_disabledAccessible":true,"geojson_lng":4.614738371644409,"geojson_lat":52.37988123187925},"geometry":{"type":"Point","coordinates":[4.614738371644409,52.37988123187925]}},{"type":"Feature","properties":{"highway":"bus_stop","public_transport":"platform","name":"IKEA Waarderpolder","ref:IFOPT":"NL:Q:55000360","_quaycode":"NL:Q:55000360","_town":"Haarlem","_status":"available","_mode":"bus","_direction":350,"_visuallyAccessible":false,"_disabledAccessible":true,"geojson_lng":4.671043387043166,"geojson_lat":52.38476505413215},"geometry":{"type":"Point","coordinates":[4.671043387043166,52.38476505413215]}},{"type":"Feature","properties":{"highway":"bus_stop","public_transport":"platform","name":"Westergracht","ref:IFOPT":"NL:Q:55003210","_quaycode":"NL:Q:55003210","_town":"Haarlem","_status":"available","_mode":"bus","_direction":101,"_visuallyAccessible":false,"_disabledAccessible":true,"geojson_lng":4.619758135815812,"geojson_lat":52.37836795327388},"geometry":{"type":"Point","coordinates":[4.619758135815812,52.37836795327388]}},{"type":"Feature","properties":{"highway":"bus_stop","public_transport":"platform","name":"de Ruijterweg","ref:IFOPT":"NL:Q:55003170","_quaycode":"NL:Q:55003170","_town":"Haarlem","_status":"available","_mode":"bus","_direction":42,"_visuallyAccessible":false,"_disabledAccessible":true,"geojson_lng":4.614683543958677,"geojson_lat":52.379656176488965},"geometry":{"type":"Point","coordinates":[4.614683543958677,52.379656176488965]}},{"type":"Feature","properties":{"highway":"bus_stop","public_transport":"platform","name":"Station","ref:IFOPT":"NL:Q:56302553","_quaycode":"NL:Q:56302553","_town":"Beverwijk","_status":"available","_mode":"bus","_direction":58,"_visuallyAccessible":true,"_disabledAccessible":true,"geojson_lng":4.654446849644355,"geojson_lat":52.477947632478084},"geometry":{"type":"Point","coordinates":[4.654446849644355,52.477947632478084]}},{"type":"Feature","properties":{"highway":"bus_stop","public_transport":"platform","name":"Station","ref:IFOPT":"NL:Q:56302551","_quaycode":"NL:Q:56302551","_town":"Beverwijk","_status":"available","_mode":"bus","_direction":147,"_visuallyAccessible":true,"_disabledAccessible":true,"geojson_lng":4.654125284799575,"geojson_lat":52.47781082984238},"geometry":{"type":"Point","coordinates":[4.654125284799575,52.47781082984238]}},{"type":"Feature","properties":{"highway":"bus_stop","public_transport":"platform","name":"Station","ref:IFOPT":"NL:Q:56302550","_quaycode":"NL:Q:56302550","_town":"Beverwijk","_status":"available","_mode":"bus","_direction":247,"_visuallyAccessible":true,"_disabledAccessible":true,"geojson_lng":4.654200663351913,"geojson_lat":52.47770344354389},"geometry":{"type":"Point","coordinates":[4.654200663351913,52.47770344354389]}},{"type":"Feature","properties":{"highway":"bus_stop","public_transport":"platform","name":"Reviusstraat","ref:IFOPT":"NL:Q:55100010","_quaycode":"NL:Q:55100010","_town":"Haarlem","_status":"available","_mode":"bus","_direction":162,"_visuallyAccessible":true,"_disabledAccessible":true,"geojson_lng":4.647586402669205,"geojson_lat":52.420805887971405},"geometry":{"type":"Point","coordinates":[4.647586402669205,52.420805887971405]}},{"type":"Feature","properties":{"highway":"bus_stop","public_transport":"platform","name":"Kloosterstraat","ref:IFOPT":"NL:Q:55100060","_quaycode":"NL:Q:55100060","_town":"Haarlem","_status":"available","_mode":"bus","_direction":25,"_visuallyAccessible":false,"_disabledAccessible":true,"geojson_lng":4.6411772398908555,"geojson_lat":52.394602127977144},"geometry":{"type":"Point","coordinates":[4.6411772398908555,52.394602127977144]}},{"type":"Feature","properties":{"highway":"bus_stop","public_transport":"platform","name":"Winkelcentrum Marsmanplein","ref:IFOPT":"NL:Q:55100070","_quaycode":"NL:Q:55100070","_town":"Haarlem","_status":"available","_mode":"bus","_direction":160,"_visuallyAccessible":true,"_disabledAccessible":true,"geojson_lng":4.649093421543793,"geojson_lat":52.41682470104647},"geometry":{"type":"Point","coordinates":[4.649093421543793,52.41682470104647]}},{"type":"Feature","properties":{"highway":"bus_stop","public_transport":"platform","name":"Julianapark","ref:IFOPT":"NL:Q:55100080","_quaycode":"NL:Q:55100080","_town":"Haarlem","_status":"available","_mode":"bus","_direction":51,"_visuallyAccessible":true,"_disabledAccessible":true,"geojson_lng":4.643151266414595,"geojson_lat":52.39778725778126},"geometry":{"type":"Point","coordinates":[4.643151266414595,52.39778725778126]}},{"type":"Feature","properties":{"highway":"bus_stop","public_transport":"platform","name":"Vergierdeweg","ref:IFOPT":"NL:Q:55100090","_quaycode":"NL:Q:55100090","_town":"Haarlem","_status":"available","_mode":"bus","_direction":169,"_visuallyAccessible":true,"_disabledAccessible":true,"geojson_lng":4.650969463654782,"geojson_lat":52.41184813939177},"geometry":{"type":"Point","coordinates":[4.650969463654782,52.41184813939177]}},{"type":"Feature","properties":{"highway":"bus_stop","public_transport":"platform","name":"Frans Halsplein","ref:IFOPT":"NL:Q:55100040","_quaycode":"NL:Q:55100040","_town":"Haarlem","_status":"available","_mode":"bus","_direction":78,"_visuallyAccessible":true,"_disabledAccessible":false,"geojson_lng":4.640473895824098,"geojson_lat":52.39013072866642},"geometry":{"type":"Point","coordinates":[4.640473895824098,52.39013072866642]}},{"type":"Feature","properties":{"highway":"bus_stop","public_transport":"platform","name":"Spaarnhovenstraat","ref:IFOPT":"NL:Q:55100130","_quaycode":"NL:Q:55100130","_town":"Haarlem","_status":"available","_mode":"bus","_direction":222,"_visuallyAccessible":false,"_disabledAccessible":true,"geojson_lng":4.647577265064553,"geojson_lat":52.40374695370434},"geometry":{"type":"Point","coordinates":[4.647577265064553,52.40374695370434]}},{"type":"Feature","properties":{"highway":"bus_stop","public_transport":"platform","name":"Reviusstraat","ref:IFOPT":"NL:Q:55100020","_quaycode":"NL:Q:55100020","_town":"Haarlem","_status":"available","_mode":"bus","_direction":344,"_visuallyAccessible":true,"_disabledAccessible":true,"geojson_lng":4.647698593792097,"geojson_lat":52.42113014910017},"geometry":{"type":"Point","coordinates":[4.647698593792097,52.42113014910017]}},{"type":"Feature","properties":{"highway":"bus_stop","public_transport":"platform","name":"Kloosterstraat","ref:IFOPT":"NL:Q:55100190","_quaycode":"NL:Q:55100190","_town":"Haarlem","_status":"available","_mode":"bus","_direction":210,"_visuallyAccessible":false,"_disabledAccessible":true,"geojson_lng":4.6401981311805365,"geojson_lat":52.3934185469392},"geometry":{"type":"Point","coordinates":[4.6401981311805365,52.3934185469392]}},{"type":"Feature","properties":{"highway":"bus_stop","public_transport":"platform","name":"Winkelcentrum Marsmanplein","ref:IFOPT":"NL:Q:55100210","_quaycode":"NL:Q:55100210","_town":"Haarlem","_status":"available","_mode":"bus","_direction":288,"_visuallyAccessible":false,"_disabledAccessible":true,"geojson_lng":4.650213000181055,"geojson_lat":52.416678878171844},"geometry":{"type":"Point","coordinates":[4.650213000181055,52.416678878171844]}},{"type":"Feature","properties":{"highway":"bus_stop","public_transport":"platform","name":"Vergierdeweg","ref:IFOPT":"NL:Q:55100160","_quaycode":"NL:Q:55100160","_town":"Haarlem","_status":"available","_mode":"bus","_direction":349,"_visuallyAccessible":true,"_disabledAccessible":true,"geojson_lng":4.651023768053616,"geojson_lat":52.41211811131421},"geometry":{"type":"Point","coordinates":[4.651023768053616,52.41211811131421]}},{"type":"Feature","properties":{"highway":"bus_stop","public_transport":"platform","name":"Station","ref:IFOPT":"NL:Q:55100242","_quaycode":"NL:Q:55100242","_town":"Haarlem","_status":"available","_mode":"bus","_direction":10,"_visuallyAccessible":false,"_disabledAccessible":true,"geojson_lng":4.637699048426317,"geojson_lat":52.387425826011125},"geometry":{"type":"Point","coordinates":[4.637699048426317,52.387425826011125]}},{"type":"Feature","properties":{"highway":"bus_stop","public_transport":"platform","name":"Wijkermeerweg","ref:IFOPT":"NL:Q:56302010","_quaycode":"NL:Q:56302010","_town":"Beverwijk","_status":"available","_mode":"bus","_direction":126,"_visuallyAccessible":false,"_disabledAccessible":false,"geojson_lng":4.665411912822867,"geojson_lat":52.47801487711827},"geometry":{"type":"Point","coordinates":[4.665411912822867,52.47801487711827]}},{"type":"Feature","properties":{"highway":"bus_stop","public_transport":"platform","name":"Boterplein","ref:IFOPT":"NL:Q:55000510","_quaycode":"NL:Q:55000510","_town":"Haarlem","_status":"available","_mode":"bus","_direction":36,"_visuallyAccessible":false,"_disabledAccessible":false,"geojson_lng":4.626787334212463,"geojson_lat":52.38041760942657},"geometry":{"type":"Point","coordinates":[4.626787334212463,52.38041760942657]}},{"type":"Feature","properties":{"highway":"bus_stop","public_transport":"platform","name":"Julianapark","ref:IFOPT":"NL:Q:55100170","_quaycode":"NL:Q:55100170","_town":"Haarlem","_status":"available","_mode":"bus","_direction":229,"_visuallyAccessible":false,"_disabledAccessible":true,"geojson_lng":4.642465446889219,"geojson_lat":52.397504324002526},"geometry":{"type":"Point","coordinates":[4.642465446889219,52.397504324002526]}},{"type":"Feature","properties":{"highway":"bus_stop","public_transport":"platform","name":"Litslaan","ref:IFOPT":"NL:Q:55100340","_quaycode":"NL:Q:55100340","_town":"Santpoort-Zuid","_status":"available","_mode":"bus","_direction":213,"_visuallyAccessible":false,"_disabledAccessible":false,"geojson_lng":4.630448332380617,"geojson_lat":52.41375007672078},"geometry":{"type":"Point","coordinates":[4.630448332380617,52.41375007672078]}},{"type":"Feature","properties":{"highway":"bus_stop","public_transport":"platform","name":"Rollandslaan","ref:IFOPT":"NL:Q:55004010","_quaycode":"NL:Q:55004010","_town":"Haarlem","_status":"available","_mode":"bus","_direction":21,"_visuallyAccessible":false,"_disabledAccessible":true,"geojson_lng":4.603939152178318,"geojson_lat":52.38344140157689},"geometry":{"type":"Point","coordinates":[4.603939152178318,52.38344140157689]}},{"type":"Feature","properties":{"highway":"bus_stop","public_transport":"platform","name":"Rusburglaan","ref:IFOPT":"NL:Q:55100360","_quaycode":"NL:Q:55100360","_town":"Santpoort-Zuid","_status":"available","_mode":"bus","_direction":355,"_visuallyAccessible":false,"_disabledAccessible":false,"geojson_lng":4.630869066138355,"geojson_lat":52.416655831633534},"geometry":{"type":"Point","coordinates":[4.630869066138355,52.416655831633534]}},{"type":"Feature","properties":{"highway":"bus_stop","public_transport":"platform","name":"Rusburglaan","ref:IFOPT":"NL:Q:55100350","_quaycode":"NL:Q:55100350","_town":"Santpoort-Zuid","_status":"available","_mode":"bus","_direction":175,"_visuallyAccessible":false,"_disabledAccessible":false,"geojson_lng":4.630968760374036,"geojson_lat":52.41598238119387},"geometry":{"type":"Point","coordinates":[4.630968760374036,52.41598238119387]}},{"type":"Feature","properties":{"highway":"bus_stop","public_transport":"platform","name":"Minahassastraat","ref:IFOPT":"NL:Q:55100110","_quaycode":"NL:Q:55100110","_town":"Haarlem","_status":"available","_mode":"bus","_direction":207,"_visuallyAccessible":false,"_disabledAccessible":true,"geojson_lng":4.6503297170022275,"geojson_lat":52.40877931564752},"geometry":{"type":"Point","coordinates":[4.6503297170022275,52.40877931564752]}},{"type":"Feature","properties":{"highway":"bus_stop","public_transport":"platform","name":"Station","ref:IFOPT":"NL:Q:55000250","_quaycode":"NL:Q:55000250","_town":"Haarlem","_status":"available","_mode":"bus","_direction":10,"_visuallyAccessible":false,"_disabledAccessible":true,"geojson_lng":4.637993265415854,"geojson_lat":52.38740072422363},"geometry":{"type":"Point","coordinates":[4.637993265415854,52.38740072422363]}},{"type":"Feature","properties":{"highway":"bus_stop","public_transport":"platform","name":"Conollyweg","ref:IFOPT":"NL:Q:55100380","_quaycode":"NL:Q:55100380","_town":"Bloemendaal","_status":"available","_mode":"bus","_direction":128,"_visuallyAccessible":false,"_disabledAccessible":false,"geojson_lng":4.6252222520422475,"geojson_lat":52.4210596332166},"geometry":{"type":"Point","coordinates":[4.6252222520422475,52.4210596332166]}},{"type":"Feature","properties":{"highway":"bus_stop","public_transport":"platform","name":"J.H. Leopoldstraat","ref:IFOPT":"NL:Q:55101070","_quaycode":"NL:Q:55101070","_town":"Haarlem","_status":"available","_mode":"bus","_direction":132,"_visuallyAccessible":false,"_disabledAccessible":true,"geojson_lng":4.640955440184372,"geojson_lat":52.4103923679502},"geometry":{"type":"Point","coordinates":[4.640955440184372,52.4103923679502]}},{"type":"Feature","properties":{"highway":"bus_stop","public_transport":"platform","name":"Wijkermeerweg","ref:IFOPT":"NL:Q:56303040","_quaycode":"NL:Q:56303040","_town":"Beverwijk","_status":"available","_mode":"bus","_direction":306,"_visuallyAccessible":false,"_disabledAccessible":false,"geojson_lng":4.664531198409431,"geojson_lat":52.47876447826469},"geometry":{"type":"Point","coordinates":[4.664531198409431,52.47876447826469]}},{"type":"Feature","properties":{"highway":"bus_stop","public_transport":"platform","name":"Stayokay","ref:IFOPT":"NL:Q:55101010","_quaycode":"NL:Q:55101010","_town":"Haarlem","_status":"available","_mode":"bus","_direction":221,"_visuallyAccessible":false,"_disabledAccessible":true,"geojson_lng":4.639180961532553,"geojson_lat":52.413643756912165},"geometry":{"type":"Point","coordinates":[4.639180961532553,52.413643756912165]}},{"type":"Feature","properties":{"highway":"bus_stop","public_transport":"platform","name":"Randweg","ref:IFOPT":"NL:Q:56303050","_quaycode":"NL:Q:56303050","_town":"Beverwijk","_status":"available","_mode":"bus","_direction":120,"_visuallyAccessible":true,"_disabledAccessible":true,"geojson_lng":4.67082963567442,"geojson_lat":52.474326830265234},"geometry":{"type":"Point","coordinates":[4.67082963567442,52.474326830265234]}},{"type":"Feature","properties":{"highway":"bus_stop","public_transport":"platform","name":"Randweg","ref:IFOPT":"NL:Q:56303020","_quaycode":"NL:Q:56303020","_town":"Beverwijk","_status":"available","_mode":"bus","_direction":300,"_visuallyAccessible":true,"_disabledAccessible":true,"geojson_lng":4.670841295246395,"geojson_lat":52.47451564194374},"geometry":{"type":"Point","coordinates":[4.670841295246395,52.47451564194374]}},{"type":"Feature","properties":{"highway":"bus_stop","public_transport":"platform","name":"Conollyweg","ref:IFOPT":"NL:Q:55100370","_quaycode":"NL:Q:55100370","_town":"Bloemendaal","_status":"available","_mode":"bus","_direction":306,"_visuallyAccessible":false,"_disabledAccessible":false,"geojson_lng":4.62551917250917,"geojson_lat":52.420890773818144},"geometry":{"type":"Point","coordinates":[4.62551917250917,52.420890773818144]}},{"type":"Feature","properties":{"highway":"bus_stop","public_transport":"platform","name":"Duinoordstraat","ref:IFOPT":"NL:Q:55101080","_quaycode":"NL:Q:55101080","_town":"Haarlem","_status":"available","_mode":"bus","_direction":37,"_visuallyAccessible":false,"_disabledAccessible":false,"geojson_lng":4.6346358456275345,"geojson_lat":52.39740090508697},"geometry":{"type":"Point","coordinates":[4.6346358456275345,52.39740090508697]}},{"type":"Feature","properties":{"highway":"bus_stop","public_transport":"platform","name":"Stuyvesantplein","ref:IFOPT":"NL:Q:55101100","_quaycode":"NL:Q:55101100","_town":"Haarlem","_status":"available","_mode":"bus","_direction":41,"_visuallyAccessible":true,"_disabledAccessible":true,"geojson_lng":4.633010647511376,"geojson_lat":52.400518340709844},"geometry":{"type":"Point","coordinates":[4.633010647511376,52.400518340709844]}},{"type":"Feature","properties":{"highway":"bus_stop","public_transport":"platform","name":"Centrum","ref:IFOPT":"NL:Q:56320150","_quaycode":"NL:Q:56320150","_town":"Velserbroek","_status":"available","_mode":"bus","_direction":239,"_visuallyAccessible":true,"_disabledAccessible":true,"geojson_lng":4.657344245514311,"geojson_lat":52.43439300765649},"geometry":{"type":"Point","coordinates":[4.657344245514311,52.43439300765649]}},{"type":"Feature","properties":{"highway":"bus_stop","public_transport":"platform","name":"Vromaadweg","ref:IFOPT":"NL:Q:56320162","_quaycode":"NL:Q:56320162","_town":"Velserbroek","_status":"available","_mode":"bus","_direction":308,"_visuallyAccessible":true,"_disabledAccessible":true,"geojson_lng":4.662002837891984,"geojson_lat":52.4336756227357},"geometry":{"type":"Point","coordinates":[4.662002837891984,52.4336756227357]}},{"type":"Feature","properties":{"highway":"bus_stop","public_transport":"platform","name":"Dammersboog","ref:IFOPT":"NL:Q:56320132","_quaycode":"NL:Q:56320132","_town":"Velserbroek","_status":"available","_mode":"bus","_direction":248,"_visuallyAccessible":false,"_disabledAccessible":true,"geojson_lng":4.665287966621814,"geojson_lat":52.42970511272852},"geometry":{"type":"Point","coordinates":[4.665287966621814,52.42970511272852]}},{"type":"Feature","properties":{"highway":"bus_stop","public_transport":"platform","name":"Dammersboog","ref:IFOPT":"NL:Q:56320122","_quaycode":"NL:Q:56320122","_town":"Velserbroek","_status":"available","_mode":"bus","_direction":68,"_visuallyAccessible":true,"_disabledAccessible":true,"geojson_lng":4.6653036944702935,"geojson_lat":52.429642294160445},"geometry":{"type":"Point","coordinates":[4.6653036944702935,52.429642294160445]}},{"type":"Feature","properties":{"highway":"bus_stop","public_transport":"platform","name":"Florapad","ref:IFOPT":"NL:Q:56320130","_quaycode":"NL:Q:56320130","_town":"Velserbroek","_status":"available","_mode":"bus","_direction":238,"_visuallyAccessible":true,"_disabledAccessible":false,"geojson_lng":4.657172265653286,"geojson_lat":52.430554170203706},"geometry":{"type":"Point","coordinates":[4.657172265653286,52.430554170203706]}},{"type":"Feature","properties":{"highway":"bus_stop","public_transport":"platform","name":"Centrum","ref:IFOPT":"NL:Q:56320140","_quaycode":"NL:Q:56320140","_town":"Velserbroek","_status":"available","_mode":"bus","_direction":61,"_visuallyAccessible":true,"_disabledAccessible":true,"geojson_lng":4.658351699169766,"geojson_lat":52.434830620773724},"geometry":{"type":"Point","coordinates":[4.658351699169766,52.434830620773724]}},{"type":"Feature","properties":{"highway":"bus_stop","public_transport":"platform","name":"Marktplein","ref:IFOPT":"NL:Q:56200220","_quaycode":"NL:Q:56200220","_town":"IJmuiden","_status":"available","_mode":"bus","_direction":259,"_visuallyAccessible":true,"_disabledAccessible":true,"geojson_lng":4.616168220347818,"geojson_lat":52.45811166079921},"geometry":{"type":"Point","coordinates":[4.616168220347818,52.45811166079921]}},{"type":"Feature","properties":{"highway":"bus_stop","public_transport":"platform","name":"Zeeweg","ref:IFOPT":"NL:Q:56200210","_quaycode":"NL:Q:56200210","_town":"IJmuiden","_status":"available","_mode":"bus","_direction":153,"_visuallyAccessible":true,"_disabledAccessible":true,"geojson_lng":4.627369288609355,"geojson_lat":52.45614376192887},"geometry":{"type":"Point","coordinates":[4.627369288609355,52.45614376192887]}},{"type":"Feature","properties":{"highway":"bus_stop","public_transport":"platform","name":"Velserduinweg","ref:IFOPT":"NL:Q:56200200","_quaycode":"NL:Q:56200200","_town":"IJmuiden","_status":"available","_mode":"bus","_direction":260,"_visuallyAccessible":true,"_disabledAccessible":true,"geojson_lng":4.620554806536223,"geojson_lat":52.45884115401564},"geometry":{"type":"Point","coordinates":[4.620554806536223,52.45884115401564]}},{"type":"Feature","properties":{"highway":"bus_stop","public_transport":"platform","name":"Dennekoplaan","ref:IFOPT":"NL:Q:56200011","_quaycode":"NL:Q:56200011","_town":"IJmuiden","_status":"available","_mode":"bus","_direction":224,"_visuallyAccessible":true,"_disabledAccessible":true,"geojson_lng":4.589754122117109,"geojson_lat":52.449353582757695},"geometry":{"type":"Point","coordinates":[4.589754122117109,52.449353582757695]}},{"type":"Feature","properties":{"highway":"bus_stop","public_transport":"platform","name":"Zwaanstraat","ref:IFOPT":"NL:Q:56200090","_quaycode":"NL:Q:56200090","_town":"IJmuiden","_status":"available","_mode":"bus","_direction":225,"_visuallyAccessible":true,"_disabledAccessible":true,"geojson_lng":4.601370675125778,"geojson_lat":52.45540804143909},"geometry":{"type":"Point","coordinates":[4.601370675125778,52.45540804143909]}},{"type":"Feature","properties":{"highway":"bus_stop","public_transport":"platform","name":"Waarderweg","ref:IFOPT":"NL:Q:55008830","_quaycode":"NL:Q:55008830","_town":"Haarlem","_status":"available","_mode":"bus","_direction":271,"_visuallyAccessible":false,"_disabledAccessible":false,"geojson_lng":4.661823815991273,"geojson_lat":52.397031270700815},"geometry":{"type":"Point","coordinates":[4.661823815991273,52.397031270700815]}},{"type":"Feature","properties":{"highway":"bus_stop","public_transport":"platform","name":"Zwaanstraat","ref:IFOPT":"NL:Q:56200280","_quaycode":"NL:Q:56200280","_town":"IJmuiden","_status":"available","_mode":"bus","_direction":74,"_visuallyAccessible":true,"_disabledAccessible":false,"geojson_lng":4.602337584724977,"geojson_lat":52.45563914152682},"geometry":{"type":"Point","coordinates":[4.602337584724977,52.45563914152682]}},{"type":"Feature","properties":{"highway":"bus_stop","public_transport":"platform","name":"Rotonde Stadspark","ref:IFOPT":"NL:Q:56200320","_quaycode":"NL:Q:56200320","_town":"IJmuiden","_status":"available","_mode":"bus","_direction":83,"_visuallyAccessible":true,"_disabledAccessible":true,"geojson_lng":4.606565327596546,"geojson_lat":52.45700623499611},"geometry":{"type":"Point","coordinates":[4.606565327596546,52.45700623499611]}},{"type":"Feature","properties":{"highway":"bus_stop","public_transport":"platform","name":"Minahassastraat","ref:IFOPT":"NL:Q:55100140","_quaycode":"NL:Q:55100140","_town":"Haarlem","_status":"available","_mode":"bus","_direction":27,"_visuallyAccessible":true,"_disabledAccessible":false,"geojson_lng":4.650678068658785,"geojson_lat":52.40904212886159},"geometry":{"type":"Point","coordinates":[4.650678068658785,52.40904212886159]}},{"type":"Feature","properties":{"highway":"bus_stop","public_transport":"platform","name":"Badweg","ref:IFOPT":"NL:Q:56200360","_quaycode":"NL:Q:56200360","_town":"IJmuiden","_status":"available","_mode":"bus","_direction":300,"_visuallyAccessible":false,"_disabledAccessible":false,"geojson_lng":4.5686110716265995,"geojson_lat":52.457541156258294},"geometry":{"type":"Point","coordinates":[4.5686110716265995,52.457541156258294]}},{"type":"Feature","properties":{"highway":"bus_stop","public_transport":"platform","name":"Station Zuid","ref:IFOPT":"NL:Q:55100260","_quaycode":"NL:Q:55100260","_town":"Santpoort-Zuid","_status":"available","_mode":"bus","_direction":0,"_visuallyAccessible":false,"_disabledAccessible":false,"geojson_lng":4.630910450108513,"geojson_lat":52.41939738137986},"geometry":{"type":"Point","coordinates":[4.630910450108513,52.41939738137986]}},{"type":"Feature","properties":{"highway":"bus_stop","public_transport":"platform","name":"Zeewijkplein","ref:IFOPT":"NL:Q:56200380","_quaycode":"NL:Q:56200380","_town":"IJmuiden","_status":"available","_mode":"bus","_direction":198,"_visuallyAccessible":true,"_disabledAccessible":true,"geojson_lng":4.595748600428929,"geojson_lat":52.44976225942566},"geometry":{"type":"Point","coordinates":[4.595748600428929,52.44976225942566]}},{"type":"Feature","properties":{"highway":"bus_stop","public_transport":"platform","name":"Orionweg","ref:IFOPT":"NL:Q:56200410","_quaycode":"NL:Q:56200410","_town":"IJmuiden","_status":"available","_mode":"bus","_direction":200,"_visuallyAccessible":true,"_disabledAccessible":true,"geojson_lng":4.593657404133751,"geojson_lat":52.45317262703751},"geometry":{"type":"Point","coordinates":[4.593657404133751,52.45317262703751]}},{"type":"Feature","properties":{"highway":"bus_stop","public_transport":"platform","name":"Hoofmanstraat","ref:IFOPT":"NL:Q:55004170","_quaycode":"NL:Q:55004170","_town":"Haarlem","_status":"available","_mode":"bus","_direction":107,"_visuallyAccessible":true,"_disabledAccessible":true,"geojson_lng":4.624000548798225,"geojson_lat":52.38531605671092},"geometry":{"type":"Point","coordinates":[4.624000548798225,52.38531605671092]}},{"type":"Feature","properties":{"highway":"bus_stop","public_transport":"platform","name":"Badweg","ref:IFOPT":"NL:Q:56200370","_quaycode":"NL:Q:56200370","_town":"IJmuiden","_status":"available","_mode":"bus","_direction":120,"_visuallyAccessible":true,"_disabledAccessible":true,"geojson_lng":4.56824379208851,"geojson_lat":52.457511656146046},"geometry":{"type":"Point","coordinates":[4.56824379208851,52.457511656146046]}},{"type":"Feature","properties":{"highway":"bus_stop","public_transport":"platform","name":"Loggerstraat","ref:IFOPT":"NL:Q:56200650","_quaycode":"NL:Q:56200650","_town":"IJmuiden","_status":"available","_mode":"bus","_direction":58,"_visuallyAccessible":true,"_disabledAccessible":true,"geojson_lng":4.592254196123285,"geojson_lat":52.45512256321353},"geometry":{"type":"Point","coordinates":[4.592254196123285,52.45512256321353]}},{"type":"Feature","properties":{"highway":"bus_stop","public_transport":"platform","name":"Loggerstraat","ref:IFOPT":"NL:Q:56200660","_quaycode":"NL:Q:56200660","_town":"IJmuiden","_status":"available","_mode":"bus","_direction":241,"_visuallyAccessible":true,"_disabledAccessible":true,"geojson_lng":4.592104992427988,"geojson_lat":52.45523840380168},"geometry":{"type":"Point","coordinates":[4.592104992427988,52.45523840380168]}},{"type":"Feature","properties":{"highway":"bus_stop","public_transport":"platform","name":"Orionweg","ref:IFOPT":"NL:Q:56200420","_quaycode":"NL:Q:56200420","_town":"IJmuiden","_status":"available","_mode":"bus","_direction":45,"_visuallyAccessible":true,"_disabledAccessible":true,"geojson_lng":4.5940772213540235,"geojson_lat":52.45355292379798},"geometry":{"type":"Point","coordinates":[4.5940772213540235,52.45355292379798]}},{"type":"Feature","properties":{"highway":"bus_stop","public_transport":"platform","name":"Dennekoplaan","ref:IFOPT":"NL:Q:56200510","_quaycode":"NL:Q:56200510","_town":"IJmuiden","_status":"available","_mode":"bus","_direction":44,"_visuallyAccessible":true,"_disabledAccessible":true,"geojson_lng":4.589987191175556,"geojson_lat":52.44948097973655},"geometry":{"type":"Point","coordinates":[4.589987191175556,52.44948097973655]}},{"type":"Feature","properties":{"highway":"bus_stop","public_transport":"platform","name":"Stadsschouwburg","ref:IFOPT":"NL:Q:55005550","_quaycode":"NL:Q:55005550","_town":"Haarlem","_status":"available","_mode":"bus","_direction":20,"_visuallyAccessible":false,"_disabledAccessible":false,"geojson_lng":4.626912585529574,"geojson_lat":52.37825233064835},"geometry":{"type":"Point","coordinates":[4.626912585529574,52.37825233064835]}},{"type":"Feature","properties":{"highway":"bus_stop","public_transport":"platform","name":"Briniostraat","ref:IFOPT":"NL:Q:56200760","_quaycode":"NL:Q:56200760","_town":"IJmuiden","_status":"available","_mode":"bus","_direction":79,"_visuallyAccessible":false,"_disabledAccessible":true,"geojson_lng":4.630635499253385,"geojson_lat":52.46044281842083},"geometry":{"type":"Point","coordinates":[4.630635499253385,52.46044281842083]}},{"type":"Feature","properties":{"highway":"bus_stop","public_transport":"platform","name":"Briniostraat","ref:IFOPT":"NL:Q:56200750","_quaycode":"NL:Q:56200750","_town":"IJmuiden","_status":"available","_mode":"bus","_direction":239,"_visuallyAccessible":true,"_disabledAccessible":true,"geojson_lng":4.630531283437248,"geojson_lat":52.46051405524806},"geometry":{"type":"Point","coordinates":[4.630531283437248,52.46051405524806]}},{"type":"Feature","properties":{"highway":"bus_stop","public_transport":"platform","name":"Jac. v. Looystraat","ref:IFOPT":"NL:Q:55004180","_quaycode":"NL:Q:55004180","_town":"Haarlem","_status":"available","_mode":"bus","_direction":26,"_visuallyAccessible":true,"_disabledAccessible":true,"geojson_lng":4.659416245645406,"geojson_lat":52.376326460296895},"geometry":{"type":"Point","coordinates":[4.659416245645406,52.376326460296895]}},{"type":"Feature","properties":{"highway":"bus_stop","public_transport":"platform","name":"Rollandslaan","ref:IFOPT":"NL:Q:55004440","_quaycode":"NL:Q:55004440","_town":"Haarlem","_status":"available","_mode":"bus","_direction":108,"_visuallyAccessible":false,"_disabledAccessible":true,"geojson_lng":4.604284086590965,"geojson_lat":52.38303922681657},"geometry":{"type":"Point","coordinates":[4.604284086590965,52.38303922681657]}},{"type":"Feature","properties":{"highway":"bus_stop","public_transport":"platform","name":"Ruychaverstraat","ref:IFOPT":"NL:Q:55004190","_quaycode":"NL:Q:55004190","_town":"Haarlem","_status":"available","_mode":"bus","_direction":110,"_visuallyAccessible":true,"_disabledAccessible":true,"geojson_lng":4.628315096227677,"geojson_lat":52.383833821610935},"geometry":{"type":"Point","coordinates":[4.628315096227677,52.383833821610935]}},{"type":"Feature","properties":{"highway":"bus_stop","public_transport":"platform","name":"Papentorenvest","ref:IFOPT":"NL:Q:55004200","_quaycode":"NL:Q:55004200","_town":"Haarlem","_status":"available","_mode":"bus","_direction":289,"_visuallyAccessible":true,"_disabledAccessible":true,"geojson_lng":4.64638586179421,"geojson_lat":52.38271691852149},"geometry":{"type":"Point","coordinates":[4.64638586179421,52.38271691852149]}},{"type":"Feature","properties":{"highway":"bus_stop","public_transport":"platform","name":"Prins Bernhardlaan","ref:IFOPT":"NL:Q:55007500","_quaycode":"NL:Q:55007500","_town":"Haarlem","_status":"available","_mode":"bus","_direction":13,"_visuallyAccessible":true,"_disabledAccessible":true,"geojson_lng":4.660968837791843,"geojson_lat":52.38016482575209},"geometry":{"type":"Point","coordinates":[4.660968837791843,52.38016482575209]}},{"type":"Feature","properties":{"highway":"bus_stop","public_transport":"platform","name":"Ramplaan","ref:IFOPT":"NL:Q:55004420","_quaycode":"NL:Q:55004420","_town":"Haarlem","_status":"available","_mode":"bus","_direction":203,"_visuallyAccessible":false,"_disabledAccessible":true,"geojson_lng":4.604594683639915,"geojson_lat":52.385414087906966},"geometry":{"type":"Point","coordinates":[4.604594683639915,52.385414087906966]}},{"type":"Feature","properties":{"highway":"bus_stop","public_transport":"platform","name":"Jac. v. Looystraat","ref:IFOPT":"NL:Q:55004290","_quaycode":"NL:Q:55004290","_town":"Haarlem","_status":"available","_mode":"bus","_direction":210,"_visuallyAccessible":true,"_disabledAccessible":true,"geojson_lng":4.65884960402542,"geojson_lat":52.37595447298005},"geometry":{"type":"Point","coordinates":[4.65884960402542,52.37595447298005]}},{"type":"Feature","properties":{"highway":"bus_stop","public_transport":"platform","name":"Ruychaverstraat","ref:IFOPT":"NL:Q:55004260","_quaycode":"NL:Q:55004260","_town":"Haarlem","_status":"available","_mode":"bus","_direction":290,"_visuallyAccessible":true,"_disabledAccessible":false,"geojson_lng":4.628031891176349,"geojson_lat":52.38407467917835},"geometry":{"type":"Point","coordinates":[4.628031891176349,52.38407467917835]}},{"type":"Feature","properties":{"highway":"bus_stop","public_transport":"platform","name":"Korte Zijlweg","ref:IFOPT":"NL:Q:55004400","_quaycode":"NL:Q:55004400","_town":"Overveen","_status":"available","_mode":"bus","_direction":196,"_visuallyAccessible":false,"_disabledAccessible":true,"geojson_lng":4.6071391697807575,"geojson_lat":52.3877317803471},"geometry":{"type":"Point","coordinates":[4.6071391697807575,52.3877317803471]}},{"type":"Feature","properties":{"highway":"bus_stop","public_transport":"platform","name":"Hoofmanstraat","ref:IFOPT":"NL:Q:55004280","_quaycode":"NL:Q:55004280","_town":"Haarlem","_status":"available","_mode":"bus","_direction":287,"_visuallyAccessible":false,"_disabledAccessible":true,"geojson_lng":4.623880574424988,"geojson_lat":52.38545908959931},"geometry":{"type":"Point","coordinates":[4.623880574424988,52.38545908959931]}},{"type":"Feature","properties":{"highway":"bus_stop","public_transport":"platform","name":"Velserbroekse Dreef","ref:IFOPT":"NL:Q:56320200","_quaycode":"NL:Q:56320200","_town":"Velserbroek","_status":"available","_mode":"bus","_direction":304,"_visuallyAccessible":true,"_disabledAccessible":true,"geojson_lng":4.65639270815467,"geojson_lat":52.4368048525089},"geometry":{"type":"Point","coordinates":[4.65639270815467,52.4368048525089]}},{"type":"Feature","properties":{"highway":"bus_stop","public_transport":"platform","name":"NOVA college","ref:IFOPT":"NL:Q:55004470","_quaycode":"NL:Q:55004470","_town":"Haarlem","_status":"available","_mode":"bus","_direction":103,"_visuallyAccessible":true,"_disabledAccessible":true,"geojson_lng":4.618242688349625,"geojson_lat":52.386150631419994},"geometry":{"type":"Point","coordinates":[4.618242688349625,52.386150631419994]}},{"type":"Feature","properties":{"highway":"bus_stop","public_transport":"platform","name":"Stadsschouwburg","ref:IFOPT":"NL:Q:55005540","_quaycode":"NL:Q:55005540","_town":"Haarlem","_status":"available","_mode":"bus","_direction":208,"_visuallyAccessible":false,"_disabledAccessible":false,"geojson_lng":4.62673605731686,"geojson_lat":52.37826917275983},"geometry":{"type":"Point","coordinates":[4.62673605731686,52.37826917275983]}},{"type":"Feature","properties":{"highway":"bus_stop","public_transport":"platform","name":"Station Spaarnwoude","ref:IFOPT":"NL:Q:55007560","_quaycode":"NL:Q:55007560","_town":"Haarlem","_status":"available","_mode":"bus","_direction":266,"_visuallyAccessible":true,"_disabledAccessible":false,"geojson_lng":4.671343253630535,"geojson_lat":52.3826361000515},"geometry":{"type":"Point","coordinates":[4.671343253630535,52.3826361000515]}},{"type":"Feature","properties":{"highway":"bus_stop","public_transport":"platform","name":"Raaksbrug","ref:IFOPT":"NL:Q:55005570","_quaycode":"NL:Q:55005570","_town":"Haarlem","_status":"available","_mode":"bus","_direction":39,"_visuallyAccessible":true,"_disabledAccessible":true,"geojson_lng":4.629112618874515,"geojson_lat":52.38186159479295},"geometry":{"type":"Point","coordinates":[4.629112618874515,52.38186159479295]}},{"type":"Feature","properties":{"highway":"bus_stop","public_transport":"platform","name":"Raaksbrug","ref:IFOPT":"NL:Q:55005520","_quaycode":"NL:Q:55005520","_town":"Haarlem","_status":"available","_mode":"bus","_direction":207,"_visuallyAccessible":true,"_disabledAccessible":false,"geojson_lng":4.6282848889341475,"geojson_lat":52.381308031050025},"geometry":{"type":"Point","coordinates":[4.6282848889341475,52.381308031050025]}},{"type":"Feature","properties":{"highway":"bus_stop","public_transport":"platform","name":"Station Spaarnwoude","ref:IFOPT":"NL:Q:55007550","_quaycode":"NL:Q:55007550","_town":"Haarlem","_status":"available","_mode":"bus","_direction":86,"_visuallyAccessible":true,"_disabledAccessible":true,"geojson_lng":4.670994606625367,"geojson_lat":52.38232905175177},"geometry":{"type":"Point","coordinates":[4.670994606625367,52.38232905175177]}},{"type":"Feature","properties":{"highway":"bus_stop","public_transport":"platform","name":"Nijverheidsweg","ref:IFOPT":"NL:Q:55008500","_quaycode":"NL:Q:55008500","_town":"Haarlem","_status":"available","_mode":"bus","_direction":256,"_visuallyAccessible":false,"_disabledAccessible":false,"geojson_lng":4.662564726900865,"geojson_lat":52.38586391759817},"geometry":{"type":"Point","coordinates":[4.662564726900865,52.38586391759817]}},{"type":"Feature","properties":{"highway":"bus_stop","public_transport":"platform","name":"Hogeschool Inholland","ref:IFOPT":"NL:Q:55004510","_quaycode":"NL:Q:55004510","_town":"Haarlem","_status":"available","_mode":"bus","_direction":94,"_visuallyAccessible":true,"_disabledAccessible":true,"geojson_lng":4.614746072545481,"geojson_lat":52.38702666289235},"geometry":{"type":"Point","coordinates":[4.614746072545481,52.38702666289235]}},{"type":"Feature","properties":{"highway":"bus_stop","public_transport":"platform","name":"Anna van Saksenlaan","ref:IFOPT":"NL:Q:56320480","_quaycode":"NL:Q:56320480","_town":"Santpoort-Zuid","_status":"available","_mode":"bus","_direction":51,"_visuallyAccessible":true,"_disabledAccessible":true,"geojson_lng":4.625540890654284,"geojson_lat":52.42390183252699},"geometry":{"type":"Point","coordinates":[4.625540890654284,52.42390183252699]}},{"type":"Feature","properties":{"highway":"bus_stop","public_transport":"platform","name":"Velserbroekse Dreef","ref:IFOPT":"NL:Q:56320210","_quaycode":"NL:Q:56320210","_town":"Velserbroek","_status":"available","_mode":"bus","_direction":127,"_visuallyAccessible":true,"_disabledAccessible":true,"geojson_lng":4.656266748474141,"geojson_lat":52.43641760186483},"geometry":{"type":"Point","coordinates":[4.656266748474141,52.43641760186483]}},{"type":"Feature","properties":{"highway":"bus_stop","public_transport":"platform","name":"Van Den Vondellaan","ref:IFOPT":"NL:Q:56320370","_quaycode":"NL:Q:56320370","_town":"Driehuis NH","_status":"available","_mode":"bus","_direction":163,"_visuallyAccessible":true,"_disabledAccessible":true,"geojson_lng":4.638946255082013,"geojson_lat":52.444937769857845},"geometry":{"type":"Point","coordinates":[4.638946255082013,52.444937769857845]}},{"type":"Feature","properties":{"highway":"bus_stop","public_transport":"platform","name":"Vromaadweg","ref:IFOPT":"NL:Q:56320172","_quaycode":"NL:Q:56320172","_town":"Velserbroek","_status":"available","_mode":"bus","_direction":128,"_visuallyAccessible":false,"_disabledAccessible":false,"geojson_lng":4.662108558872723,"geojson_lat":52.43350550212308},"geometry":{"type":"Point","coordinates":[4.662108558872723,52.43350550212308]}},{"type":"Feature","properties":{"highway":"bus_stop","public_transport":"platform","name":"Santpoortsedreef","ref:IFOPT":"NL:Q:56320350","_quaycode":"NL:Q:56320350","_town":"Santpoort-Noord","_status":"available","_mode":"bus","_direction":152,"_visuallyAccessible":true,"_disabledAccessible":true,"geojson_lng":4.642386114401304,"geojson_lat":52.438937632487146},"geometry":{"type":"Point","coordinates":[4.642386114401304,52.438937632487146]}},{"type":"Feature","properties":{"highway":"bus_stop","public_transport":"platform","name":"Hogeschool Inholland","ref:IFOPT":"NL:Q:55004520","_quaycode":"NL:Q:55004520","_town":"Haarlem","_status":"available","_mode":"bus","_direction":273,"_visuallyAccessible":true,"_disabledAccessible":true,"geojson_lng":4.614508090431933,"geojson_lat":52.387195880219274},"geometry":{"type":"Point","coordinates":[4.614508090431933,52.387195880219274]}},{"type":"Feature","properties":{"highway":"bus_stop","public_transport":"platform","name":"NOVA college","ref:IFOPT":"NL:Q:55004460","_quaycode":"NL:Q:55004460","_town":"Haarlem","_status":"available","_mode":"bus","_direction":288,"_visuallyAccessible":true,"_disabledAccessible":true,"geojson_lng":4.616720339397376,"geojson_lat":52.38668899727048},"geometry":{"type":"Point","coordinates":[4.616720339397376,52.38668899727048]}},{"type":"Feature","properties":{"highway":"bus_stop","public_transport":"platform","name":"Van Den Vondellaan","ref:IFOPT":"NL:Q:56320360","_quaycode":"NL:Q:56320360","_town":"Driehuis NH","_status":"available","_mode":"bus","_direction":343,"_visuallyAccessible":true,"_disabledAccessible":true,"geojson_lng":4.639353044045161,"geojson_lat":52.445236933371326},"geometry":{"type":"Point","coordinates":[4.639353044045161,52.445236933371326]}},{"type":"Feature","properties":{"highway":"bus_stop","public_transport":"platform","name":"Waterloolaan","ref:IFOPT":"NL:Q:56320380","_quaycode":"NL:Q:56320380","_town":"Driehuis NH","_status":"available","_mode":"bus","_direction":1,"_visuallyAccessible":true,"_disabledAccessible":true,"geojson_lng":4.638528213806506,"geojson_lat":52.44878189130956},"geometry":{"type":"Point","coordinates":[4.638528213806506,52.44878189130956]}},{"type":"Feature","properties":{"highway":"bus_stop","public_transport":"platform","name":"Westerveld","ref:IFOPT":"NL:Q:56320410","_quaycode":"NL:Q:56320410","_town":"Driehuis","_status":"available","_mode":"bus","_direction":165,"_visuallyAccessible":true,"_disabledAccessible":true,"geojson_lng":4.632410613401167,"geojson_lat":52.44522887776151},"geometry":{"type":"Point","coordinates":[4.632410613401167,52.44522887776151]}},{"type":"Feature","properties":{"highway":"bus_stop","public_transport":"platform","name":"Cremerlaan oost","ref:IFOPT":"NL:Q:56320520","_quaycode":"NL:Q:56320520","_town":"Santpoort","_status":"available","_mode":"bus","_direction":249,"_visuallyAccessible":false,"_disabledAccessible":false,"geojson_lng":4.642691770832253,"geojson_lat":52.436503866334746},"geometry":{"type":"Point","coordinates":[4.642691770832253,52.436503866334746]}},{"type":"Feature","properties":{"highway":"bus_stop","public_transport":"platform","name":"Santpoortsedreef","ref:IFOPT":"NL:Q:56320320","_quaycode":"NL:Q:56320320","_town":"Santpoort-Noord","_status":"available","_mode":"bus","_direction":330,"_visuallyAccessible":true,"_disabledAccessible":true,"geojson_lng":4.643080732373916,"geojson_lat":52.438735277068304},"geometry":{"type":"Point","coordinates":[4.643080732373916,52.438735277068304]}},{"type":"Feature","properties":{"highway":"bus_stop","public_transport":"platform","name":"Vissershaven","ref:IFOPT":"NL:Q:56202040","_quaycode":"NL:Q:56202040","_town":"IJmuiden","_status":"available","_mode":"bus","_direction":66,"_visuallyAccessible":false,"_disabledAccessible":false,"geojson_lng":4.59666022842407,"geojson_lat":52.45801912965204},"geometry":{"type":"Point","coordinates":[4.59666022842407,52.45801912965204]}},{"type":"Feature","properties":{"highway":"bus_stop","public_transport":"platform","name":"Westerveld","ref:IFOPT":"NL:Q:56320400","_quaycode":"NL:Q:56320400","_town":"Driehuis","_status":"available","_mode":"bus","_direction":1,"_visuallyAccessible":true,"_disabledAccessible":true,"geojson_lng":4.632539611558585,"geojson_lat":52.444564604247795},"geometry":{"type":"Point","coordinates":[4.632539611558585,52.444564604247795]}},{"type":"Feature","properties":{"highway":"bus_stop","public_transport":"platform","name":"Waterloolaan","ref:IFOPT":"NL:Q:56320390","_quaycode":"NL:Q:56320390","_town":"Driehuis NH","_status":"available","_mode":"bus","_direction":116,"_visuallyAccessible":true,"_disabledAccessible":true,"geojson_lng":4.637681308944408,"geojson_lat":52.44927985351114},"geometry":{"type":"Point","coordinates":[4.637681308944408,52.44927985351114]}},{"type":"Feature","properties":{"highway":"bus_stop","public_transport":"platform","name":"Anna van Saksenlaan","ref:IFOPT":"NL:Q:56320490","_quaycode":"NL:Q:56320490","_town":"Santpoort-Zuid","_status":"available","_mode":"bus","_direction":209,"_visuallyAccessible":true,"_disabledAccessible":true,"geojson_lng":4.625351335047349,"geojson_lat":52.42381073570479},"geometry":{"type":"Point","coordinates":[4.625351335047349,52.42381073570479]}},{"type":"Feature","properties":{"highway":"bus_stop","public_transport":"platform","name":"De Noostraat/Pont Velsen","ref:IFOPT":"NL:Q:56202050","_quaycode":"NL:Q:56202050","_town":"IJmuiden","_status":"available","_mode":"bus","_direction":260,"_visuallyAccessible":true,"_disabledAccessible":true,"geojson_lng":4.630305782204651,"geojson_lat":52.461654058781704},"geometry":{"type":"Point","coordinates":[4.630305782204651,52.461654058781704]}},