{"type":"FeatureCollection","features":[{"type":"Feature","properties":{"SeqNo":"191501","Type":"S","DHID":"de:09461:20058","Parent":"de:09461:20058","Name":"Bamberg Debringer Str.","MunicipalityCode":"09461000","Municipality":"Bamberg","DistrictCode":"-","District":"-","Description":"","Authority":"BEG","DelfiName":"-","THID":"D924F5004E5A","LastOperationDate":"1999-12-31T00:00:00","SEV":"nein","longitude":"10,851694","latitude":"49,861925","geojson_lng":10.851694,"geojson_lat":49.861925},"geometry":{"type":"Point","coordinates":[10.851694,49.861925]}},{"type":"Feature","properties":{"SeqNo":"195370","Type":"S","DHID":"de:09471:21773","Parent":"de:09471:21773","Name":"Stegaurach Aurachtal Apotheke","MunicipalityCode":"09471191","Municipality":"Stegaurach","DistrictCode":"","District":"","Description":"","Authority":"BEG","DelfiName":"-","THID":"D924FF00550D","LastOperationDate":"2025-06-14T00:00:00","SEV":"nein","longitude":"10,848963","latitude":"49,862441","geojson_lng":10.848963,"geojson_lat":49.862441},"geometry":{"type":"Point","coordinates":[10.848963,49.862441]}},{"type":"Feature","properties":{"SeqNo":"195371","Type":"Q","DHID":"de:09471:21773:0:1","Parent":"de:09471:21773","Name":"1","MunicipalityCode":"00000000","Municipality":"-","DistrictCode":"-","District":"-","Description":"","Authority":"BEG","DelfiName":"-","THID":"-","LastOperationDate":"","SEV":"nein","longitude":"10,848873","latitude":"49,862418","geojson_lng":10.848873,"geojson_lat":49.862418},"geometry":{"type":"Point","coordinates":[10.848873,49.862418]}},{"type":"Feature","properties":{"SeqNo":"195372","Type":"Q","DHID":"de:09471:21773:0:2","Parent":"de:09471:21773","Name":"2","MunicipalityCode":"00000000","Municipality":"-","DistrictCode":"-","District":"-","Description":"","Authority":"BEG","DelfiName":"-","THID":"-","LastOperationDate":"","SEV":"nein","longitude":"10,849035","latitude":"49,862447","geojson_lng":10.849035,"geojson_lat":49.862447},"geometry":{"type":"Point","coordinates":[10.849035,49.862447]}},{"type":"Feature","properties":{"SeqNo":"195381","Type":"S","DHID":"de:09471:21781","Parent":"de:09471:21781","Name":"Stegaurach Kreuz am Weiher","MunicipalityCode":"09471191","Municipality":"Stegaurach","DistrictCode":"","District":"","Description":"","Authority":"BEG","DelfiName":"-","THID":"D924FF005515","LastOperationDate":"2025-06-14T00:00:00","SEV":"nein","longitude":"10,853957","latitude":"49,860113","geojson_lng":10.853957,"geojson_lat":49.860113},"geometry":{"type":"Point","coordinates":[10.853957,49.860113]}},{"type":"Feature","properties":{"SeqNo":"195382","Type":"Q","DHID":"de:09471:21781:0:1","Parent":"de:09471:21781","Name":"1","MunicipalityCode":"00000000","Municipality":"-","DistrictCode":"-","District":"-","Description":"","Authority":"BEG","DelfiName":"-","THID":"-","LastOperationDate":"","SEV":"nein","longitude":"10,85358","latitude":"49,860327","geojson_lng":10.85358,"geojson_lat":49.860327},"geometry":{"type":"Point","coordinates":[10.85358,49.860327]}},{"type":"Feature","properties":{"SeqNo":"195383","Type":"Q","DHID":"de:09471:21781:0:2","Parent":"de:09471:21781","Name":"2","MunicipalityCode":"00000000","Municipality":"-","DistrictCode":"-","District":"-","Description":"","Authority":"BEG","DelfiName":"-","THID":"-","LastOperationDate":"","SEV":"nein","longitude":"10,8542","latitude":"49,859974","geojson_lng":10.8542,"geojson_lat":49.859974},"geometry":{"type":"Point","coordinates":[10.8542,49.859974]}}]}