{"type":"FeatureCollection","features":[{"type":"Feature","properties":{"SeqNo":"818290","Type":"S","DHID":"de:14511:30076","Parent":"de:14511:30076","Name":"Chemnitz, Stelzendorf","MunicipalityCode":"14511000","Municipality":"Chemnitz","DistrictCode":"-","District":"-","Description":"","Authority":"VVO","DelfiName":"-","THID":"D938AF00757C","LastOperationDate":"2025-02-28T00:00:00","SEV":"nein","longitude":"12,861674","latitude":"50,797888","geojson_lng":12.861674,"geojson_lat":50.797888},"geometry":{"type":"Point","coordinates":[12.861674,50.797888]}},{"type":"Feature","properties":{"SeqNo":"818291","Type":"A","DHID":"de:14511:30076:1","Parent":"de:14511:30076","Name":"Bus","MunicipalityCode":"00000000","Municipality":"-","DistrictCode":"-","District":"-","Description":"","Authority":"VVO","DelfiName":"-","THID":"-","LastOperationDate":"","SEV":"nein","longitude":"12,861692","latitude":"50,797899","geojson_lng":12.861692,"geojson_lat":50.797899},"geometry":{"type":"Point","coordinates":[12.861692,50.797899]}},{"type":"Feature","properties":{"SeqNo":"818292","Type":"Q","DHID":"de:14511:30076:0:BN","Parent":"de:14511:30076:1","Name":"Bus Nord","MunicipalityCode":"00000000","Municipality":"-","DistrictCode":"-","District":"-","Description":"Bus Nord","Authority":"VVO","DelfiName":"-","THID":"-","LastOperationDate":"","SEV":"nein","longitude":"12,862411","latitude":"50,79728","geojson_lng":12.862411,"geojson_lat":50.79728},"geometry":{"type":"Point","coordinates":[12.862411,50.79728]}},{"type":"Feature","properties":{"SeqNo":"818293","Type":"Q","DHID":"de:14511:30076:0:BO","Parent":"de:14511:30076:1","Name":"Bus Ost","MunicipalityCode":"00000000","Municipality":"-","DistrictCode":"-","District":"-","Description":"Bus Ost","Authority":"VVO","DelfiName":"-","THID":"-","LastOperationDate":"","SEV":"nein","longitude":"12,860596","latitude":"50,797366","geojson_lng":12.860596,"geojson_lat":50.797366},"geometry":{"type":"Point","coordinates":[12.860596,50.797366]}},{"type":"Feature","properties":{"SeqNo":"818294","Type":"Q","DHID":"de:14511:30076:0:BW","Parent":"de:14511:30076:1","Name":"Bus West","MunicipalityCode":"00000000","Municipality":"-","DistrictCode":"-","District":"-","Description":"Bus West","Authority":"VVO","DelfiName":"-","THID":"-","LastOperationDate":"","SEV":"nein","longitude":"12,862123","latitude":"50,798365","geojson_lng":12.862123,"geojson_lat":50.798365},"geometry":{"type":"Point","coordinates":[12.862123,50.798365]}}]}