{"type":"FeatureCollection","features":[{"type":"Feature","properties":{"SeqNo":"241518","Type":"A","DHID":"de:09761:122:1","Parent":"de:09761:122","Name":"Zugang Strab","MunicipalityCode":"00000000","Municipality":"-","DistrictCode":"-","District":"-","Description":"Zugang Strab","Authority":"BEG","DelfiName":"-","THID":"-","LastOperationDate":"","SEV":"nein","longitude":"10,908377","latitude":"48,327111","geojson_lng":10.908377,"geojson_lat":48.327111},"geometry":{"type":"Point","coordinates":[10.908377,48.327111]}},{"type":"Feature","properties":{"SeqNo":"241519","Type":"A","DHID":"de:09761:122:31","Parent":"de:09761:122","Name":"Bereich Bus","MunicipalityCode":"00000000","Municipality":"-","DistrictCode":"-","District":"-","Description":"Bereich Bus","Authority":"BEG","DelfiName":"-","THID":"-","LastOperationDate":"","SEV":"nein","longitude":"10,908332","latitude":"48,327057","geojson_lng":10.908332,"geojson_lat":48.327057},"geometry":{"type":"Point","coordinates":[10.908332,48.327057]}},{"type":"Feature","properties":{"SeqNo":"241521","Type":"Q","DHID":"de:09761:122:31:b","Parent":"de:09761:122:31","Name":"Bus stadtaus","MunicipalityCode":"00000000","Municipality":"-","DistrictCode":"-","District":"-","Description":"Bus stadtaus","Authority":"BEG","DelfiName":"-","THID":"-","LastOperationDate":"","SEV":"nein","longitude":"10,908323","latitude":"48,327009","geojson_lng":10.908323,"geojson_lat":48.327009},"geometry":{"type":"Point","coordinates":[10.908323,48.327009]}},{"type":"Feature","properties":{"SeqNo":"241523","Type":"Q","DHID":"de:09761:122:51:a","Parent":"de:09761:122:51","Name":"Strab stadtaus","MunicipalityCode":"00000000","Municipality":"-","DistrictCode":"-","District":"-","Description":"Strab stadtaus","Authority":"BEG","DelfiName":"-","THID":"-","LastOperationDate":"","SEV":"nein","longitude":"10,908081","latitude":"48,327069","geojson_lng":10.908081,"geojson_lat":48.327069},"geometry":{"type":"Point","coordinates":[10.908081,48.327069]}},{"type":"Feature","properties":{"SeqNo":"242809","Type":"S","DHID":"de:09761:735","Parent":"de:09761:735","Name":"Haunstetten, Hötzelstraße","MunicipalityCode":"09761000","Municipality":"Augsburg","DistrictCode":"-","District":"-","Description":"","Authority":"BEG","DelfiName":"-","THID":"D926210002DF","LastOperationDate":"2025-06-14T00:00:00","SEV":"nein","longitude":"10,90871","latitude":"48,321592","geojson_lng":10.90871,"geojson_lat":48.321592},"geometry":{"type":"Point","coordinates":[10.90871,48.321592]}},{"type":"Feature","properties":{"SeqNo":"242810","Type":"A","DHID":"de:09761:735:1","Parent":"de:09761:735","Name":"Zugang","MunicipalityCode":"00000000","Municipality":"-","DistrictCode":"-","District":"-","Description":"Zugang","Authority":"BEG","DelfiName":"-","THID":"-","LastOperationDate":"","SEV":"nein","longitude":"10,908701","latitude":"48,321377","geojson_lng":10.908701,"geojson_lat":48.321377},"geometry":{"type":"Point","coordinates":[10.908701,48.321377]}},{"type":"Feature","properties":{"SeqNo":"242811","Type":"A","DHID":"de:09761:735:31","Parent":"de:09761:735","Name":"Bereich Bus","MunicipalityCode":"00000000","Municipality":"-","DistrictCode":"-","District":"-","Description":"Bereich Bus","Authority":"BEG","DelfiName":"-","THID":"-","LastOperationDate":"","SEV":"nein","longitude":"10,908674","latitude":"48,321705","geojson_lng":10.908674,"geojson_lat":48.321705},"geometry":{"type":"Point","coordinates":[10.908674,48.321705]}},{"type":"Feature","properties":{"SeqNo":"242812","Type":"A","DHID":"de:09761:735:51","Parent":"de:09761:735","Name":"Bereich Strab","MunicipalityCode":"00000000","Municipality":"-","DistrictCode":"-","District":"-","Description":"Bereich Strab","Authority":"BEG","DelfiName":"-","THID":"-","LastOperationDate":"","SEV":"nein","longitude":"10,908701","latitude":"48,321365","geojson_lng":10.908701,"geojson_lat":48.321365},"geometry":{"type":"Point","coordinates":[10.908701,48.321365]}},{"type":"Feature","properties":{"SeqNo":"242813","Type":"Q","DHID":"de:09761:735:31:b","Parent":"de:09761:735:31","Name":"Bus stadtaus","MunicipalityCode":"00000000","Municipality":"-","DistrictCode":"-","District":"-","Description":"Bus stadtaus","Authority":"BEG","DelfiName":"-","THID":"-","LastOperationDate":"","SEV":"nein","longitude":"10,908781","latitude":"48,321287","geojson_lng":10.908781,"geojson_lat":48.321287},"geometry":{"type":"Point","coordinates":[10.908781,48.321287]}},{"type":"Feature","properties":{"SeqNo":"242814","Type":"Q","DHID":"de:09761:735:31:f","Parent":"de:09761:735:31","Name":"Bus stadtein","MunicipalityCode":"00000000","Municipality":"-","DistrictCode":"-","District":"-","Description":"Bus stadtein","Authority":"BEG","DelfiName":"-","THID":"-","LastOperationDate":"","SEV":"nein","longitude":"10,908853","latitude":"48,321789","geojson_lng":10.908853,"geojson_lat":48.321789},"geometry":{"type":"Point","coordinates":[10.908853,48.321789]}},{"type":"Feature","properties":{"SeqNo":"242815","Type":"Q","DHID":"de:09761:735:51:a","Parent":"de:09761:735:51","Name":"Strab stadtaus","MunicipalityCode":"00000000","Municipality":"-","DistrictCode":"-","District":"-","Description":"Strab stadtaus","Authority":"BEG","DelfiName":"-","THID":"-","LastOperationDate":"","SEV":"nein","longitude":"10,908602","latitude":"48,321383","geojson_lng":10.908602,"geojson_lat":48.321383},"geometry":{"type":"Point","coordinates":[10.908602,48.321383]}},{"type":"Feature","properties":{"SeqNo":"242816","Type":"Q","DHID":"de:09761:735:51:e","Parent":"de:09761:735:51","Name":"Strab stadtein","MunicipalityCode":"00000000","Municipality":"-","DistrictCode":"-","District":"-","Description":"Strab stadtein","Authority":"BEG","DelfiName":"-","THID":"-","LastOperationDate":"","SEV":"nein","longitude":"10,908593","latitude":"48,321413","geojson_lng":10.908593,"geojson_lat":48.321413},"geometry":{"type":"Point","coordinates":[10.908593,48.321413]}},{"type":"Feature","properties":{"SeqNo":"242817","Type":"S","DHID":"de:09761:736","Parent":"de:09761:736","Name":"Haunstetten, Baugenossenschaft","MunicipalityCode":"09761000","Municipality":"Augsburg","DistrictCode":"-","District":"-","Description":"","Authority":"BEG","DelfiName":"-","THID":"D926210002E0","LastOperationDate":"2025-06-14T00:00:00","SEV":"nein","longitude":"10,908449","latitude":"48,324017","geojson_lng":10.908449,"geojson_lat":48.324017},"geometry":{"type":"Point","coordinates":[10.908449,48.324017]}},{"type":"Feature","properties":{"SeqNo":"242818","Type":"A","DHID":"de:09761:736:1","Parent":"de:09761:736","Name":"Zugang","MunicipalityCode":"00000000","Municipality":"-","DistrictCode":"-","District":"-","Description":"Zugang","Authority":"BEG","DelfiName":"-","THID":"-","LastOperationDate":"","SEV":"nein","longitude":"10,908359","latitude":"48,323945","geojson_lng":10.908359,"geojson_lat":48.323945},"geometry":{"type":"Point","coordinates":[10.908359,48.323945]}},{"type":"Feature","properties":{"SeqNo":"242819","Type":"A","DHID":"de:09761:736:31","Parent":"de:09761:736","Name":"Bereich Bus","MunicipalityCode":"00000000","Municipality":"-","DistrictCode":"-","District":"-","Description":"Bereich Bus","Authority":"BEG","DelfiName":"-","THID":"-","LastOperationDate":"","SEV":"nein","longitude":"10,908494","latitude":"48,324029","geojson_lng":10.908494,"geojson_lat":48.324029},"geometry":{"type":"Point","coordinates":[10.908494,48.324029]}},{"type":"Feature","properties":{"SeqNo":"242820","Type":"A","DHID":"de:09761:736:51","Parent":"de:09761:736","Name":"Bereich Strab","MunicipalityCode":"00000000","Municipality":"-","DistrictCode":"-","District":"-","Description":"Bereich Strab","Authority":"BEG","DelfiName":"-","THID":"-","LastOperationDate":"","SEV":"nein","longitude":"10,908368","latitude":"48,324077","geojson_lng":10.908368,"geojson_lat":48.324077},"geometry":{"type":"Point","coordinates":[10.908368,48.324077]}},{"type":"Feature","properties":{"SeqNo":"242821","Type":"Q","DHID":"de:09761:736:31:b","Parent":"de:09761:736:31","Name":"Bus stadtaus","MunicipalityCode":"00000000","Municipality":"-","DistrictCode":"-","District":"-","Description":"Bus stadtaus","Authority":"BEG","DelfiName":"-","THID":"-","LastOperationDate":"","SEV":"nein","longitude":"10,908575","latitude":"48,323975","geojson_lng":10.908575,"geojson_lat":48.323975},"geometry":{"type":"Point","coordinates":[10.908575,48.323975]}},{"type":"Feature","properties":{"SeqNo":"242822","Type":"Q","DHID":"de:09761:736:31:e","Parent":"de:09761:736:31","Name":"Bus stadtein","MunicipalityCode":"00000000","Municipality":"-","DistrictCode":"-","District":"-","Description":"Bus stadtein","Authority":"BEG","DelfiName":"-","THID":"-","LastOperationDate":"","SEV":"nein","longitude":"10,908656","latitude":"48,324047","geojson_lng":10.908656,"geojson_lat":48.324047},"geometry":{"type":"Point","coordinates":[10.908656,48.324047]}},{"type":"Feature","properties":{"SeqNo":"242823","Type":"Q","DHID":"de:09761:736:51:a","Parent":"de:09761:736:51","Name":"Strab stadtaus","MunicipalityCode":"00000000","Municipality":"-","DistrictCode":"-","District":"-","Description":"Strab stadtaus","Authority":"BEG","DelfiName":"-","THID":"-","LastOperationDate":"","SEV":"nein","longitude":"10,908404","latitude":"48,323748","geojson_lng":10.908404,"geojson_lat":48.323748},"geometry":{"type":"Point","coordinates":[10.908404,48.323748]}},{"type":"Feature","properties":{"SeqNo":"242824","Type":"Q","DHID":"de:09761:736:51:f","Parent":"de:09761:736:51","Name":"Strab stadtein","MunicipalityCode":"00000000","Municipality":"-","DistrictCode":"-","District":"-","Description":"Strab stadtein","Authority":"BEG","DelfiName":"-","THID":"-","LastOperationDate":"","SEV":"nein","longitude":"10,908368","latitude":"48,324059","geojson_lng":10.908368,"geojson_lat":48.324059},"geometry":{"type":"Point","coordinates":[10.908368,48.324059]}}]}