{"type":"FeatureCollection","features":[{"type":"Feature","properties":{"highway":"bus_stop","public_transport":"platform","name":"Nieuwesluis","ref:IFOPT":"NL:Q:46501040","_quaycode":"NL:Q:46501040","_town":"Zwartsluis","_status":"available","_mode":"bus","_direction":104,"_visuallyAccessible":false,"_disabledAccessible":false,"geojson_lng":6.076581831150558,"geojson_lat":52.638138135185244},"geometry":{"type":"Point","coordinates":[6.076581831150558,52.638138135185244]}},{"type":"Feature","properties":{"highway":"bus_stop","public_transport":"platform","name":"De Velde","ref:IFOPT":"NL:Q:25470010","_quaycode":"NL:Q:25470010","_town":"De Velde","_status":"available","_mode":"bus","_direction":339,"_visuallyAccessible":false,"_disabledAccessible":true,"geojson_lng":6.088498478850236,"geojson_lat":52.62297866116575},"geometry":{"type":"Point","coordinates":[6.088498478850236,52.62297866116575]}},{"type":"Feature","properties":{"highway":"bus_stop","public_transport":"platform","name":"Kranerweerd","ref:IFOPT":"NL:Q:46501020","_quaycode":"NL:Q:46501020","_town":"Zwartsluis","_status":"available","_mode":"bus","_direction":106,"_visuallyAccessible":false,"_disabledAccessible":true,"geojson_lng":6.081569907067579,"geojson_lat":52.63686884540405},"geometry":{"type":"Point","coordinates":[6.081569907067579,52.63686884540405]}},{"type":"Feature","properties":{"highway":"bus_stop","public_transport":"platform","name":"Busstation","ref:IFOPT":"NL:Q:25470030","_quaycode":"NL:Q:25470030","_town":"Zwartsluis","_status":"available","_mode":"bus","_direction":349,"_visuallyAccessible":false,"_disabledAccessible":true,"geojson_lng":6.068954240351048,"geojson_lat":52.639745927914234},"geometry":{"type":"Point","coordinates":[6.068954240351048,52.639745927914234]}},{"type":"Feature","properties":{"highway":"bus_stop","public_transport":"platform","name":"Nieuwesluis","ref:IFOPT":"NL:Q:46501030","_quaycode":"NL:Q:46501030","_town":"Zwartsluis","_status":"available","_mode":"bus","_direction":280,"_visuallyAccessible":false,"_disabledAccessible":false,"geojson_lng":6.073329586821815,"geojson_lat":52.63894783973274},"geometry":{"type":"Point","coordinates":[6.073329586821815,52.63894783973274]}},{"type":"Feature","properties":{"highway":"bus_stop","public_transport":"platform","name":"De Velde","ref:IFOPT":"NL:Q:25470020","_quaycode":"NL:Q:25470020","_town":"De Velde","_status":"available","_mode":"bus","_direction":160,"_visuallyAccessible":false,"_disabledAccessible":true,"geojson_lng":6.088645871537187,"geojson_lat":52.62203411809444},"geometry":{"type":"Point","coordinates":[6.088645871537187,52.62203411809444]}},{"type":"Feature","properties":{"highway":"bus_stop","public_transport":"platform","name":"Kranerweerd","ref:IFOPT":"NL:Q:46501010","_quaycode":"NL:Q:46501010","_town":"Zwartsluis","_status":"available","_mode":"bus","_direction":286,"_visuallyAccessible":false,"_disabledAccessible":true,"geojson_lng":6.0814250296465,"geojson_lat":52.63704943829909},"geometry":{"type":"Point","coordinates":[6.0814250296465,52.63704943829909]}},{"type":"Feature","properties":{"highway":"bus_stop","public_transport":"platform","name":"Busstation","ref:IFOPT":"NL:Q:25470040","_quaycode":"NL:Q:25470040","_town":"Zwartsluis","_status":"available","_mode":"bus","_direction":349,"_visuallyAccessible":false,"_disabledAccessible":true,"geojson_lng":6.068981556282061,"geojson_lat":52.63960197428217},"geometry":{"type":"Point","coordinates":[6.068981556282061,52.63960197428217]}}]}