{"type":"FeatureCollection","features":[{"type":"Feature","properties":{"SeqNo":"539891","Type":"S","DHID":"de:05158:19026","Parent":"de:05158:19026","Name":"ME-Neanderthal/Museum","MunicipalityCode":"05158024","Municipality":"Mettmann","DistrictCode":"","District":"","Description":"","Authority":"VRR","DelfiName":"-","THID":"D91426004A52","LastOperationDate":"2025-06-14T00:00:00","SEV":"nein","longitude":"6,950975","latitude":"51,226347","geojson_lng":6.950975,"geojson_lat":51.226347},"geometry":{"type":"Point","coordinates":[6.950975,51.226347]}},{"type":"Feature","properties":{"SeqNo":"539892","Type":"A","DHID":"de:05158:19026:1","Parent":"de:05158:19026","Name":"für Steig 1","MunicipalityCode":"00000000","Municipality":"-","DistrictCode":"-","District":"-","Description":"","Authority":"VRR","DelfiName":"-","THID":"-","LastOperationDate":"","SEV":"nein","longitude":"6,950813","latitude":"51,226415","geojson_lng":6.950813,"geojson_lat":51.226415},"geometry":{"type":"Point","coordinates":[6.950813,51.226415]}},{"type":"Feature","properties":{"SeqNo":"539893","Type":"A","DHID":"de:05158:19026:2","Parent":"de:05158:19026","Name":"für Steig 2","MunicipalityCode":"00000000","Municipality":"-","DistrictCode":"-","District":"-","Description":"","Authority":"VRR","DelfiName":"-","THID":"-","LastOperationDate":"","SEV":"nein","longitude":"6,951559","latitude":"51,226235","geojson_lng":6.951559,"geojson_lat":51.226235},"geometry":{"type":"Point","coordinates":[6.951559,51.226235]}},{"type":"Feature","properties":{"SeqNo":"539894","Type":"Q","DHID":"de:05158:19026:0:1","Parent":"de:05158:19026:1","Name":"Ri. Hin","MunicipalityCode":"00000000","Municipality":"-","DistrictCode":"-","District":"-","Description":"","Authority":"VRR","DelfiName":"-","THID":"-","LastOperationDate":"","SEV":"nein","longitude":"6,950813","latitude":"51,226381","geojson_lng":6.950813,"geojson_lat":51.226381},"geometry":{"type":"Point","coordinates":[6.950813,51.226381]}},{"type":"Feature","properties":{"SeqNo":"539895","Type":"Q","DHID":"de:05158:19026:0:2","Parent":"de:05158:19026:2","Name":"Ri. Rück","MunicipalityCode":"00000000","Municipality":"-","DistrictCode":"-","District":"-","Description":"","Authority":"VRR","DelfiName":"-","THID":"-","LastOperationDate":"","SEV":"nein","longitude":"6,951568","latitude":"51,226291","geojson_lng":6.951568,"geojson_lat":51.226291},"geometry":{"type":"Point","coordinates":[6.951568,51.226291]}},{"type":"Feature","properties":{"SeqNo":"539896","Type":"S","DHID":"de:05158:19027","Parent":"de:05158:19027","Name":"Erkrath Feldhof","MunicipalityCode":"05158004","Municipality":"Erkrath","DistrictCode":"","District":"","Description":"","Authority":"VRR","DelfiName":"-","THID":"D91426004A53","LastOperationDate":"2025-06-14T00:00:00","SEV":"nein","longitude":"6,944408","latitude":"51,2235","geojson_lng":6.944408,"geojson_lat":51.2235},"geometry":{"type":"Point","coordinates":[6.944408,51.2235]}},{"type":"Feature","properties":{"SeqNo":"539897","Type":"A","DHID":"de:05158:19027:1","Parent":"de:05158:19027","Name":"für Steig 1","MunicipalityCode":"00000000","Municipality":"-","DistrictCode":"-","District":"-","Description":"","Authority":"VRR","DelfiName":"-","THID":"-","LastOperationDate":"","SEV":"nein","longitude":"6,94386","latitude":"51,223455","geojson_lng":6.94386,"geojson_lat":51.223455},"geometry":{"type":"Point","coordinates":[6.94386,51.223455]}},{"type":"Feature","properties":{"SeqNo":"539898","Type":"A","DHID":"de:05158:19027:2","Parent":"de:05158:19027","Name":"für Steig 2","MunicipalityCode":"00000000","Municipality":"-","DistrictCode":"-","District":"-","Description":"","Authority":"VRR","DelfiName":"-","THID":"-","LastOperationDate":"","SEV":"nein","longitude":"6,944822","latitude":"51,223534","geojson_lng":6.944822,"geojson_lat":51.223534},"geometry":{"type":"Point","coordinates":[6.944822,51.223534]}},{"type":"Feature","properties":{"SeqNo":"539899","Type":"Q","DHID":"de:05158:19027:1:1","Parent":"de:05158:19027:1","Name":"Ri Neanderweg","MunicipalityCode":"00000000","Municipality":"-","DistrictCode":"-","District":"-","Description":"","Authority":"VRR","DelfiName":"-","THID":"-","LastOperationDate":"","SEV":"nein","longitude":"6,943869","latitude":"51,223433","geojson_lng":6.943869,"geojson_lat":51.223433},"geometry":{"type":"Point","coordinates":[6.943869,51.223433]}},{"type":"Feature","properties":{"SeqNo":"539900","Type":"Q","DHID":"de:05158:19027:2:2","Parent":"de:05158:19027:2","Name":"Ri. Neanderthal","MunicipalityCode":"00000000","Municipality":"-","DistrictCode":"-","District":"-","Description":"","Authority":"VRR","DelfiName":"-","THID":"-","LastOperationDate":"","SEV":"nein","longitude":"6,944804","latitude":"51,223557","geojson_lng":6.944804,"geojson_lat":51.223557},"geometry":{"type":"Point","coordinates":[6.944804,51.223557]}},{"type":"Feature","properties":{"SeqNo":"540540","Type":"A","DHID":"de:05158:19191:89","Parent":"de:05158:19191","Name":"Schienenersatzv.","MunicipalityCode":"00000000","Municipality":"-","DistrictCode":"-","District":"-","Description":"","Authority":"VRR","DelfiName":"-","THID":"-","LastOperationDate":"","SEV":"nein","longitude":"6,951092","latitude":"51,22637","geojson_lng":6.951092,"geojson_lat":51.22637},"geometry":{"type":"Point","coordinates":[6.951092,51.22637]}},{"type":"Feature","properties":{"SeqNo":"540544","Type":"Q","DHID":"de:05158:19191:89:2","Parent":"de:05158:19191:89","Name":"SEV-Ri. Stadtwald S","MunicipalityCode":"00000000","Municipality":"-","DistrictCode":"-","District":"-","Description":"","Authority":"VRR","DelfiName":"-","THID":"-","LastOperationDate":"","SEV":"nein","longitude":"6,951523","latitude":"51,226263","geojson_lng":6.951523,"geojson_lat":51.226263},"geometry":{"type":"Point","coordinates":[6.951523,51.226263]}},{"type":"Feature","properties":{"SeqNo":"540545","Type":"Q","DHID":"de:05158:19191:89:SEV","Parent":"de:05158:19191:89","Name":"SEV-Ri. Gerresheim","MunicipalityCode":"00000000","Municipality":"-","DistrictCode":"-","District":"-","Description":"","Authority":"VRR","DelfiName":"-","THID":"-","LastOperationDate":"","SEV":"nein","longitude":"6,950858","latitude":"51,226381","geojson_lng":6.950858,"geojson_lat":51.226381},"geometry":{"type":"Point","coordinates":[6.950858,51.226381]}}]}