{"type":"FeatureCollection","features":[{"type":"Feature","properties":{"SeqNo":"333622","Type":"S","DHID":"de:03152:85676","Parent":"de:03152:85676","Name":"Speele","MunicipalityCode":"03159034","Municipality":"Staufenberg","DistrictCode":"","District":"","Description":"","Authority":"VBN","DelfiName":"-","THID":"D90C50014EAC","LastOperationDate":"2025-06-14T00:00:00","SEV":"nein","longitude":"9,563668","latitude":"51,377396","geojson_lng":9.563668,"geojson_lat":51.377396},"geometry":{"type":"Point","coordinates":[9.563668,51.377396]}},{"type":"Feature","properties":{"SeqNo":"333623","Type":"Q","DHID":"de:03152:85676::1","Parent":"de:03152:85676","Name":"Speele","MunicipalityCode":"00000000","Municipality":"-","DistrictCode":"-","District":"-","Description":"","Authority":"VBN","DelfiName":"-","THID":"-","LastOperationDate":"","SEV":"nein","longitude":"9,563621","latitude":"51,377378","geojson_lng":9.563621,"geojson_lat":51.377378},"geometry":{"type":"Point","coordinates":[9.563621,51.377378]}},{"type":"Feature","properties":{"SeqNo":"333624","Type":"Q","DHID":"de:03159:85676::3","Parent":"de:03152:85676","Name":"Speele","MunicipalityCode":"00000000","Municipality":"-","DistrictCode":"-","District":"-","Description":"","Authority":"VBN","DelfiName":"-","THID":"-","LastOperationDate":"","SEV":"nein","longitude":"9,563714","latitude":"51,377414","geojson_lng":9.563714,"geojson_lat":51.377414},"geometry":{"type":"Point","coordinates":[9.563714,51.377414]}},{"type":"Feature","properties":{"SeqNo":"336371","Type":"S","DHID":"de:03159:20989","Parent":"de:03159:20989","Name":"Speele Bahnhofstraße","MunicipalityCode":"03159034","Municipality":"Staufenberg","DistrictCode":"","District":"","Description":"","Authority":"VBN","DelfiName":"-","THID":"D90C570051FD","LastOperationDate":"1999-12-31T00:00:00","SEV":"nein","longitude":"9,563707","latitude":"51,377046","geojson_lng":9.563707,"geojson_lat":51.377046},"geometry":{"type":"Point","coordinates":[9.563707,51.377046]}},{"type":"Feature","properties":{"SeqNo":"336372","Type":"Q","DHID":"de:03159:20989::1","Parent":"de:03159:20989","Name":"Speele Bahnhofstraße","MunicipalityCode":"00000000","Municipality":"-","DistrictCode":"-","District":"-","Description":"","Authority":"VBN","DelfiName":"-","THID":"-","LastOperationDate":"","SEV":"nein","longitude":"9,563707","latitude":"51,377046","geojson_lng":9.563707,"geojson_lat":51.377046},"geometry":{"type":"Point","coordinates":[9.563707,51.377046]}},{"type":"Feature","properties":{"SeqNo":"336484","Type":"S","DHID":"de:03159:9082","Parent":"de:03159:9082","Name":"Speele Pommernstraße","MunicipalityCode":"03159034","Municipality":"Staufenberg","DistrictCode":"","District":"","Description":"","Authority":"VBN","DelfiName":"-","THID":"D90C5700237A","LastOperationDate":"2025-06-14T00:00:00","SEV":"nein","longitude":"9,56266","latitude":"51,37738","geojson_lng":9.56266,"geojson_lat":51.37738},"geometry":{"type":"Point","coordinates":[9.56266,51.37738]}},{"type":"Feature","properties":{"SeqNo":"336485","Type":"Q","DHID":"de:03159:9082::1","Parent":"de:03159:9082","Name":"Speele Pommernstraße","MunicipalityCode":"00000000","Municipality":"-","DistrictCode":"-","District":"-","Description":"","Authority":"VBN","DelfiName":"-","THID":"-","LastOperationDate":"","SEV":"nein","longitude":"9,56266","latitude":"51,37738","geojson_lng":9.56266,"geojson_lat":51.37738},"geometry":{"type":"Point","coordinates":[9.56266,51.37738]}},{"type":"Feature","properties":{"SeqNo":"886263","Type":"S","DHID":"de:06633:203319","Parent":"de:06633:203319","Name":"Fuldatal Dicker Kopf","MunicipalityCode":"06633009","Municipality":"Fuldatal","DistrictCode":"","District":"","Description":"","Authority":"NVV","DelfiName":"-","THID":"D919E9031A37","LastOperationDate":"2025-06-14T00:00:00","SEV":"nein","longitude":"9,565832","latitude":"51,373586","geojson_lng":9.565832,"geojson_lat":51.373586},"geometry":{"type":"Point","coordinates":[9.565832,51.373586]}},{"type":"Feature","properties":{"SeqNo":"886264","Type":"Q","DHID":"de:06633:203319::A","Parent":"de:06633:203319","Name":"Fuldatal Dicker Kopf, Steig A","MunicipalityCode":"00000000","Municipality":"-","DistrictCode":"-","District":"-","Description":"","Authority":"NVV","DelfiName":"-","THID":"-","LastOperationDate":"","SEV":"nein","longitude":"9,56557","latitude":"51,37364","geojson_lng":9.56557,"geojson_lat":51.37364},"geometry":{"type":"Point","coordinates":[9.56557,51.37364]}},{"type":"Feature","properties":{"SeqNo":"886265","Type":"Q","DHID":"de:06633:203319::AST","Parent":"de:06633:203319","Name":"Fuldatal Dicker Kopf, AST","MunicipalityCode":"00000000","Municipality":"-","DistrictCode":"-","District":"-","Description":"","Authority":"NVV","DelfiName":"-","THID":"-","LastOperationDate":"","SEV":"nein","longitude":"9,565831","latitude":"51,373481","geojson_lng":9.565831,"geojson_lat":51.373481},"geometry":{"type":"Point","coordinates":[9.565831,51.373481]}},{"type":"Feature","properties":{"SeqNo":"886266","Type":"Q","DHID":"de:06633:203319::B","Parent":"de:06633:203319","Name":"Fuldatal Dicker Kopf, Steig B","MunicipalityCode":"00000000","Municipality":"-","DistrictCode":"-","District":"-","Description":"","Authority":"NVV","DelfiName":"-","THID":"-","LastOperationDate":"","SEV":"nein","longitude":"9,56613","latitude":"51,37352","geojson_lng":9.56613,"geojson_lat":51.37352},"geometry":{"type":"Point","coordinates":[9.56613,51.37352]}}]}