{"type":"FeatureCollection","features":[{"type":"Feature","properties":{"SeqNo":"27174","Type":"S","DHID":"de:08127:11977","Parent":"de:08127:11977","Name":"Forsthaus Ort","MunicipalityCode":"08127059","Municipality":"Michelfeld","DistrictCode":"","District":"","Description":"","Authority":"NVBW","DelfiName":"-","THID":"D91FBF002EC9","LastOperationDate":"2025-05-31T00:00:00","SEV":"nein","longitude":"9,63365","latitude":"49,131196","geojson_lng":9.63365,"geojson_lat":49.131196},"geometry":{"type":"Point","coordinates":[9.63365,49.131196]}},{"type":"Feature","properties":{"SeqNo":"27175","Type":"A","DHID":"de:08127:11977:1","Parent":"de:08127:11977","Name":"Süd","MunicipalityCode":"00000000","Municipality":"-","DistrictCode":"-","District":"-","Description":"","Authority":"NVBW","DelfiName":"-","THID":"-","LastOperationDate":"","SEV":"nein","longitude":"9,633794","latitude":"49,130896","geojson_lng":9.633794,"geojson_lat":49.130896},"geometry":{"type":"Point","coordinates":[9.633794,49.130896]}},{"type":"Feature","properties":{"SeqNo":"27176","Type":"A","DHID":"de:08127:11977:2","Parent":"de:08127:11977","Name":"West","MunicipalityCode":"00000000","Municipality":"-","DistrictCode":"-","District":"-","Description":"","Authority":"NVBW","DelfiName":"-","THID":"-","LastOperationDate":"","SEV":"nein","longitude":"9,633515","latitude":"49,131419","geojson_lng":9.633515,"geojson_lat":49.131419},"geometry":{"type":"Point","coordinates":[9.633515,49.131419]}},{"type":"Feature","properties":{"SeqNo":"27177","Type":"Q","DHID":"de:08127:11977:1:1","Parent":"de:08127:11977:1","Name":"Ri. Norden (Kreuzung / Sailach) - Dummy","MunicipalityCode":"00000000","Municipality":"-","DistrictCode":"-","District":"-","Description":"","Authority":"NVBW","DelfiName":"-","THID":"-","LastOperationDate":"","SEV":"nein","longitude":"9,633848","latitude":"49,130884","geojson_lng":9.633848,"geojson_lat":49.130884},"geometry":{"type":"Point","coordinates":[9.633848,49.130884]}},{"type":"Feature","properties":{"SeqNo":"27178","Type":"Q","DHID":"de:08127:11977:1:2","Parent":"de:08127:11977:1","Name":"Ri. Süden (Neunkirchen) - Dummy","MunicipalityCode":"00000000","Municipality":"-","DistrictCode":"-","District":"-","Description":"","Authority":"NVBW","DelfiName":"-","THID":"-","LastOperationDate":"","SEV":"nein","longitude":"9,633731","latitude":"49,130955","geojson_lng":9.633731,"geojson_lat":49.130955},"geometry":{"type":"Point","coordinates":[9.633731,49.130955]}},{"type":"Feature","properties":{"SeqNo":"27179","Type":"Q","DHID":"de:08127:11977:2:1","Parent":"de:08127:11977:2","Name":"Ri. Nordwesten (Obersteinbach) - Dummy","MunicipalityCode":"00000000","Municipality":"-","DistrictCode":"-","District":"-","Description":"","Authority":"NVBW","DelfiName":"-","THID":"-","LastOperationDate":"","SEV":"nein","longitude":"9,63356","latitude":"49,131461","geojson_lng":9.63356,"geojson_lat":49.131461},"geometry":{"type":"Point","coordinates":[9.63356,49.131461]}},{"type":"Feature","properties":{"SeqNo":"27180","Type":"Q","DHID":"de:08127:11977:2:2","Parent":"de:08127:11977:2","Name":"Ri. Südosten (Kreuzung / Gnad.) - Dummy","MunicipalityCode":"00000000","Municipality":"-","DistrictCode":"-","District":"-","Description":"","Authority":"NVBW","DelfiName":"-","THID":"-","LastOperationDate":"","SEV":"nein","longitude":"9,633497","latitude":"49,131384","geojson_lng":9.633497,"geojson_lat":49.131384},"geometry":{"type":"Point","coordinates":[9.633497,49.131384]}},{"type":"Feature","properties":{"SeqNo":"27441","Type":"S","DHID":"de:08127:20087","Parent":"de:08127:20087","Name":"Forsthaus Süd","MunicipalityCode":"08127059","Municipality":"Michelfeld","DistrictCode":"","District":"","Description":"","Authority":"NVBW","DelfiName":"-","THID":"D91FBF004E77","LastOperationDate":"2025-06-14T00:00:00","SEV":"nein","longitude":"9,633776","latitude":"49,130861","geojson_lng":9.633776,"geojson_lat":49.130861},"geometry":{"type":"Point","coordinates":[9.633776,49.130861]}},{"type":"Feature","properties":{"SeqNo":"27442","Type":"Q","DHID":"de:08127:20087:0:1","Parent":"de:08127:20087","Name":"Ri. Norden (Sailach / L 1046)","MunicipalityCode":"00000000","Municipality":"-","DistrictCode":"-","District":"-","Description":"","Authority":"NVBW","DelfiName":"-","THID":"-","LastOperationDate":"","SEV":"nein","longitude":"9,633848","latitude":"49,13082","geojson_lng":9.633848,"geojson_lat":49.13082},"geometry":{"type":"Point","coordinates":[9.633848,49.13082]}},{"type":"Feature","properties":{"SeqNo":"27443","Type":"Q","DHID":"de:08127:20087:0:2","Parent":"de:08127:20087","Name":"Ri. Süden (Neunkirchen)","MunicipalityCode":"00000000","Municipality":"-","DistrictCode":"-","District":"-","Description":"","Authority":"NVBW","DelfiName":"-","THID":"-","LastOperationDate":"","SEV":"nein","longitude":"9,633695","latitude":"49,13089","geojson_lng":9.633695,"geojson_lat":49.13089},"geometry":{"type":"Point","coordinates":[9.633695,49.13089]}},{"type":"Feature","properties":{"SeqNo":"29934","Type":"S","DHID":"de:08127:21978","Parent":"de:08127:21978","Name":"Forsthaus West","MunicipalityCode":"08127059","Municipality":"Michelfeld","DistrictCode":"","District":"","Description":"","Authority":"NVBW","DelfiName":"-","THID":"D91FBF0055DA","LastOperationDate":"2025-06-14T00:00:00","SEV":"nein","longitude":"9,633515","latitude":"49,131431","geojson_lng":9.633515,"geojson_lat":49.131431},"geometry":{"type":"Point","coordinates":[9.633515,49.131431]}},{"type":"Feature","properties":{"SeqNo":"29935","Type":"Q","DHID":"de:08127:21978:0:1","Parent":"de:08127:21978","Name":"Ri. Nordwesten (Obersteinach)","MunicipalityCode":"00000000","Municipality":"-","DistrictCode":"-","District":"-","Description":"","Authority":"NVBW","DelfiName":"-","THID":"-","LastOperationDate":"","SEV":"nein","longitude":"9,633506","latitude":"49,131502","geojson_lng":9.633506,"geojson_lat":49.131502},"geometry":{"type":"Point","coordinates":[9.633506,49.131502]}},{"type":"Feature","properties":{"SeqNo":"29936","Type":"Q","DHID":"de:08127:21978:0:2","Parent":"de:08127:21978","Name":"Ri. Südosten (Gnadental)","MunicipalityCode":"00000000","Municipality":"-","DistrictCode":"-","District":"-","Description":"","Authority":"NVBW","DelfiName":"-","THID":"-","LastOperationDate":"","SEV":"nein","longitude":"9,633533","latitude":"49,131378","geojson_lng":9.633533,"geojson_lat":49.131378},"geometry":{"type":"Point","coordinates":[9.633533,49.131378]}}]}