{"type":"FeatureCollection","features":[{"type":"Feature","properties":{"highway":"bus_stop","public_transport":"platform","name":"De Waal","ref:IFOPT":"NL:Q:53420200","_quaycode":"NL:Q:53420200","_town":"Gouderak","_status":"available","_mode":"bus","_direction":203,"_visuallyAccessible":false,"_disabledAccessible":false,"geojson_lng":4.676342496749861,"geojson_lat":51.9868366819575},"geometry":{"type":"Point","coordinates":[4.676342496749861,51.9868366819575]}},{"type":"Feature","properties":{"highway":"bus_stop","public_transport":"platform","name":"Pols","ref:IFOPT":"NL:Q:53420090","_quaycode":"NL:Q:53420090","_town":"Gouderak","_status":"available","_mode":"bus","_direction":212,"_visuallyAccessible":false,"_disabledAccessible":false,"geojson_lng":4.680292318676054,"geojson_lat":51.989323314366864},"geometry":{"type":"Point","coordinates":[4.680292318676054,51.989323314366864]}},{"type":"Feature","properties":{"highway":"bus_stop","public_transport":"platform","name":"Oostpolderweg","ref:IFOPT":"NL:Q:53410220","_quaycode":"NL:Q:53410220","_town":"Moordrecht","_status":"available","_mode":"bus","_direction":302,"_visuallyAccessible":false,"_disabledAccessible":true,"geojson_lng":4.677268205686477,"geojson_lat":51.99089606679435},"geometry":{"type":"Point","coordinates":[4.677268205686477,51.99089606679435]}},{"type":"Feature","properties":{"highway":"bus_stop","public_transport":"platform","name":"Pols","ref:IFOPT":"NL:Q:53420120","_quaycode":"NL:Q:53420120","_town":"Gouderak","_status":"available","_mode":"bus","_direction":210,"_visuallyAccessible":false,"_disabledAccessible":false,"geojson_lng":4.680248220878355,"geojson_lat":51.98935001482781},"geometry":{"type":"Point","coordinates":[4.680248220878355,51.98935001482781]}},{"type":"Feature","properties":{"highway":"bus_stop","public_transport":"platform","name":"Oostpolderweg","ref:IFOPT":"NL:Q:53410210","_quaycode":"NL:Q:53410210","_town":"Moordrecht","_status":"available","_mode":"bus","_direction":114,"_visuallyAccessible":false,"_disabledAccessible":true,"geojson_lng":4.6772992390395975,"geojson_lat":51.99077940357097},"geometry":{"type":"Point","coordinates":[4.6772992390395975,51.99077940357097]}},{"type":"Feature","properties":{"highway":"bus_stop","public_transport":"platform","name":"De Waal","ref:IFOPT":"NL:Q:53420190","_quaycode":"NL:Q:53420190","_town":"Gouderak","_status":"available","_mode":"bus","_direction":19,"_visuallyAccessible":false,"_disabledAccessible":false,"geojson_lng":4.67631608943071,"geojson_lat":51.986665741587075},"geometry":{"type":"Point","coordinates":[4.67631608943071,51.986665741587075]}}]}