{"type":"FeatureCollection","features":[{"type":"Feature","properties":{"SeqNo":"660583","Type":"S","DHID":"de:05911:5880","Parent":"de:05911:5880","Name":"Bochum Weidestr.","MunicipalityCode":"05911000","Municipality":"Bochum","DistrictCode":"-","District":"-","Description":"","Authority":"VRR","DelfiName":"-","THID":"D917170016F8","LastOperationDate":"2025-02-28T00:00:00","SEV":"nein","longitude":"7,194733","latitude":"51,483981","geojson_lng":7.194733,"geojson_lat":51.483981},"geometry":{"type":"Point","coordinates":[7.194733,51.483981]}},{"type":"Feature","properties":{"SeqNo":"660584","Type":"A","DHID":"de:05911:5880:1","Parent":"de:05911:5880","Name":"Ri. AutoArena","MunicipalityCode":"00000000","Municipality":"-","DistrictCode":"-","District":"-","Description":"Ri. AutoArena","Authority":"VRR","DelfiName":"-","THID":"-","LastOperationDate":"","SEV":"nein","longitude":"7,194787","latitude":"51,484316","geojson_lng":7.194787,"geojson_lat":51.484316},"geometry":{"type":"Point","coordinates":[7.194787,51.484316]}},{"type":"Feature","properties":{"SeqNo":"660585","Type":"A","DHID":"de:05911:5880:2","Parent":"de:05911:5880","Name":"Ri. Westpark","MunicipalityCode":"00000000","Municipality":"-","DistrictCode":"-","District":"-","Description":"Ri. Westpark","Authority":"VRR","DelfiName":"-","THID":"-","LastOperationDate":"","SEV":"nein","longitude":"7,194688","latitude":"51,483662","geojson_lng":7.194688,"geojson_lat":51.483662},"geometry":{"type":"Point","coordinates":[7.194688,51.483662]}},{"type":"Feature","properties":{"SeqNo":"660586","Type":"Q","DHID":"de:05911:5880:0:01","Parent":"de:05911:5880:1","Name":"Ri. AutoArena","MunicipalityCode":"00000000","Municipality":"-","DistrictCode":"-","District":"-","Description":"Ri. AutoArena","Authority":"VRR","DelfiName":"-","THID":"-","LastOperationDate":"","SEV":"nein","longitude":"7,194724","latitude":"51,484311","geojson_lng":7.194724,"geojson_lat":51.484311},"geometry":{"type":"Point","coordinates":[7.194724,51.484311]}},{"type":"Feature","properties":{"SeqNo":"660587","Type":"Q","DHID":"de:05911:5880:0:02","Parent":"de:05911:5880:2","Name":"Ri. Westpark","MunicipalityCode":"00000000","Municipality":"-","DistrictCode":"-","District":"-","Description":"Ri. Westpark","Authority":"VRR","DelfiName":"-","THID":"-","LastOperationDate":"","SEV":"nein","longitude":"7,194751","latitude":"51,483662","geojson_lng":7.194751,"geojson_lat":51.483662},"geometry":{"type":"Point","coordinates":[7.194751,51.483662]}},{"type":"Feature","properties":{"SeqNo":"661123","Type":"S","DHID":"de:05911:6416","Parent":"de:05911:6416","Name":"Bochum AutoArena","MunicipalityCode":"05911000","Municipality":"Bochum","DistrictCode":"-","District":"-","Description":"","Authority":"VRR","DelfiName":"-","THID":"D91717001910","LastOperationDate":"2025-02-28T00:00:00","SEV":"nein","longitude":"7,194436","latitude":"51,487874","geojson_lng":7.194436,"geojson_lat":51.487874},"geometry":{"type":"Point","coordinates":[7.194436,51.487874]}},{"type":"Feature","properties":{"SeqNo":"661124","Type":"A","DHID":"de:05911:6416:1","Parent":"de:05911:6416","Name":"Ri. Gahlensche Str","MunicipalityCode":"00000000","Municipality":"-","DistrictCode":"-","District":"-","Description":"Ri. Gahlensche Str","Authority":"VRR","DelfiName":"-","THID":"-","LastOperationDate":"","SEV":"nein","longitude":"7,194526","latitude":"51,487818","geojson_lng":7.194526,"geojson_lat":51.487818},"geometry":{"type":"Point","coordinates":[7.194526,51.487818]}},{"type":"Feature","properties":{"SeqNo":"661125","Type":"A","DHID":"de:05911:6416:2","Parent":"de:05911:6416","Name":"Ri. Weidestr","MunicipalityCode":"00000000","Municipality":"-","DistrictCode":"-","District":"-","Description":"Ri. Weidestr","Authority":"VRR","DelfiName":"-","THID":"-","LastOperationDate":"","SEV":"nein","longitude":"7,194347","latitude":"51,48793","geojson_lng":7.194347,"geojson_lat":51.48793},"geometry":{"type":"Point","coordinates":[7.194347,51.48793]}},{"type":"Feature","properties":{"SeqNo":"661126","Type":"Q","DHID":"de:05911:6416:0:01","Parent":"de:05911:6416:1","Name":"Ri. Gahlensche Str.","MunicipalityCode":"00000000","Municipality":"-","DistrictCode":"-","District":"-","Description":"Ri. Gahlensche Str.","Authority":"VRR","DelfiName":"-","THID":"-","LastOperationDate":"","SEV":"nein","longitude":"7,194463","latitude":"51,487818","geojson_lng":7.194463,"geojson_lat":51.487818},"geometry":{"type":"Point","coordinates":[7.194463,51.487818]}},{"type":"Feature","properties":{"SeqNo":"661127","Type":"Q","DHID":"de:05911:6416:0:02","Parent":"de:05911:6416:2","Name":"Ri. Weidestr.","MunicipalityCode":"00000000","Municipality":"-","DistrictCode":"-","District":"-","Description":"Ri. Weidestr.","Authority":"VRR","DelfiName":"-","THID":"-","LastOperationDate":"","SEV":"nein","longitude":"7,194418","latitude":"51,487941","geojson_lng":7.194418,"geojson_lat":51.487941},"geometry":{"type":"Point","coordinates":[7.194418,51.487941]}}]}