{"type":"FeatureCollection","features":[{"type":"Feature","properties":{"SeqNo":"530827","Type":"S","DHID":"de:05124:11060","Parent":"de:05124:11060","Name":"Wuppertal Ges.Schule Ronsdorf","MunicipalityCode":"05124000","Municipality":"Wuppertal","DistrictCode":"","District":"","Description":"","Authority":"VRR","DelfiName":"-","THID":"D91404002B34","LastOperationDate":"2025-06-14T00:00:00","SEV":"nein","longitude":"7,19061","latitude":"51,224834","geojson_lng":7.19061,"geojson_lat":51.224834},"geometry":{"type":"Point","coordinates":[7.19061,51.224834]}},{"type":"Feature","properties":{"SeqNo":"530828","Type":"A","DHID":"de:05124:11060:1","Parent":"de:05124:11060","Name":"Stand","MunicipalityCode":"00000000","Municipality":"-","DistrictCode":"-","District":"-","Description":"","Authority":"VRR","DelfiName":"-","THID":"-","LastOperationDate":"","SEV":"nein","longitude":"7,190601","latitude":"51,225222","geojson_lng":7.190601,"geojson_lat":51.225222},"geometry":{"type":"Point","coordinates":[7.190601,51.225222]}},{"type":"Feature","properties":{"SeqNo":"530829","Type":"A","DHID":"de:05124:11060:2","Parent":"de:05124:11060","Name":"Abfahrt","MunicipalityCode":"00000000","Municipality":"-","DistrictCode":"-","District":"-","Description":"","Authority":"VRR","DelfiName":"-","THID":"-","LastOperationDate":"","SEV":"nein","longitude":"7,190592","latitude":"51,224884","geojson_lng":7.190592,"geojson_lat":51.224884},"geometry":{"type":"Point","coordinates":[7.190592,51.224884]}},{"type":"Feature","properties":{"SeqNo":"530830","Type":"Q","DHID":"de:05124:11060:1:B","Parent":"de:05124:11060:1","Name":"Betrieb","MunicipalityCode":"00000000","Municipality":"-","DistrictCode":"-","District":"-","Description":"","Authority":"VRR","DelfiName":"-","THID":"-","LastOperationDate":"","SEV":"nein","longitude":"7,190529","latitude":"51,225245","geojson_lng":7.190529,"geojson_lat":51.225245},"geometry":{"type":"Point","coordinates":[7.190529,51.225245]}},{"type":"Feature","properties":{"SeqNo":"530831","Type":"Q","DHID":"de:05124:11060:1:BBR","Parent":"de:05124:11060:1","Name":"BBR","MunicipalityCode":"00000000","Municipality":"-","DistrictCode":"-","District":"-","Description":"","Authority":"VRR","DelfiName":"-","THID":"-","LastOperationDate":"","SEV":"nein","longitude":"7,190655","latitude":"51,225143","geojson_lng":7.190655,"geojson_lat":51.225143},"geometry":{"type":"Point","coordinates":[7.190655,51.225143]}},{"type":"Feature","properties":{"SeqNo":"530832","Type":"Q","DHID":"de:05124:11060:2:1","Parent":"de:05124:11060:2","Name":"Blutfinke 70","MunicipalityCode":"00000000","Municipality":"-","DistrictCode":"-","District":"-","Description":"","Authority":"VRR","DelfiName":"-","THID":"-","LastOperationDate":"","SEV":"nein","longitude":"7,190529","latitude":"51,224671","geojson_lng":7.190529,"geojson_lat":51.224671},"geometry":{"type":"Point","coordinates":[7.190529,51.224671]}},{"type":"Feature","properties":{"SeqNo":"530833","Type":"Q","DHID":"de:05124:11060:2:2","Parent":"de:05124:11060:2","Name":"Blutfinke 65","MunicipalityCode":"00000000","Municipality":"-","DistrictCode":"-","District":"-","Description":"","Authority":"VRR","DelfiName":"-","THID":"-","LastOperationDate":"","SEV":"nein","longitude":"7,19052","latitude":"51,225188","geojson_lng":7.19052,"geojson_lat":51.225188},"geometry":{"type":"Point","coordinates":[7.19052,51.225188]}},{"type":"Feature","properties":{"SeqNo":"530834","Type":"Q","DHID":"de:05124:11060:2:3","Parent":"de:05124:11060:2","Name":"Ersatzhalt 'Blutfinke 67'","MunicipalityCode":"00000000","Municipality":"-","DistrictCode":"-","District":"-","Description":"","Authority":"VRR","DelfiName":"-","THID":"-","LastOperationDate":"","SEV":"nein","longitude":"7,190637","latitude":"51,225194","geojson_lng":7.190637,"geojson_lat":51.225194},"geometry":{"type":"Point","coordinates":[7.190637,51.225194]}},{"type":"Feature","properties":{"SeqNo":"533175","Type":"S","DHID":"de:05124:11527","Parent":"de:05124:11527","Name":"Wuppertal Holthauser Straße","MunicipalityCode":"05124000","Municipality":"Wuppertal","DistrictCode":"","District":"","Description":"","Authority":"VRR","DelfiName":"-","THID":"D91404002D07","LastOperationDate":"2025-06-14T00:00:00","SEV":"nein","longitude":"7,189603","latitude":"51,227484","geojson_lng":7.189603,"geojson_lat":51.227484},"geometry":{"type":"Point","coordinates":[7.189603,51.227484]}},{"type":"Feature","properties":{"SeqNo":"533176","Type":"A","DHID":"de:05124:11527:1","Parent":"de:05124:11527","Name":"Holthauser Straße","MunicipalityCode":"00000000","Municipality":"-","DistrictCode":"-","District":"-","Description":"","Authority":"VRR","DelfiName":"-","THID":"-","LastOperationDate":"","SEV":"nein","longitude":"7,190125","latitude":"51,227624","geojson_lng":7.190125,"geojson_lat":51.227624},"geometry":{"type":"Point","coordinates":[7.190125,51.227624]}},{"type":"Feature","properties":{"SeqNo":"533177","Type":"A","DHID":"de:05124:11527:2","Parent":"de:05124:11527","Name":"An der Blutfinke","MunicipalityCode":"00000000","Municipality":"-","DistrictCode":"-","District":"-","Description":"","Authority":"VRR","DelfiName":"-","THID":"-","LastOperationDate":"","SEV":"nein","longitude":"7,189577","latitude":"51,227433","geojson_lng":7.189577,"geojson_lat":51.227433},"geometry":{"type":"Point","coordinates":[7.189577,51.227433]}},{"type":"Feature","properties":{"SeqNo":"533178","Type":"Q","DHID":"de:05124:11527:0:1","Parent":"de:05124:11527:1","Name":"iR Schenkstraße","MunicipalityCode":"00000000","Municipality":"-","DistrictCode":"-","District":"-","Description":"","Authority":"VRR","DelfiName":"-","THID":"-","LastOperationDate":"","SEV":"nein","longitude":"7,190232","latitude":"51,22759","geojson_lng":7.190232,"geojson_lat":51.22759},"geometry":{"type":"Point","coordinates":[7.190232,51.22759]}},{"type":"Feature","properties":{"SeqNo":"533180","Type":"Q","DHID":"de:05124:11527:0:3","Parent":"de:05124:11527:2","Name":"Ersatzhalt 'An der Blutfinke'","MunicipalityCode":"00000000","Municipality":"-","DistrictCode":"-","District":"-","Description":"","Authority":"VRR","DelfiName":"-","THID":"-","LastOperationDate":"","SEV":"nein","longitude":"7,189612","latitude":"51,227433","geojson_lng":7.189612,"geojson_lat":51.227433},"geometry":{"type":"Point","coordinates":[7.189612,51.227433]}},{"type":"Feature","properties":{"SeqNo":"533181","Type":"Q","DHID":"de:05124:11527:2:4","Parent":"de:05124:11527:2","Name":"Zur Zeit ohne Funktion","MunicipalityCode":"00000000","Municipality":"-","DistrictCode":"-","District":"-","Description":"","Authority":"VRR","DelfiName":"-","THID":"-","LastOperationDate":"","SEV":"nein","longitude":"7,189783","latitude":"51,22718","geojson_lng":7.189783,"geojson_lat":51.22718},"geometry":{"type":"Point","coordinates":[7.189783,51.22718]}},{"type":"Feature","properties":{"SeqNo":"533240","Type":"S","DHID":"de:05124:11545","Parent":"de:05124:11545","Name":"Wuppertal Am Stall","MunicipalityCode":"05124000","Municipality":"Wuppertal","DistrictCode":"","District":"","Description":"","Authority":"VRR","DelfiName":"-","THID":"D91404002D19","LastOperationDate":"2025-06-14T00:00:00","SEV":"nein","longitude":"7,193817","latitude":"51,221779","geojson_lng":7.193817,"geojson_lat":51.221779},"geometry":{"type":"Point","coordinates":[7.193817,51.221779]}},{"type":"Feature","properties":{"SeqNo":"533241","Type":"Q","DHID":"de:05124:11545:0:1","Parent":"de:05124:11545","Name":"1","MunicipalityCode":"00000000","Municipality":"-","DistrictCode":"-","District":"-","Description":"","Authority":"VRR","DelfiName":"-","THID":"-","LastOperationDate":"","SEV":"nein","longitude":"7,193835","latitude":"51,221779","geojson_lng":7.193835,"geojson_lat":51.221779},"geometry":{"type":"Point","coordinates":[7.193835,51.221779]}},{"type":"Feature","properties":{"SeqNo":"533244","Type":"A","DHID":"de:05124:11546:2","Parent":"de:05124:11546","Name":"BürgerBus","MunicipalityCode":"00000000","Municipality":"-","DistrictCode":"-","District":"-","Description":"","Authority":"VRR","DelfiName":"-","THID":"-","LastOperationDate":"","SEV":"nein","longitude":"7,191562","latitude":"51,220642","geojson_lng":7.191562,"geojson_lat":51.220642},"geometry":{"type":"Point","coordinates":[7.191562,51.220642]}},{"type":"Feature","properties":{"SeqNo":"533246","Type":"Q","DHID":"de:05124:11546:1:BBR","Parent":"de:05124:11546:2","Name":"BBR","MunicipalityCode":"00000000","Municipality":"-","DistrictCode":"-","District":"-","Description":"","Authority":"VRR","DelfiName":"-","THID":"-","LastOperationDate":"","SEV":"nein","longitude":"7,191616","latitude":"51,220637","geojson_lng":7.191616,"geojson_lat":51.220637},"geometry":{"type":"Point","coordinates":[7.191616,51.220637]}},{"type":"Feature","properties":{"SeqNo":"533925","Type":"S","DHID":"de:05124:11783","Parent":"de:05124:11783","Name":"Wuppertal, Lilienstraße","MunicipalityCode":"05124000","Municipality":"Wuppertal","DistrictCode":"","District":"","Description":"","Authority":"VRR","DelfiName":"-","THID":"D91404002E07","LastOperationDate":"2025-06-14T00:00:00","SEV":"nein","longitude":"7,195577","latitude":"51,224356","geojson_lng":7.195577,"geojson_lat":51.224356},"geometry":{"type":"Point","coordinates":[7.195577,51.224356]}},{"type":"Feature","properties":{"SeqNo":"533926","Type":"A","DHID":"de:05124:11783:1","Parent":"de:05124:11783","Name":"Lilienstraße","MunicipalityCode":"00000000","Municipality":"-","DistrictCode":"-","District":"-","Description":"","Authority":"VRR","DelfiName":"-","THID":"-","LastOperationDate":"","SEV":"nein","longitude":"7,195577","latitude":"51,224356","geojson_lng":7.195577,"geojson_lat":51.224356},"geometry":{"type":"Point","coordinates":[7.195577,51.224356]}},{"type":"Feature","properties":{"SeqNo":"533927","Type":"Q","DHID":"de:05124:11783:1:1","Parent":"de:05124:11783:1","Name":"BBR","MunicipalityCode":"00000000","Municipality":"-","DistrictCode":"-","District":"-","Description":"","Authority":"VRR","DelfiName":"-","THID":"-","LastOperationDate":"","SEV":"nein","longitude":"7,195559","latitude":"51,224384","geojson_lng":7.195559,"geojson_lat":51.224384},"geometry":{"type":"Point","coordinates":[7.195559,51.224384]}},{"type":"Feature","properties":{"SeqNo":"533928","Type":"S","DHID":"de:05124:11784","Parent":"de:05124:11784","Name":"Wuppertal, Heckersklef","MunicipalityCode":"05124000","Municipality":"Wuppertal","DistrictCode":"","District":"","Description":"","Authority":"VRR","DelfiName":"-","THID":"D91404002E08","LastOperationDate":"2025-06-14T00:00:00","SEV":"nein","longitude":"7,192056","latitude":"51,224868","geojson_lng":7.192056,"geojson_lat":51.224868},"geometry":{"type":"Point","coordinates":[7.192056,51.224868]}},{"type":"Feature","properties":{"SeqNo":"533929","Type":"A","DHID":"de:05124:11784:1","Parent":"de:05124:11784","Name":"Heckersklef","MunicipalityCode":"00000000","Municipality":"-","DistrictCode":"-","District":"-","Description":"","Authority":"VRR","DelfiName":"-","THID":"-","LastOperationDate":"","SEV":"nein","longitude":"7,192056","latitude":"51,224862","geojson_lng":7.192056,"geojson_lat":51.224862},"geometry":{"type":"Point","coordinates":[7.192056,51.224862]}},{"type":"Feature","properties":{"SeqNo":"533930","Type":"Q","DHID":"de:05124:11784:1:1","Parent":"de:05124:11784:1","Name":"BBR","MunicipalityCode":"00000000","Municipality":"-","DistrictCode":"-","District":"-","Description":"","Authority":"VRR","DelfiName":"-","THID":"-","LastOperationDate":"","SEV":"nein","longitude":"7,192047","latitude":"51,224896","geojson_lng":7.192047,"geojson_lat":51.224896},"geometry":{"type":"Point","coordinates":[7.192047,51.224896]}}]}