{"type":"FeatureCollection","features":[{"type":"Feature","properties":{"SeqNo":"844299","Type":"Q","DHID":"de:14612:89:1:2","Parent":"de:14612:89:1","Name":"Strab. landwärts","MunicipalityCode":"00000000","Municipality":"-","DistrictCode":"-","District":"-","Description":"","Authority":"VVO","DelfiName":"-","THID":"-","LastOperationDate":"","SEV":"nein","longitude":"13,809846","latitude":"51,02296","geojson_lng":13.809846,"geojson_lat":51.02296},"geometry":{"type":"Point","coordinates":[13.809846,51.02296]}},{"type":"Feature","properties":{"SeqNo":"844301","Type":"Q","DHID":"de:14612:89:2:92","Parent":"de:14612:89:2","Name":"Bus landwärts","MunicipalityCode":"00000000","Municipality":"-","DistrictCode":"-","District":"-","Description":"","Authority":"VVO","DelfiName":"-","THID":"-","LastOperationDate":"","SEV":"nein","longitude":"13,810906","latitude":"51,022361","geojson_lng":13.810906,"geojson_lat":51.022361},"geometry":{"type":"Point","coordinates":[13.810906,51.022361]}},{"type":"Feature","properties":{"SeqNo":"844351","Type":"A","DHID":"de:14612:90:1","Parent":"de:14612:90","Name":"Lassalle Strab","MunicipalityCode":"00000000","Municipality":"-","DistrictCode":"-","District":"-","Description":"","Authority":"VVO","DelfiName":"-","THID":"-","LastOperationDate":"","SEV":"nein","longitude":"13,811696","latitude":"51,020677","geojson_lng":13.811696,"geojson_lat":51.020677},"geometry":{"type":"Point","coordinates":[13.811696,51.020677]}},{"type":"Feature","properties":{"SeqNo":"844355","Type":"Q","DHID":"de:14612:90:1:1","Parent":"de:14612:90:1","Name":"Strab. stadtwärts","MunicipalityCode":"00000000","Municipality":"-","DistrictCode":"-","District":"-","Description":"","Authority":"VVO","DelfiName":"-","THID":"-","LastOperationDate":"","SEV":"nein","longitude":"13,81175","latitude":"51,020812","geojson_lng":13.81175,"geojson_lat":51.020812},"geometry":{"type":"Point","coordinates":[13.81175,51.020812]}},{"type":"Feature","properties":{"SeqNo":"844766","Type":"A","DHID":"de:14612:966:2","Parent":"de:14612:966","Name":"Ost","MunicipalityCode":"00000000","Municipality":"-","DistrictCode":"-","District":"-","Description":"","Authority":"VVO","DelfiName":"-","THID":"-","LastOperationDate":"","SEV":"nein","longitude":"13,818452","latitude":"51,026853","geojson_lng":13.818452,"geojson_lat":51.026853},"geometry":{"type":"Point","coordinates":[13.818452,51.026853]}},{"type":"Feature","properties":{"SeqNo":"844769","Type":"Q","DHID":"de:14612:966:2:91","Parent":"de:14612:966:2","Name":"Lewickistr.","MunicipalityCode":"00000000","Municipality":"-","DistrictCode":"-","District":"-","Description":"","Authority":"VVO","DelfiName":"-","THID":"-","LastOperationDate":"","SEV":"nein","longitude":"13,818452","latitude":"51,026853","geojson_lng":13.818452,"geojson_lat":51.026853},"geometry":{"type":"Point","coordinates":[13.818452,51.026853]}},{"type":"Feature","properties":{"SeqNo":"844770","Type":"Q","DHID":"de:14612:966:2:92","Parent":"de:14612:966:2","Name":"Lewickistr.","MunicipalityCode":"00000000","Municipality":"-","DistrictCode":"-","District":"-","Description":"","Authority":"VVO","DelfiName":"-","THID":"-","LastOperationDate":"","SEV":"nein","longitude":"13,818389","latitude":"51,026875","geojson_lng":13.818389,"geojson_lat":51.026875},"geometry":{"type":"Point","coordinates":[13.818389,51.026875]}}]}