{"type":"FeatureCollection","features":[{"type":"Feature","properties":{"SeqNo":"115433","Type":"S","DHID":"de:09174:6799","Parent":"de:09174:6799","Name":"Sulzemoos, Gewerbegebiet P+R","MunicipalityCode":"09174146","Municipality":"Sulzemoos","DistrictCode":"","District":"","Description":"","Authority":"BEG","DelfiName":"-","THID":"D923D6001A8F","LastOperationDate":"2024-12-13T00:00:00","SEV":"nein","longitude":"11,268997","latitude":"48,279845","geojson_lng":11.268997,"geojson_lat":48.279845},"geometry":{"type":"Point","coordinates":[11.268997,48.279845]}},{"type":"Feature","properties":{"SeqNo":"115434","Type":"A","DHID":"de:09174:6799:1","Parent":"de:09174:6799","Name":"Ri M-Pasing","MunicipalityCode":"00000000","Municipality":"-","DistrictCode":"-","District":"-","Description":"","Authority":"BEG","DelfiName":"-","THID":"-","LastOperationDate":"","SEV":"nein","longitude":"11,269051","latitude":"48,279743","geojson_lng":11.269051,"geojson_lat":48.279743},"geometry":{"type":"Point","coordinates":[11.269051,48.279743]}},{"type":"Feature","properties":{"SeqNo":"115435","Type":"A","DHID":"de:09174:6799:2","Parent":"de:09174:6799","Name":"Ri Sulzemoos","MunicipalityCode":"00000000","Municipality":"-","DistrictCode":"-","District":"-","Description":"","Authority":"BEG","DelfiName":"-","THID":"-","LastOperationDate":"","SEV":"nein","longitude":"11,268934","latitude":"48,279971","geojson_lng":11.268934,"geojson_lat":48.279971},"geometry":{"type":"Point","coordinates":[11.268934,48.279971]}},{"type":"Feature","properties":{"SeqNo":"115436","Type":"A","DHID":"de:09174:6799:90","Parent":"de:09174:6799","Name":"P+R","MunicipalityCode":"00000000","Municipality":"-","DistrictCode":"-","District":"-","Description":"","Authority":"BEG","DelfiName":"-","THID":"-","LastOperationDate":"","SEV":"nein","longitude":"11,269078","latitude":"48,280198","geojson_lng":11.269078,"geojson_lat":48.280198},"geometry":{"type":"Point","coordinates":[11.269078,48.280198]}},{"type":"Feature","properties":{"SeqNo":"115437","Type":"Q","DHID":"de:09174:6799:1:1","Parent":"de:09174:6799:1","Name":"Ri. SO / Pasing (S)/Haidhof,Abzw.","MunicipalityCode":"00000000","Municipality":"-","DistrictCode":"-","District":"-","Description":"","Authority":"BEG","DelfiName":"-","THID":"-","LastOperationDate":"","SEV":"nein","longitude":"11,269051","latitude":"48,279743","geojson_lng":11.269051,"geojson_lat":48.279743},"geometry":{"type":"Point","coordinates":[11.269051,48.279743]}},{"type":"Feature","properties":{"SeqNo":"115438","Type":"Q","DHID":"de:09174:6799:2:2","Parent":"de:09174:6799:2","Name":"Ri. NW / Hauptstraße","MunicipalityCode":"00000000","Municipality":"-","DistrictCode":"-","District":"-","Description":"","Authority":"BEG","DelfiName":"-","THID":"-","LastOperationDate":"","SEV":"nein","longitude":"11,268934","latitude":"48,279971","geojson_lng":11.268934,"geojson_lat":48.279971},"geometry":{"type":"Point","coordinates":[11.268934,48.279971]}},{"type":"Feature","properties":{"SeqNo":"115628","Type":"S","DHID":"de:09174:6838","Parent":"de:09174:6838","Name":"Haidhof, Abzw.","MunicipalityCode":"09174146","Municipality":"Sulzemoos","DistrictCode":"","District":"","Description":"","Authority":"BEG","DelfiName":"-","THID":"D923D6001AB6","LastOperationDate":"1999-12-31T00:00:00","SEV":"nein","longitude":"11,269464","latitude":"48,279588","geojson_lng":11.269464,"geojson_lat":48.279588},"geometry":{"type":"Point","coordinates":[11.269464,48.279588]}},{"type":"Feature","properties":{"SeqNo":"115629","Type":"Q","DHID":"de:09174:6838:0:1","Parent":"de:09174:6838","Name":"Ri. Süd / Kreisstraße","MunicipalityCode":"00000000","Municipality":"-","DistrictCode":"-","District":"-","Description":"","Authority":"BEG","DelfiName":"-","THID":"-","LastOperationDate":"","SEV":"nein","longitude":"11,269437","latitude":"48,279181","geojson_lng":11.269437,"geojson_lat":48.279181},"geometry":{"type":"Point","coordinates":[11.269437,48.279181]}},{"type":"Feature","properties":{"SeqNo":"115630","Type":"Q","DHID":"de:09174:6838:0:2","Parent":"de:09174:6838","Name":"Ri. NO / Hauptstraße","MunicipalityCode":"00000000","Municipality":"-","DistrictCode":"-","District":"-","Description":"","Authority":"BEG","DelfiName":"-","THID":"-","LastOperationDate":"","SEV":"nein","longitude":"11,269653","latitude":"48,279857","geojson_lng":11.269653,"geojson_lat":48.279857},"geometry":{"type":"Point","coordinates":[11.269653,48.279857]}}]}