{"type":"FeatureCollection","features":[{"type":"Feature","properties":{"SeqNo":"250517","Type":"S","DHID":"de:09774:2779","Parent":"de:09774:2779","Name":"Offingen","MunicipalityCode":"09774171","Municipality":"Offingen","DistrictCode":"-","District":"-","Description":"","Authority":"BEG","DelfiName":"-","THID":"D9262E000ADB","LastOperationDate":"2025-02-28T00:00:00","SEV":"nein","longitude":"10,376","latitude":"48,481849","geojson_lng":10.376,"geojson_lat":48.481849},"geometry":{"type":"Point","coordinates":[10.376,48.481849]}},{"type":"Feature","properties":{"SeqNo":"250518","Type":"A","DHID":"de:09774:2779:1","Parent":"de:09774:2779","Name":"Zug Ri. UL","MunicipalityCode":"00000000","Municipality":"-","DistrictCode":"-","District":"-","Description":"Zug Ri. UL","Authority":"BEG","DelfiName":"-","THID":"-","LastOperationDate":"","SEV":"nein","longitude":"10,37582","latitude":"48,481938","geojson_lng":10.37582,"geojson_lat":48.481938},"geometry":{"type":"Point","coordinates":[10.37582,48.481938]}},{"type":"Feature","properties":{"SeqNo":"250519","Type":"A","DHID":"de:09774:2779:2","Parent":"de:09774:2779","Name":"Bus","MunicipalityCode":"00000000","Municipality":"-","DistrictCode":"-","District":"-","Description":"Bus","Authority":"BEG","DelfiName":"-","THID":"-","LastOperationDate":"","SEV":"nein","longitude":"10,374598","latitude":"48,481396","geojson_lng":10.374598,"geojson_lat":48.481396},"geometry":{"type":"Point","coordinates":[10.374598,48.481396]}},{"type":"Feature","properties":{"SeqNo":"250520","Type":"A","DHID":"de:09774:2779:3","Parent":"de:09774:2779","Name":"Zug Ri. A","MunicipalityCode":"00000000","Municipality":"-","DistrictCode":"-","District":"-","Description":"Zug Ri. A","Authority":"BEG","DelfiName":"-","THID":"-","LastOperationDate":"","SEV":"nein","longitude":"10,376143","latitude":"48,48173","geojson_lng":10.376143,"geojson_lat":48.48173},"geometry":{"type":"Point","coordinates":[10.376143,48.48173]}},{"type":"Feature","properties":{"SeqNo":"250521","Type":"A","DHID":"de:09774:2779:81","Parent":"de:09774:2779","Name":"B+R Ri. UL","MunicipalityCode":"00000000","Municipality":"-","DistrictCode":"-","District":"-","Description":"B+R Ri. UL","Authority":"BEG","DelfiName":"-","THID":"-","LastOperationDate":"","SEV":"nein","longitude":"10,376467","latitude":"48,481766","geojson_lng":10.376467,"geojson_lat":48.481766},"geometry":{"type":"Point","coordinates":[10.376467,48.481766]}},{"type":"Feature","properties":{"SeqNo":"250522","Type":"A","DHID":"de:09774:2779:82","Parent":"de:09774:2779","Name":"B+R Ri. A","MunicipalityCode":"00000000","Municipality":"-","DistrictCode":"-","District":"-","Description":"B+R Ri. A","Authority":"BEG","DelfiName":"-","THID":"-","LastOperationDate":"","SEV":"nein","longitude":"10,376161","latitude":"48,481486","geojson_lng":10.376161,"geojson_lat":48.481486},"geometry":{"type":"Point","coordinates":[10.376161,48.481486]}},{"type":"Feature","properties":{"SeqNo":"250523","Type":"A","DHID":"de:09774:2779:90","Parent":"de:09774:2779","Name":"Eingang Ri. UL","MunicipalityCode":"00000000","Municipality":"-","DistrictCode":"-","District":"-","Description":"Eingang Ri. UL","Authority":"BEG","DelfiName":"-","THID":"-","LastOperationDate":"","SEV":"nein","longitude":"10,37626","latitude":"48,481748","geojson_lng":10.37626,"geojson_lat":48.481748},"geometry":{"type":"Point","coordinates":[10.37626,48.481748]}},{"type":"Feature","properties":{"SeqNo":"250524","Type":"A","DHID":"de:09774:2779:91","Parent":"de:09774:2779","Name":"Eingang Ri. A","MunicipalityCode":"00000000","Municipality":"-","DistrictCode":"-","District":"-","Description":"Eingang Ri. A","Authority":"BEG","DelfiName":"-","THID":"-","LastOperationDate":"","SEV":"nein","longitude":"10,375919","latitude":"48,481778","geojson_lng":10.375919,"geojson_lat":48.481778},"geometry":{"type":"Point","coordinates":[10.375919,48.481778]}},{"type":"Feature","properties":{"SeqNo":"250525","Type":"A","DHID":"de:09774:2779:92","Parent":"de:09774:2779","Name":"Eingang Ri.UL BSt","MunicipalityCode":"00000000","Municipality":"-","DistrictCode":"-","District":"-","Description":"Eingang Ri.UL BSt","Authority":"BEG","DelfiName":"-","THID":"-","LastOperationDate":"","SEV":"nein","longitude":"10,375829","latitude":"48,482111","geojson_lng":10.375829,"geojson_lat":48.482111},"geometry":{"type":"Point","coordinates":[10.375829,48.482111]}},{"type":"Feature","properties":{"SeqNo":"250526","Type":"A","DHID":"de:09774:2779:93","Parent":"de:09774:2779","Name":"Eingang Ri.A BStr","MunicipalityCode":"00000000","Municipality":"-","DistrictCode":"-","District":"-","Description":"Eingang Ri.A BStr","Authority":"BEG","DelfiName":"-","THID":"-","LastOperationDate":"","SEV":"nein","longitude":"10,375649","latitude":"48,48195","geojson_lng":10.375649,"geojson_lat":48.48195},"geometry":{"type":"Point","coordinates":[10.375649,48.48195]}},{"type":"Feature","properties":{"SeqNo":"250527","Type":"A","DHID":"de:09774:2779:95","Parent":"de:09774:2779","Name":"P+R","MunicipalityCode":"00000000","Municipality":"-","DistrictCode":"-","District":"-","Description":"P+R","Authority":"BEG","DelfiName":"-","THID":"-","LastOperationDate":"","SEV":"nein","longitude":"10,376404","latitude":"48,481206","geojson_lng":10.376404,"geojson_lat":48.481206},"geometry":{"type":"Point","coordinates":[10.376404,48.481206]}},{"type":"Feature","properties":{"SeqNo":"250528","Type":"Q","DHID":"de:09774:2779:1:1","Parent":"de:09774:2779:1","Name":"Gleis 1","MunicipalityCode":"00000000","Municipality":"-","DistrictCode":"-","District":"-","Description":"Gleis 1","Authority":"BEG","DelfiName":"-","THID":"-","LastOperationDate":"","SEV":"nein","longitude":"10,375928","latitude":"48,48192","geojson_lng":10.375928,"geojson_lat":48.48192},"geometry":{"type":"Point","coordinates":[10.375928,48.48192]}},{"type":"Feature","properties":{"SeqNo":"250529","Type":"Q","DHID":"de:09774:2779:2:1","Parent":"de:09774:2779:2","Name":"-> Offingen Mitte","MunicipalityCode":"00000000","Municipality":"-","DistrictCode":"-","District":"-","Description":"-> Offingen Mitte","Authority":"BEG","DelfiName":"-","THID":"-","LastOperationDate":"","SEV":"nein","longitude":"10,374041","latitude":"48,481319","geojson_lng":10.374041,"geojson_lat":48.481319},"geometry":{"type":"Point","coordinates":[10.374041,48.481319]}},{"type":"Feature","properties":{"SeqNo":"250530","Type":"Q","DHID":"de:09774:2779:2:2","Parent":"de:09774:2779:2","Name":"-> Gundremmingen","MunicipalityCode":"00000000","Municipality":"-","DistrictCode":"-","District":"-","Description":"-> Gundremmingen","Authority":"BEG","DelfiName":"-","THID":"-","LastOperationDate":"","SEV":"nein","longitude":"10,374248","latitude":"48,481224","geojson_lng":10.374248,"geojson_lat":48.481224},"geometry":{"type":"Point","coordinates":[10.374248,48.481224]}},{"type":"Feature","properties":{"SeqNo":"250531","Type":"Q","DHID":"de:09774:2779:3:2","Parent":"de:09774:2779:3","Name":"Gleis 2","MunicipalityCode":"00000000","Municipality":"-","DistrictCode":"-","District":"-","Description":"Gleis 2","Authority":"BEG","DelfiName":"-","THID":"-","LastOperationDate":"","SEV":"nein","longitude":"10,375892","latitude":"48,481903","geojson_lng":10.375892,"geojson_lat":48.481903},"geometry":{"type":"Point","coordinates":[10.375892,48.481903]}}]}