{"type":"FeatureCollection","features":[{"type":"Feature","properties":{"SeqNo":"25816","Type":"S","DHID":"de:08126:10620","Parent":"de:08126:10620","Name":"Simprechtshausen Im Sommerrain","MunicipalityCode":"08126056","Municipality":"Mulfingen","DistrictCode":"","District":"","Description":"","Authority":"NVBW","DelfiName":"-","THID":"D91FBE00297C","LastOperationDate":"2025-05-31T00:00:00","SEV":"nein","longitude":"9,837514","latitude":"49,328782","geojson_lng":9.837514,"geojson_lat":49.328782},"geometry":{"type":"Point","coordinates":[9.837514,49.328782]}},{"type":"Feature","properties":{"SeqNo":"25817","Type":"Q","DHID":"de:08126:10620:0:1","Parent":"de:08126:10620","Name":"Ri. Osten (Schrozberg)","MunicipalityCode":"00000000","Municipality":"-","DistrictCode":"-","District":"-","Description":"","Authority":"NVBW","DelfiName":"-","THID":"-","LastOperationDate":"","SEV":"nein","longitude":"9,837388","latitude":"49,328776","geojson_lng":9.837388,"geojson_lat":49.328776},"geometry":{"type":"Point","coordinates":[9.837388,49.328776]}},{"type":"Feature","properties":{"SeqNo":"25818","Type":"Q","DHID":"de:08126:10620:0:2","Parent":"de:08126:10620","Name":"Ri. Westen (Mulfingen)","MunicipalityCode":"00000000","Municipality":"-","DistrictCode":"-","District":"-","Description":"","Authority":"NVBW","DelfiName":"-","THID":"-","LastOperationDate":"","SEV":"nein","longitude":"9,837594","latitude":"49,328799","geojson_lng":9.837594,"geojson_lat":49.328799},"geometry":{"type":"Point","coordinates":[9.837594,49.328799]}},{"type":"Feature","properties":{"SeqNo":"25819","Type":"S","DHID":"de:08126:10621","Parent":"de:08126:10621","Name":"Simprechtshausen Kirche","MunicipalityCode":"08126056","Municipality":"Mulfingen","DistrictCode":"-","District":"-","Description":"","Authority":"NVBW","DelfiName":"-","THID":"D91FBE00297D","LastOperationDate":"2025-06-14T00:00:00","SEV":"nein","longitude":"9,837217","latitude":"49,327066","geojson_lng":9.837217,"geojson_lat":49.327066},"geometry":{"type":"Point","coordinates":[9.837217,49.327066]}},{"type":"Feature","properties":{"SeqNo":"25820","Type":"Q","DHID":"de:08126:10621:0:1","Parent":"de:08126:10621","Name":"1","MunicipalityCode":"00000000","Municipality":"-","DistrictCode":"-","District":"-","Description":"1","Authority":"NVBW","DelfiName":"-","THID":"-","LastOperationDate":"","SEV":"nein","longitude":"9,837226","latitude":"49,327054","geojson_lng":9.837226,"geojson_lat":49.327054},"geometry":{"type":"Point","coordinates":[9.837226,49.327054]}},{"type":"Feature","properties":{"SeqNo":"25821","Type":"Q","DHID":"de:08126:10621:0:2","Parent":"de:08126:10621","Name":"2","MunicipalityCode":"00000000","Municipality":"-","DistrictCode":"-","District":"-","Description":"2","Authority":"NVBW","DelfiName":"-","THID":"-","LastOperationDate":"","SEV":"nein","longitude":"9,837603","latitude":"49,327388","geojson_lng":9.837603,"geojson_lat":49.327388},"geometry":{"type":"Point","coordinates":[9.837603,49.327388]}}]}