{"type":"FeatureCollection","features":[{"type":"Feature","properties":{"SeqNo":"586360","Type":"S","DHID":"de:05374:46137","Parent":"de:05374:46137","Name":"Waldbröl Roseggerschule","MunicipalityCode":"05374044","Municipality":"Waldbröl","DistrictCode":"","District":"","Description":"","Authority":"VRR","DelfiName":"-","THID":"D914FE00B439","LastOperationDate":"2024-12-20T00:00:00","SEV":"nein","longitude":"7,623427","latitude":"50,874216","geojson_lng":7.623427,"geojson_lat":50.874216},"geometry":{"type":"Point","coordinates":[7.623427,50.874216]}},{"type":"Feature","properties":{"SeqNo":"586361","Type":"A","DHID":"de:05374:46137:2","Parent":"de:05374:46137","Name":"Roseggerschule","MunicipalityCode":"00000000","Municipality":"-","DistrictCode":"-","District":"-","Description":"","Authority":"VRR","DelfiName":"-","THID":"-","LastOperationDate":"","SEV":"nein","longitude":"7,623598","latitude":"50,87425","geojson_lng":7.623598,"geojson_lat":50.87425},"geometry":{"type":"Point","coordinates":[7.623598,50.87425]}},{"type":"Feature","properties":{"SeqNo":"586362","Type":"Q","DHID":"de:05374:46137:2:21","Parent":"de:05374:46137:2","Name":"","MunicipalityCode":"00000000","Municipality":"-","DistrictCode":"-","District":"-","Description":"","Authority":"VRR","DelfiName":"-","THID":"-","LastOperationDate":"","SEV":"nein","longitude":"7,623175","latitude":"50,874119","geojson_lng":7.623175,"geojson_lat":50.874119},"geometry":{"type":"Point","coordinates":[7.623175,50.874119]}},{"type":"Feature","properties":{"SeqNo":"586423","Type":"Q","DHID":"de:05374:46171:2:22","Parent":"de:05374:46171:2","Name":"","MunicipalityCode":"00000000","Municipality":"-","DistrictCode":"-","District":"-","Description":"","Authority":"VRR","DelfiName":"-","THID":"-","LastOperationDate":"","SEV":"nein","longitude":"7,61342","latitude":"50,873229","geojson_lng":7.61342,"geojson_lat":50.873229},"geometry":{"type":"Point","coordinates":[7.61342,50.873229]}},{"type":"Feature","properties":{"SeqNo":"586432","Type":"S","DHID":"de:05374:46181","Parent":"de:05374:46181","Name":"Waldbröl Wiedenhof","MunicipalityCode":"05374044","Municipality":"Waldbröl","DistrictCode":"","District":"","Description":"","Authority":"VRR","DelfiName":"-","THID":"D914FE00B465","LastOperationDate":"2025-01-06T00:00:00","SEV":"nein","longitude":"7,619016","latitude":"50,875151","geojson_lng":7.619016,"geojson_lat":50.875151},"geometry":{"type":"Point","coordinates":[7.619016,50.875151]}},{"type":"Feature","properties":{"SeqNo":"586433","Type":"A","DHID":"de:05374:46181:2","Parent":"de:05374:46181","Name":"Wiedenhof","MunicipalityCode":"00000000","Municipality":"-","DistrictCode":"-","District":"-","Description":"","Authority":"VRR","DelfiName":"-","THID":"-","LastOperationDate":"","SEV":"nein","longitude":"7,618908","latitude":"50,875213","geojson_lng":7.618908,"geojson_lat":50.875213},"geometry":{"type":"Point","coordinates":[7.618908,50.875213]}},{"type":"Feature","properties":{"SeqNo":"586434","Type":"Q","DHID":"de:05374:46181:2:21","Parent":"de:05374:46181:2","Name":"","MunicipalityCode":"00000000","Municipality":"-","DistrictCode":"-","District":"-","Description":"","Authority":"VRR","DelfiName":"-","THID":"-","LastOperationDate":"","SEV":"nein","longitude":"7,619968","latitude":"50,874697","geojson_lng":7.619968,"geojson_lat":50.874697},"geometry":{"type":"Point","coordinates":[7.619968,50.874697]}},{"type":"Feature","properties":{"SeqNo":"586435","Type":"Q","DHID":"de:05374:46181:2:22","Parent":"de:05374:46181:2","Name":"","MunicipalityCode":"00000000","Municipality":"-","DistrictCode":"-","District":"-","Description":"","Authority":"VRR","DelfiName":"-","THID":"-","LastOperationDate":"","SEV":"nein","longitude":"7,620822","latitude":"50,874839","geojson_lng":7.620822,"geojson_lat":50.874839},"geometry":{"type":"Point","coordinates":[7.620822,50.874839]}}]}