{"type":"FeatureCollection","features":[{"type":"Feature","properties":{"highway":"bus_stop","public_transport":"platform","name":"Breestraat","ref:IFOPT":"NL:Q:54441010","_quaycode":"NL:Q:54441010","_town":"Leiden","_status":"available","_mode":"bus","_direction":304,"_visuallyAccessible":false,"_disabledAccessible":true,"geojson_lng":4.491287595087557,"geojson_lat":52.157496709852424},"geometry":{"type":"Point","coordinates":[4.491287595087557,52.157496709852424]}},{"type":"Feature","properties":{"highway":"bus_stop","public_transport":"platform","name":"Korevaarstraat","ref:IFOPT":"NL:Q:54443050","_quaycode":"NL:Q:54443050","_town":"Leiden","_status":"available","_mode":"bus","_direction":172,"_visuallyAccessible":false,"_disabledAccessible":true,"geojson_lng":4.493447108439844,"geojson_lat":52.15547272196361},"geometry":{"type":"Point","coordinates":[4.493447108439844,52.15547272196361]}},{"type":"Feature","properties":{"highway":"bus_stop","public_transport":"platform","name":"Korevaarstraat","ref:IFOPT":"NL:Q:54441110","_quaycode":"NL:Q:54441110","_town":"Leiden","_status":"available","_mode":"bus","_direction":326,"_visuallyAccessible":false,"_disabledAccessible":true,"geojson_lng":4.493377930305826,"geojson_lat":52.15601150208311},"geometry":{"type":"Point","coordinates":[4.493377930305826,52.15601150208311]}},{"type":"Feature","properties":{"highway":"bus_stop","public_transport":"platform","name":"Breestraat","ref:IFOPT":"NL:Q:54441160","_quaycode":"NL:Q:54441160","_town":"Leiden","_status":"available","_mode":"bus","_direction":137,"_visuallyAccessible":false,"_disabledAccessible":true,"geojson_lng":4.490220843238003,"geojson_lat":52.158216664778855},"geometry":{"type":"Point","coordinates":[4.490220843238003,52.158216664778855]}},{"type":"Feature","properties":{"highway":"bus_stop","public_transport":"platform","name":"Jan van Houtkade","ref:IFOPT":"NL:Q:54445110","_quaycode":"NL:Q:54445110","_town":"Leiden","_status":"available","_mode":"bus","_direction":270,"_visuallyAccessible":false,"_disabledAccessible":false,"geojson_lng":4.489960736815457,"geojson_lat":52.1537114959639},"geometry":{"type":"Point","coordinates":[4.489960736815457,52.1537114959639]}},{"type":"Feature","properties":{"highway":"bus_stop","public_transport":"platform","name":"Witte Rozenstraat","ref:IFOPT":"NL:Q:54445090","_quaycode":"NL:Q:54445090","_town":"Leiden","_status":"available","_mode":"bus","_direction":303,"_visuallyAccessible":true,"_disabledAccessible":true,"geojson_lng":4.482920280106662,"geojson_lat":52.15428692849476},"geometry":{"type":"Point","coordinates":[4.482920280106662,52.15428692849476]}},{"type":"Feature","properties":{"highway":"bus_stop","public_transport":"platform","name":"Witte Rozenstraat","ref:IFOPT":"NL:Q:54445320","_quaycode":"NL:Q:54445320","_town":"Leiden","_status":"available","_mode":"bus","_direction":124,"_visuallyAccessible":false,"_disabledAccessible":true,"geojson_lng":4.48272979320525,"geojson_lat":52.154312433475496},"geometry":{"type":"Point","coordinates":[4.48272979320525,52.154312433475496]}}]}