{"type":"FeatureCollection","features":[{"type":"Feature","properties":{"SeqNo":"383298","Type":"S","DHID":"de:03460:53523","Parent":"de:03460:53523","Name":"Langförden Combi Markt","MunicipalityCode":"03460009","Municipality":"Vechta","DistrictCode":"","District":"","Description":"","Authority":"VBN","DelfiName":"-","THID":"D90D8400D113","LastOperationDate":"2025-06-14T00:00:00","SEV":"nein","longitude":"8,258523","latitude":"52,783044","geojson_lng":8.258523,"geojson_lat":52.783044},"geometry":{"type":"Point","coordinates":[8.258523,52.783044]}},{"type":"Feature","properties":{"SeqNo":"383299","Type":"Q","DHID":"de:03460:53523::1","Parent":"de:03460:53523","Name":"Langförden Combi Markt","MunicipalityCode":"00000000","Municipality":"-","DistrictCode":"-","District":"-","Description":"","Authority":"VBN","DelfiName":"-","THID":"-","LastOperationDate":"","SEV":"nein","longitude":"8,258508","latitude":"52,783044","geojson_lng":8.258508,"geojson_lat":52.783044},"geometry":{"type":"Point","coordinates":[8.258508,52.783044]}},{"type":"Feature","properties":{"SeqNo":"383300","Type":"Q","DHID":"de:03460:53523::2","Parent":"de:03460:53523","Name":"Langförden Combi Markt","MunicipalityCode":"00000000","Municipality":"-","DistrictCode":"-","District":"-","Description":"","Authority":"VBN","DelfiName":"-","THID":"-","LastOperationDate":"","SEV":"nein","longitude":"8,258538","latitude":"52,783044","geojson_lng":8.258538,"geojson_lat":52.783044},"geometry":{"type":"Point","coordinates":[8.258538,52.783044]}},{"type":"Feature","properties":{"SeqNo":"383302","Type":"Q","DHID":"de:03460:53524::1","Parent":"de:03460:53524","Name":"Langförden Erzeugergroßmarkt","MunicipalityCode":"00000000","Municipality":"-","DistrictCode":"-","District":"-","Description":"","Authority":"VBN","DelfiName":"-","THID":"-","LastOperationDate":"","SEV":"nein","longitude":"8,256466","latitude":"52,789571","geojson_lng":8.256466,"geojson_lat":52.789571},"geometry":{"type":"Point","coordinates":[8.256466,52.789571]}},{"type":"Feature","properties":{"SeqNo":"383307","Type":"S","DHID":"de:03460:53526","Parent":"de:03460:53526","Name":"Langförden Laurentiusplatz","MunicipalityCode":"03460009","Municipality":"Vechta","DistrictCode":"","District":"","Description":"","Authority":"VBN","DelfiName":"-","THID":"D90D8400D116","LastOperationDate":"2025-06-14T00:00:00","SEV":"nein","longitude":"8,254265","latitude":"52,785472","geojson_lng":8.254265,"geojson_lat":52.785472},"geometry":{"type":"Point","coordinates":[8.254265,52.785472]}},{"type":"Feature","properties":{"SeqNo":"383308","Type":"Q","DHID":"de:03460:53526::1","Parent":"de:03460:53526","Name":"Langförden Laurentiusplatz","MunicipalityCode":"00000000","Municipality":"-","DistrictCode":"-","District":"-","Description":"","Authority":"VBN","DelfiName":"-","THID":"-","LastOperationDate":"","SEV":"nein","longitude":"8,254254","latitude":"52,785459","geojson_lng":8.254254,"geojson_lat":52.785459},"geometry":{"type":"Point","coordinates":[8.254254,52.785459]}},{"type":"Feature","properties":{"SeqNo":"383309","Type":"Q","DHID":"de:03460:53526::2","Parent":"de:03460:53526","Name":"Langförden Laurentiusplatz","MunicipalityCode":"00000000","Municipality":"-","DistrictCode":"-","District":"-","Description":"","Authority":"VBN","DelfiName":"-","THID":"-","LastOperationDate":"","SEV":"nein","longitude":"8,254033","latitude":"52,785083","geojson_lng":8.254033,"geojson_lat":52.785083},"geometry":{"type":"Point","coordinates":[8.254033,52.785083]}},{"type":"Feature","properties":{"SeqNo":"383310","Type":"Q","DHID":"de:03460:53526::3","Parent":"de:03460:53526","Name":"Langförden Laurentiusplatz","MunicipalityCode":"00000000","Municipality":"-","DistrictCode":"-","District":"-","Description":"","Authority":"VBN","DelfiName":"-","THID":"-","LastOperationDate":"","SEV":"nein","longitude":"8,254364","latitude":"52,785651","geojson_lng":8.254364,"geojson_lat":52.785651},"geometry":{"type":"Point","coordinates":[8.254364,52.785651]}},{"type":"Feature","properties":{"SeqNo":"383311","Type":"Q","DHID":"de:03460:53526::4","Parent":"de:03460:53526","Name":"Langförden Laurentiusplatz","MunicipalityCode":"00000000","Municipality":"-","DistrictCode":"-","District":"-","Description":"","Authority":"VBN","DelfiName":"-","THID":"-","LastOperationDate":"","SEV":"nein","longitude":"8,254408","latitude":"52,785696","geojson_lng":8.254408,"geojson_lat":52.785696},"geometry":{"type":"Point","coordinates":[8.254408,52.785696]}},{"type":"Feature","properties":{"SeqNo":"383318","Type":"S","DHID":"de:03460:53529","Parent":"de:03460:53529","Name":"Langförden Schule","MunicipalityCode":"03460009","Municipality":"Vechta","DistrictCode":"","District":"","Description":"","Authority":"VBN","DelfiName":"-","THID":"D90D8400D119","LastOperationDate":"2025-06-13T00:00:00","SEV":"nein","longitude":"8,254086","latitude":"52,783561","geojson_lng":8.254086,"geojson_lat":52.783561},"geometry":{"type":"Point","coordinates":[8.254086,52.783561]}},{"type":"Feature","properties":{"SeqNo":"383319","Type":"Q","DHID":"de:03460:53529::1","Parent":"de:03460:53529","Name":"Langförden Schule","MunicipalityCode":"00000000","Municipality":"-","DistrictCode":"-","District":"-","Description":"","Authority":"VBN","DelfiName":"-","THID":"-","LastOperationDate":"","SEV":"nein","longitude":"8,254086","latitude":"52,783558","geojson_lng":8.254086,"geojson_lat":52.783558},"geometry":{"type":"Point","coordinates":[8.254086,52.783558]}},{"type":"Feature","properties":{"SeqNo":"383320","Type":"Q","DHID":"de:03460:53529::2","Parent":"de:03460:53529","Name":"Langförden Schule","MunicipalityCode":"00000000","Municipality":"-","DistrictCode":"-","District":"-","Description":"","Authority":"VBN","DelfiName":"-","THID":"-","LastOperationDate":"","SEV":"nein","longitude":"8,254086","latitude":"52,783563","geojson_lng":8.254086,"geojson_lat":52.783563},"geometry":{"type":"Point","coordinates":[8.254086,52.783563]}}]}