{"type":"FeatureCollection","features":[{"type":"Feature","properties":{"SeqNo":"62107","Type":"S","DHID":"de:08317:18854","Parent":"de:08317:18854","Name":"Reichenbach Schulhaus","MunicipalityCode":"08317051","Municipality":"Hornberg","DistrictCode":"","District":"","Description":"","Authority":"NVBW","DelfiName":"-","THID":"D9207D0049A6","LastOperationDate":"2025-06-06T00:00:00","SEV":"nein","longitude":"8,259443","latitude":"48,218771","geojson_lng":8.259443,"geojson_lat":48.218771},"geometry":{"type":"Point","coordinates":[8.259443,48.218771]}},{"type":"Feature","properties":{"SeqNo":"62108","Type":"A","DHID":"de:08317:18854:1","Parent":"de:08317:18854","Name":"Bus","MunicipalityCode":"00000000","Municipality":"-","DistrictCode":"-","District":"-","Description":"","Authority":"NVBW","DelfiName":"-","THID":"-","LastOperationDate":"","SEV":"nein","longitude":"8,259407","latitude":"48,218741","geojson_lng":8.259407,"geojson_lat":48.218741},"geometry":{"type":"Point","coordinates":[8.259407,48.218741]}},{"type":"Feature","properties":{"SeqNo":"62109","Type":"Q","DHID":"de:08317:18854:1:1","Parent":"de:08317:18854:1","Name":"Steig 1","MunicipalityCode":"00000000","Municipality":"-","DistrictCode":"-","District":"-","Description":"","Authority":"NVBW","DelfiName":"-","THID":"-","LastOperationDate":"","SEV":"nein","longitude":"8,259506","latitude":"48,218765","geojson_lng":8.259506,"geojson_lat":48.218765},"geometry":{"type":"Point","coordinates":[8.259506,48.218765]}},{"type":"Feature","properties":{"SeqNo":"62110","Type":"Q","DHID":"de:08317:18854:1:2","Parent":"de:08317:18854:1","Name":"Steig 2","MunicipalityCode":"00000000","Municipality":"-","DistrictCode":"-","District":"-","Description":"","Authority":"NVBW","DelfiName":"-","THID":"-","LastOperationDate":"","SEV":"nein","longitude":"8,259515","latitude":"48,218753","geojson_lng":8.259515,"geojson_lat":48.218753},"geometry":{"type":"Point","coordinates":[8.259515,48.218753]}},{"type":"Feature","properties":{"SeqNo":"62131","Type":"S","DHID":"de:08317:18862","Parent":"de:08317:18862","Name":"Hornberg Abzw. Reichenbach","MunicipalityCode":"08317051","Municipality":"Hornberg","DistrictCode":"","District":"","Description":"","Authority":"NVBW","DelfiName":"-","THID":"D9207D0049AE","LastOperationDate":"2025-06-14T00:00:00","SEV":"nein","longitude":"8,256604","latitude":"48,218358","geojson_lng":8.256604,"geojson_lat":48.218358},"geometry":{"type":"Point","coordinates":[8.256604,48.218358]}},{"type":"Feature","properties":{"SeqNo":"62132","Type":"A","DHID":"de:08317:18862:1","Parent":"de:08317:18862","Name":"Bus","MunicipalityCode":"00000000","Municipality":"-","DistrictCode":"-","District":"-","Description":"","Authority":"NVBW","DelfiName":"-","THID":"-","LastOperationDate":"","SEV":"nein","longitude":"8,256631","latitude":"48,21834","geojson_lng":8.256631,"geojson_lat":48.21834},"geometry":{"type":"Point","coordinates":[8.256631,48.21834]}},{"type":"Feature","properties":{"SeqNo":"62133","Type":"Q","DHID":"de:08317:18862:1:1","Parent":"de:08317:18862:1","Name":"Steig 1","MunicipalityCode":"00000000","Municipality":"-","DistrictCode":"-","District":"-","Description":"","Authority":"NVBW","DelfiName":"-","THID":"-","LastOperationDate":"","SEV":"nein","longitude":"8,25664","latitude":"48,218334","geojson_lng":8.25664,"geojson_lat":48.218334},"geometry":{"type":"Point","coordinates":[8.25664,48.218334]}},{"type":"Feature","properties":{"SeqNo":"62134","Type":"Q","DHID":"de:08317:18862:1:2","Parent":"de:08317:18862:1","Name":"Steig 2","MunicipalityCode":"00000000","Municipality":"-","DistrictCode":"-","District":"-","Description":"","Authority":"NVBW","DelfiName":"-","THID":"-","LastOperationDate":"","SEV":"nein","longitude":"8,256658","latitude":"48,218322","geojson_lng":8.256658,"geojson_lat":48.218322},"geometry":{"type":"Point","coordinates":[8.256658,48.218322]}}]}