{"type":"FeatureCollection","features":[{"type":"Feature","properties":{"highway":"bus_stop","public_transport":"platform","name":"Urkerpad","ref:IFOPT":"NL:Q:46660100","_quaycode":"NL:Q:46660100","_town":"Wanneperveen","_status":"available","_mode":"bus","_direction":77,"_visuallyAccessible":false,"_disabledAccessible":false,"geojson_lng":6.133146666151704,"geojson_lat":52.70595618567888},"geometry":{"type":"Point","coordinates":[6.133146666151704,52.70595618567888]}},{"type":"Feature","properties":{"highway":"bus_stop","public_transport":"platform","name":"Gasthuisdijk","ref:IFOPT":"NL:Q:46660050","_quaycode":"NL:Q:46660050","_town":"Dinxterveen","_status":"available","_mode":"bus","_direction":239,"_visuallyAccessible":false,"_disabledAccessible":false,"geojson_lng":6.1418443929882836,"geojson_lat":52.70839978328445},"geometry":{"type":"Point","coordinates":[6.1418443929882836,52.70839978328445]}},{"type":"Feature","properties":{"highway":"bus_stop","public_transport":"platform","name":"Perceel 44","ref:IFOPT":"NL:Q:46660070","_quaycode":"NL:Q:46660070","_town":"Dinxterveen","_status":"available","_mode":"bus","_direction":258,"_visuallyAccessible":false,"_disabledAccessible":false,"geojson_lng":6.136610815488904,"geojson_lat":52.70693199733953},"geometry":{"type":"Point","coordinates":[6.136610815488904,52.70693199733953]}},{"type":"Feature","properties":{"highway":"bus_stop","public_transport":"platform","name":"Urkerpad","ref:IFOPT":"NL:Q:46660090","_quaycode":"NL:Q:46660090","_town":"Wanneperveen","_status":"available","_mode":"bus","_direction":257,"_visuallyAccessible":false,"_disabledAccessible":false,"geojson_lng":6.132450866228688,"geojson_lat":52.70593358445288},"geometry":{"type":"Point","coordinates":[6.132450866228688,52.70593358445288]}},{"type":"Feature","properties":{"highway":"bus_stop","public_transport":"platform","name":"Gasthuisdijk","ref:IFOPT":"NL:Q:46660060","_quaycode":"NL:Q:46660060","_town":"Dinxterveen","_status":"available","_mode":"bus","_direction":59,"_visuallyAccessible":false,"_disabledAccessible":false,"geojson_lng":6.141676701583786,"geojson_lat":52.708113255745744},"geometry":{"type":"Point","coordinates":[6.141676701583786,52.708113255745744]}},{"type":"Feature","properties":{"highway":"bus_stop","public_transport":"platform","name":"Perceel 44","ref:IFOPT":"NL:Q:46660080","_quaycode":"NL:Q:46660080","_town":"Dinxterveen","_status":"available","_mode":"bus","_direction":78,"_visuallyAccessible":false,"_disabledAccessible":false,"geojson_lng":6.136564129774237,"geojson_lat":52.706797483126664},"geometry":{"type":"Point","coordinates":[6.136564129774237,52.706797483126664]}}]}