{"type":"FeatureCollection","features":[{"type":"Feature","properties":{"highway":"bus_stop","public_transport":"platform","name":"Bahnhof","ref:IFOPT":"DE:Q:80000410","_quaycode":"DE:Q:80000410","_town":"Kleve","_status":"available","_mode":"bus","_direction":140,"_visuallyAccessible":true,"_disabledAccessible":true,"geojson_lng":6.145181583810461,"geojson_lat":51.78995924792751},"geometry":{"type":"Point","coordinates":[6.145181583810461,51.78995924792751]}},{"type":"Feature","properties":{"highway":"bus_stop","public_transport":"platform","name":"Gruftstraße","ref:IFOPT":"DE:Q:80001140","_quaycode":"DE:Q:80001140","_town":"Kleve","_status":"available","_mode":"bus","_direction":299,"_visuallyAccessible":false,"_disabledAccessible":true,"geojson_lng":6.130301226345539,"geojson_lat":51.7937819678337},"geometry":{"type":"Point","coordinates":[6.130301226345539,51.7937819678337]}},{"type":"Feature","properties":{"highway":"bus_stop","public_transport":"platform","name":"Gruftstraße","ref:IFOPT":"DE:Q:80001150","_quaycode":"DE:Q:80001150","_town":"Kleve","_status":"available","_mode":"bus","_direction":120,"_visuallyAccessible":false,"_disabledAccessible":false,"geojson_lng":6.13026713783616,"geojson_lat":51.793661714933215},"geometry":{"type":"Point","coordinates":[6.13026713783616,51.793661714933215]}},{"type":"Feature","properties":{"highway":"bus_stop","public_transport":"platform","name":"Bahnhof","ref:IFOPT":"DE:Q:80000420","_quaycode":"DE:Q:80000420","_town":"Kleve","_status":"available","_mode":"bus","_direction":320,"_visuallyAccessible":true,"_disabledAccessible":true,"geojson_lng":6.144998913032846,"geojson_lat":51.7903020005201},"geometry":{"type":"Point","coordinates":[6.144998913032846,51.7903020005201]}},{"type":"Feature","properties":{"highway":"bus_stop","public_transport":"platform","name":"Koekkoekplatz","ref:IFOPT":"DE:Q:80001120","_quaycode":"DE:Q:80001120","_town":"Kleve","_status":"available","_mode":"bus","_direction":250,"_visuallyAccessible":false,"_disabledAccessible":true,"geojson_lng":6.1371493570410225,"geojson_lat":51.79064268249817},"geometry":{"type":"Point","coordinates":[6.1371493570410225,51.79064268249817]}},{"type":"Feature","properties":{"highway":"bus_stop","public_transport":"platform","name":"Koekkoekplatz","ref:IFOPT":"DE:Q:80001130","_quaycode":"DE:Q:80001130","_town":"Kleve","_status":"available","_mode":"bus","_direction":66,"_visuallyAccessible":false,"_disabledAccessible":true,"geojson_lng":6.138073550789673,"geojson_lat":51.79049037152667},"geometry":{"type":"Point","coordinates":[6.138073550789673,51.79049037152667]}},{"type":"Feature","properties":{"highway":"bus_stop","public_transport":"platform","name":"Hochschule","ref:IFOPT":"DE:Q:80001200","_quaycode":"DE:Q:80001200","_town":"Kleve","_status":"available","_mode":"bus","_direction":245,"_visuallyAccessible":true,"_disabledAccessible":true,"geojson_lng":6.145181165241892,"geojson_lat":51.793335621376016},"geometry":{"type":"Point","coordinates":[6.145181165241892,51.793335621376016]}},{"type":"Feature","properties":{"highway":"bus_stop","public_transport":"platform","name":"Hochschule","ref:IFOPT":"DE:Q:80001210","_quaycode":"DE:Q:80001210","_town":"Kleve","_status":"available","_mode":"bus","_direction":58,"_visuallyAccessible":false,"_disabledAccessible":true,"geojson_lng":6.146427732744952,"geojson_lat":51.79339118866821},"geometry":{"type":"Point","coordinates":[6.146427732744952,51.79339118866821]}}]}