{"type":"FeatureCollection","features":[{"type":"Feature","properties":{"SeqNo":"169780","Type":"S","DHID":"de:09279:3409","Parent":"de:09279:3409","Name":"Hörmannsdorf","MunicipalityCode":"09279113","Municipality":"Eichendorf","DistrictCode":"","District":"","Description":"","Authority":"BEG","DelfiName":"-","THID":"D9243F000D51","LastOperationDate":"2025-06-13T00:00:00","SEV":"nein","longitude":"12,842836","latitude":"48,648504","geojson_lng":12.842836,"geojson_lat":48.648504},"geometry":{"type":"Point","coordinates":[12.842836,48.648504]}},{"type":"Feature","properties":{"SeqNo":"169781","Type":"Q","DHID":"de:09279:3409:0:1","Parent":"de:09279:3409","Name":"Hörmannsdorf Ri. Ost","MunicipalityCode":"00000000","Municipality":"-","DistrictCode":"-","District":"-","Description":"","Authority":"BEG","DelfiName":"-","THID":"-","LastOperationDate":"","SEV":"nein","longitude":"12,842926","latitude":"48,648498","geojson_lng":12.842926,"geojson_lat":48.648498},"geometry":{"type":"Point","coordinates":[12.842926,48.648498]}},{"type":"Feature","properties":{"SeqNo":"169782","Type":"Q","DHID":"de:09279:3409:0:2","Parent":"de:09279:3409","Name":"Hörmannsdorf Ri. West","MunicipalityCode":"00000000","Municipality":"-","DistrictCode":"-","District":"-","Description":"","Authority":"BEG","DelfiName":"-","THID":"-","LastOperationDate":"","SEV":"nein","longitude":"12,84289","latitude":"48,64851","geojson_lng":12.84289,"geojson_lat":48.64851},"geometry":{"type":"Point","coordinates":[12.84289,48.64851]}},{"type":"Feature","properties":{"SeqNo":"169869","Type":"S","DHID":"de:09279:344","Parent":"de:09279:344","Name":"Berg","MunicipalityCode":"09279113","Municipality":"Eichendorf","DistrictCode":"","District":"","Description":"","Authority":"BEG","DelfiName":"-","THID":"D9243F000158","LastOperationDate":"2025-06-13T00:00:00","SEV":"nein","longitude":"12,840177","latitude":"48,653151","geojson_lng":12.840177,"geojson_lat":48.653151},"geometry":{"type":"Point","coordinates":[12.840177,48.653151]}},{"type":"Feature","properties":{"SeqNo":"169870","Type":"Q","DHID":"de:09279:344:0:1","Parent":"de:09279:344","Name":"Berg Ri. Nord","MunicipalityCode":"00000000","Municipality":"-","DistrictCode":"-","District":"-","Description":"","Authority":"BEG","DelfiName":"-","THID":"-","LastOperationDate":"","SEV":"nein","longitude":"12,840267","latitude":"48,653151","geojson_lng":12.840267,"geojson_lat":48.653151},"geometry":{"type":"Point","coordinates":[12.840267,48.653151]}},{"type":"Feature","properties":{"SeqNo":"169871","Type":"Q","DHID":"de:09279:344:0:2","Parent":"de:09279:344","Name":"Berg Ri. Süd","MunicipalityCode":"00000000","Municipality":"-","DistrictCode":"-","District":"-","Description":"","Authority":"BEG","DelfiName":"-","THID":"-","LastOperationDate":"","SEV":"nein","longitude":"12,840141","latitude":"48,653139","geojson_lng":12.840141,"geojson_lat":48.653139},"geometry":{"type":"Point","coordinates":[12.840141,48.653139]}}]}