{"type":"FeatureCollection","features":[{"type":"Feature","properties":{"highway":"bus_stop","public_transport":"platform","name":"Centrum Oost","ref:IFOPT":"NL:Q:60000590","_quaycode":"NL:Q:60000590","_town":"Nijmegen","_status":"available","_mode":"bus","_direction":246,"_visuallyAccessible":true,"_disabledAccessible":false,"geojson_lng":5.872506913618859,"geojson_lat":51.844760630440334},"geometry":{"type":"Point","coordinates":[5.872506913618859,51.844760630440334]}},{"type":"Feature","properties":{"highway":"bus_stop","public_transport":"platform","name":"Centrum Oost","ref:IFOPT":"NL:Q:60000600","_quaycode":"NL:Q:60000600","_town":"Nijmegen","_status":"available","_mode":"bus","_direction":63,"_visuallyAccessible":true,"_disabledAccessible":false,"geojson_lng":5.872153994256949,"geojson_lat":51.844330642586414},"geometry":{"type":"Point","coordinates":[5.872153994256949,51.844330642586414]}},{"type":"Feature","properties":{"highway":"bus_stop","public_transport":"platform","name":"Hunnerpark","ref:IFOPT":"NL:Q:60000200","_quaycode":"NL:Q:60000200","_town":"Nijmegen","_status":"available","_mode":"bus","_direction":295,"_visuallyAccessible":true,"_disabledAccessible":true,"geojson_lng":5.872254909772578,"geojson_lat":51.84561557758302},"geometry":{"type":"Point","coordinates":[5.872254909772578,51.84561557758302]}},{"type":"Feature","properties":{"highway":"bus_stop","public_transport":"platform","name":"Terwindtstraat","ref:IFOPT":"NL:Q:60000230","_quaycode":"NL:Q:60000230","_town":"Nijmegen","_status":"available","_mode":"bus","_direction":57,"_visuallyAccessible":true,"_disabledAccessible":true,"geojson_lng":5.874848007548142,"geojson_lat":51.84519136054519},"geometry":{"type":"Point","coordinates":[5.874848007548142,51.84519136054519]}},{"type":"Feature","properties":{"highway":"bus_stop","public_transport":"platform","name":"Hunnerpark","ref:IFOPT":"NL:Q:60000070","_quaycode":"NL:Q:60000070","_town":"Nijmegen","_status":"available","_mode":"bus","_direction":116,"_visuallyAccessible":true,"_disabledAccessible":true,"geojson_lng":5.872353391336398,"geojson_lat":51.84532753925157},"geometry":{"type":"Point","coordinates":[5.872353391336398,51.84532753925157]}},{"type":"Feature","properties":{"highway":"bus_stop","public_transport":"platform","name":"Mariaplein","ref:IFOPT":"NL:Q:60005480","_quaycode":"NL:Q:60005480","_town":"Nijmegen","_status":"available","_mode":"bus","_direction":275,"_visuallyAccessible":false,"_disabledAccessible":false,"geojson_lng":5.873039041367566,"geojson_lat":51.84296972144868},"geometry":{"type":"Point","coordinates":[5.873039041367566,51.84296972144868]}},{"type":"Feature","properties":{"highway":"bus_stop","public_transport":"platform","name":"Mr. Franckenstraat","ref:IFOPT":"NL:Q:60005360","_quaycode":"NL:Q:60005360","_town":"Nijmegen","_status":"available","_mode":"bus","_direction":345,"_visuallyAccessible":false,"_disabledAccessible":true,"geojson_lng":5.873502855135785,"geojson_lat":51.84426214108946},"geometry":{"type":"Point","coordinates":[5.873502855135785,51.84426214108946]}},{"type":"Feature","properties":{"highway":"bus_stop","public_transport":"platform","name":"Mariaplein","ref:IFOPT":"NL:Q:60005490","_quaycode":"NL:Q:60005490","_town":"Nijmegen","_status":"available","_mode":"bus","_direction":96,"_visuallyAccessible":false,"_disabledAccessible":false,"geojson_lng":5.872661471087882,"geojson_lat":51.8429443186606},"geometry":{"type":"Point","coordinates":[5.872661471087882,51.8429443186606]}},{"type":"Feature","properties":{"highway":"bus_stop","public_transport":"platform","name":"Mr. Franckenstraat","ref:IFOPT":"NL:Q:60005370","_quaycode":"NL:Q:60005370","_town":"Nijmegen","_status":"available","_mode":"bus","_direction":168,"_visuallyAccessible":false,"_disabledAccessible":true,"geojson_lng":5.873454273458124,"geojson_lat":51.84379494155976},"geometry":{"type":"Point","coordinates":[5.873454273458124,51.84379494155976]}}]}