{"type":"FeatureCollection","features":[{"type":"Feature","properties":{"SeqNo":"544967","Type":"S","DHID":"de:05162:20403","Parent":"de:05162:20403","Name":"Neuss Böhmerstr.","MunicipalityCode":"05162024","Municipality":"Neuss","DistrictCode":"","District":"","Description":"","Authority":"VRR","DelfiName":"-","THID":"D9142A004FB3","LastOperationDate":"2025-06-14T00:00:00","SEV":"nein","longitude":"6,660442","latitude":"51,224648","geojson_lng":6.660442,"geojson_lat":51.224648},"geometry":{"type":"Point","coordinates":[6.660442,51.224648]}},{"type":"Feature","properties":{"SeqNo":"544968","Type":"A","DHID":"de:05162:20403:1","Parent":"de:05162:20403","Name":"Einstieg","MunicipalityCode":"00000000","Municipality":"-","DistrictCode":"-","District":"-","Description":"","Authority":"VRR","DelfiName":"-","THID":"-","LastOperationDate":"","SEV":"nein","longitude":"6,661241","latitude":"51,224879","geojson_lng":6.661241,"geojson_lat":51.224879},"geometry":{"type":"Point","coordinates":[6.661241,51.224879]}},{"type":"Feature","properties":{"SeqNo":"544969","Type":"A","DHID":"de:05162:20403:2","Parent":"de:05162:20403","Name":"Ausstieg","MunicipalityCode":"00000000","Municipality":"-","DistrictCode":"-","District":"-","Description":"","Authority":"VRR","DelfiName":"-","THID":"-","LastOperationDate":"","SEV":"nein","longitude":"6,659939","latitude":"51,224496","geojson_lng":6.659939,"geojson_lat":51.224496},"geometry":{"type":"Point","coordinates":[6.659939,51.224496]}},{"type":"Feature","properties":{"SeqNo":"544970","Type":"A","DHID":"de:05162:20403:3","Parent":"de:05162:20403","Name":"Wartehalt","MunicipalityCode":"00000000","Municipality":"-","DistrictCode":"-","District":"-","Description":"","Authority":"VRR","DelfiName":"-","THID":"-","LastOperationDate":"","SEV":"nein","longitude":"6,660649","latitude":"51,224406","geojson_lng":6.660649,"geojson_lat":51.224406},"geometry":{"type":"Point","coordinates":[6.660649,51.224406]}},{"type":"Feature","properties":{"SeqNo":"544971","Type":"Q","DHID":"de:05162:20403:1:1","Parent":"de:05162:20403:1","Name":"1","MunicipalityCode":"00000000","Municipality":"-","DistrictCode":"-","District":"-","Description":"","Authority":"VRR","DelfiName":"-","THID":"-","LastOperationDate":"","SEV":"nein","longitude":"6,661232","latitude":"51,224879","geojson_lng":6.661232,"geojson_lat":51.224879},"geometry":{"type":"Point","coordinates":[6.661232,51.224879]}},{"type":"Feature","properties":{"SeqNo":"544972","Type":"Q","DHID":"de:05162:20403:2:2","Parent":"de:05162:20403:2","Name":"2","MunicipalityCode":"00000000","Municipality":"-","DistrictCode":"-","District":"-","Description":"","Authority":"VRR","DelfiName":"-","THID":"-","LastOperationDate":"","SEV":"nein","longitude":"6,659957","latitude":"51,224502","geojson_lng":6.659957,"geojson_lat":51.224502},"geometry":{"type":"Point","coordinates":[6.659957,51.224502]}},{"type":"Feature","properties":{"SeqNo":"544973","Type":"Q","DHID":"de:05162:20403:3:3","Parent":"de:05162:20403:3","Name":"3","MunicipalityCode":"00000000","Municipality":"-","DistrictCode":"-","District":"-","Description":"","Authority":"VRR","DelfiName":"-","THID":"-","LastOperationDate":"","SEV":"nein","longitude":"6,66064","latitude":"51,224418","geojson_lng":6.66064,"geojson_lat":51.224418},"geometry":{"type":"Point","coordinates":[6.66064,51.224418]}},{"type":"Feature","properties":{"SeqNo":"544974","Type":"S","DHID":"de:05162:20404","Parent":"de:05162:20404","Name":"Neuss Schmolzstr.","MunicipalityCode":"05162024","Municipality":"Neuss","DistrictCode":"","District":"","Description":"","Authority":"VRR","DelfiName":"-","THID":"D9142A004FB4","LastOperationDate":"2025-06-14T00:00:00","SEV":"nein","longitude":"6,657936","latitude":"51,222876","geojson_lng":6.657936,"geojson_lat":51.222876},"geometry":{"type":"Point","coordinates":[6.657936,51.222876]}},{"type":"Feature","properties":{"SeqNo":"544975","Type":"A","DHID":"de:05162:20404:1","Parent":"de:05162:20404","Name":"Bus","MunicipalityCode":"00000000","Municipality":"-","DistrictCode":"-","District":"-","Description":"","Authority":"VRR","DelfiName":"-","THID":"-","LastOperationDate":"","SEV":"nein","longitude":"6,657837","latitude":"51,222865","geojson_lng":6.657837,"geojson_lat":51.222865},"geometry":{"type":"Point","coordinates":[6.657837,51.222865]}},{"type":"Feature","properties":{"SeqNo":"544976","Type":"Q","DHID":"de:05162:20404:1:2","Parent":"de:05162:20404:1","Name":"2","MunicipalityCode":"00000000","Municipality":"-","DistrictCode":"-","District":"-","Description":"","Authority":"VRR","DelfiName":"-","THID":"-","LastOperationDate":"","SEV":"nein","longitude":"6,657828","latitude":"51,222837","geojson_lng":6.657828,"geojson_lat":51.222837},"geometry":{"type":"Point","coordinates":[6.657828,51.222837]}},{"type":"Feature","properties":{"SeqNo":"544977","Type":"S","DHID":"de:05162:20405","Parent":"de:05162:20405","Name":"Neuss Böcklerstr.","MunicipalityCode":"05162024","Municipality":"Neuss","DistrictCode":"","District":"","Description":"","Authority":"VRR","DelfiName":"-","THID":"D9142A004FB5","LastOperationDate":"2025-06-14T00:00:00","SEV":"nein","longitude":"6,665005","latitude":"51,225863","geojson_lng":6.665005,"geojson_lat":51.225863},"geometry":{"type":"Point","coordinates":[6.665005,51.225863]}},{"type":"Feature","properties":{"SeqNo":"544978","Type":"A","DHID":"de:05162:20405:1","Parent":"de:05162:20405","Name":"Bus","MunicipalityCode":"00000000","Municipality":"-","DistrictCode":"-","District":"-","Description":"","Authority":"VRR","DelfiName":"-","THID":"-","LastOperationDate":"","SEV":"nein","longitude":"6,664889","latitude":"51,225824","geojson_lng":6.664889,"geojson_lat":51.225824},"geometry":{"type":"Point","coordinates":[6.664889,51.225824]}},{"type":"Feature","properties":{"SeqNo":"544979","Type":"Q","DHID":"de:05162:20405:1:1","Parent":"de:05162:20405:1","Name":"Steig 1","MunicipalityCode":"00000000","Municipality":"-","DistrictCode":"-","District":"-","Description":"","Authority":"VRR","DelfiName":"-","THID":"-","LastOperationDate":"","SEV":"nein","longitude":"6,664781","latitude":"51,225785","geojson_lng":6.664781,"geojson_lat":51.225785},"geometry":{"type":"Point","coordinates":[6.664781,51.225785]}},{"type":"Feature","properties":{"SeqNo":"544980","Type":"Q","DHID":"de:05162:20405:1:2","Parent":"de:05162:20405:1","Name":"Steig 2","MunicipalityCode":"00000000","Municipality":"-","DistrictCode":"-","District":"-","Description":"","Authority":"VRR","DelfiName":"-","THID":"-","LastOperationDate":"","SEV":"nein","longitude":"6,664511","latitude":"51,225745","geojson_lng":6.664511,"geojson_lat":51.225745},"geometry":{"type":"Point","coordinates":[6.664511,51.225745]}},{"type":"Feature","properties":{"SeqNo":"544985","Type":"S","DHID":"de:05162:20407","Parent":"de:05162:20407","Name":"Neuss Thomas-Morus-Kirche","MunicipalityCode":"05162024","Municipality":"Neuss","DistrictCode":"-","District":"-","Description":"","Authority":"VRR","DelfiName":"-","THID":"D9142A004FB7","LastOperationDate":"2025-06-14T00:00:00","SEV":"nein","longitude":"6,667251","latitude":"51,223185","geojson_lng":6.667251,"geojson_lat":51.223185},"geometry":{"type":"Point","coordinates":[6.667251,51.223185]}},{"type":"Feature","properties":{"SeqNo":"544986","Type":"A","DHID":"de:05162:20407:1","Parent":"de:05162:20407","Name":"1","MunicipalityCode":"00000000","Municipality":"-","DistrictCode":"-","District":"-","Description":"Bus","Authority":"VRR","DelfiName":"-","THID":"-","LastOperationDate":"","SEV":"nein","longitude":"6,667395","latitude":"51,22309","geojson_lng":6.667395,"geojson_lat":51.22309},"geometry":{"type":"Point","coordinates":[6.667395,51.22309]}},{"type":"Feature","properties":{"SeqNo":"544987","Type":"Q","DHID":"de:05162:20407:1:1","Parent":"de:05162:20407:1","Name":"1","MunicipalityCode":"00000000","Municipality":"-","DistrictCode":"-","District":"-","Description":"Steig 1","Authority":"VRR","DelfiName":"-","THID":"-","LastOperationDate":"","SEV":"nein","longitude":"6,667296","latitude":"51,222972","geojson_lng":6.667296,"geojson_lat":51.222972},"geometry":{"type":"Point","coordinates":[6.667296,51.222972]}},{"type":"Feature","properties":{"SeqNo":"544988","Type":"Q","DHID":"de:05162:20407:1:2","Parent":"de:05162:20407:1","Name":"2","MunicipalityCode":"00000000","Municipality":"-","DistrictCode":"-","District":"-","Description":"Steig 2","Authority":"VRR","DelfiName":"-","THID":"-","LastOperationDate":"","SEV":"nein","longitude":"6,667449","latitude":"51,22305","geojson_lng":6.667449,"geojson_lat":51.22305},"geometry":{"type":"Point","coordinates":[6.667449,51.22305]}}]}