{"type":"FeatureCollection","features":[{"type":"Feature","properties":{"SeqNo":"96569","Type":"S","DHID":"de:09775:1726","Parent":"de:09775:1726","Name":"Neu-Ulm Realschule","MunicipalityCode":"09775135","Municipality":"Neu-Ulm","DistrictCode":"","District":"","Description":"","Authority":"NVBW","DelfiName":"-","THID":"D9262F0006BE","LastOperationDate":"2025-06-06T00:00:00","SEV":"nein","longitude":"10,001411","latitude":"48,378003","geojson_lng":10.001411,"geojson_lat":48.378003},"geometry":{"type":"Point","coordinates":[10.001411,48.378003]}},{"type":"Feature","properties":{"SeqNo":"96570","Type":"Q","DHID":"de:09775:1726:0:1","Parent":"de:09775:1726","Name":"Alle Richtungen","MunicipalityCode":"00000000","Municipality":"-","DistrictCode":"-","District":"-","Description":"","Authority":"NVBW","DelfiName":"-","THID":"-","LastOperationDate":"","SEV":"nein","longitude":"10,001438","latitude":"48,378003","geojson_lng":10.001438,"geojson_lat":48.378003},"geometry":{"type":"Point","coordinates":[10.001438,48.378003]}},{"type":"Feature","properties":{"SeqNo":"96579","Type":"S","DHID":"de:09775:1730","Parent":"de:09775:1730","Name":"Neu-Ulm Mittelschule","MunicipalityCode":"09775135","Municipality":"Neu-Ulm","DistrictCode":"","District":"","Description":"","Authority":"NVBW","DelfiName":"-","THID":"D9262F0006C2","LastOperationDate":"2025-06-06T00:00:00","SEV":"nein","longitude":"9,99939","latitude":"48,377758","geojson_lng":9.99939,"geojson_lat":48.377758},"geometry":{"type":"Point","coordinates":[9.99939,48.377758]}},{"type":"Feature","properties":{"SeqNo":"96580","Type":"Q","DHID":"de:09775:1730:0:1","Parent":"de:09775:1730","Name":"Alle Richtungen","MunicipalityCode":"00000000","Municipality":"-","DistrictCode":"-","District":"-","Description":"","Authority":"NVBW","DelfiName":"-","THID":"-","LastOperationDate":"","SEV":"nein","longitude":"9,99939","latitude":"48,377758","geojson_lng":9.99939,"geojson_lat":48.377758},"geometry":{"type":"Point","coordinates":[9.99939,48.377758]}},{"type":"Feature","properties":{"SeqNo":"96626","Type":"S","DHID":"de:09775:1761","Parent":"de:09775:1761","Name":"Ludwigsfeld Breslauer Str.","MunicipalityCode":"09775135","Municipality":"Neu-Ulm","DistrictCode":"","District":"","Description":"","Authority":"NVBW","DelfiName":"-","THID":"D9262F0006E1","LastOperationDate":"2025-02-28T00:00:00","SEV":"nein","longitude":"10,008454","latitude":"48,37089","geojson_lng":10.008454,"geojson_lat":48.37089},"geometry":{"type":"Point","coordinates":[10.008454,48.37089]}},{"type":"Feature","properties":{"SeqNo":"96628","Type":"Q","DHID":"de:09775:1761:0:2","Parent":"de:09775:1761","Name":"Ulm","MunicipalityCode":"00000000","Municipality":"-","DistrictCode":"-","District":"-","Description":"","Authority":"NVBW","DelfiName":"-","THID":"-","LastOperationDate":"","SEV":"nein","longitude":"10,00858","latitude":"48,371212","geojson_lng":10.00858,"geojson_lat":48.371212},"geometry":{"type":"Point","coordinates":[10.00858,48.371212]}}]}