{"type":"FeatureCollection","features":[{"type":"Feature","properties":{"SeqNo":"445376","Type":"S","DHID":"de:06438:2745","Parent":"de:06438:2745","Name":"Langen (Hessen) Darmstädter Straße","MunicipalityCode":"06438006","Municipality":"Langen (Hessen)","DistrictCode":"","District":"","Description":"","Authority":"rms","DelfiName":"-","THID":"D91926000AB9","LastOperationDate":"2025-06-14T00:00:00","SEV":"nein","longitude":"8,678824","latitude":"49,986196","geojson_lng":8.678824,"geojson_lat":49.986196},"geometry":{"type":"Point","coordinates":[8.678824,49.986196]}},{"type":"Feature","properties":{"SeqNo":"445377","Type":"A","DHID":"de:06438:2745:1","Parent":"de:06438:2745","Name":"Langen Darmstädter Straße | NDarmstadt","MunicipalityCode":"00000000","Municipality":"-","DistrictCode":"-","District":"-","Description":"","Authority":"rms","DelfiName":"-","THID":"-","LastOperationDate":"","SEV":"nein","longitude":"8,678863","latitude":"49,986592","geojson_lng":8.678863,"geojson_lat":49.986592},"geometry":{"type":"Point","coordinates":[8.678863,49.986592]}},{"type":"Feature","properties":{"SeqNo":"445378","Type":"A","DHID":"de:06438:2745:2","Parent":"de:06438:2745","Name":"Langen Darmstädter Straße | VDarmstadt","MunicipalityCode":"00000000","Municipality":"-","DistrictCode":"-","District":"-","Description":"","Authority":"rms","DelfiName":"-","THID":"-","LastOperationDate":"","SEV":"nein","longitude":"8,67873","latitude":"49,985693","geojson_lng":8.67873,"geojson_lat":49.985693},"geometry":{"type":"Point","coordinates":[8.67873,49.985693]}},{"type":"Feature","properties":{"SeqNo":"445379","Type":"Q","DHID":"de:06438:2745:1:1","Parent":"de:06438:2745:1","Name":"Langen Darmstädter Straße | NDarmstadt | 1 NDarmstadt","MunicipalityCode":"00000000","Municipality":"-","DistrictCode":"-","District":"-","Description":"","Authority":"rms","DelfiName":"-","THID":"-","LastOperationDate":"","SEV":"nein","longitude":"8,678863","latitude":"49,986592","geojson_lng":8.678863,"geojson_lat":49.986592},"geometry":{"type":"Point","coordinates":[8.678863,49.986592]}},{"type":"Feature","properties":{"SeqNo":"445380","Type":"Q","DHID":"de:06438:2745:2:2","Parent":"de:06438:2745:2","Name":"Langen Darmstädter Straße | VDarmstadt | 2 VDarmstadt","MunicipalityCode":"00000000","Municipality":"-","DistrictCode":"-","District":"-","Description":"","Authority":"rms","DelfiName":"-","THID":"-","LastOperationDate":"","SEV":"nein","longitude":"8,67873","latitude":"49,985693","geojson_lng":8.67873,"geojson_lat":49.985693},"geometry":{"type":"Point","coordinates":[8.67873,49.985693]}},{"type":"Feature","properties":{"SeqNo":"445381","Type":"S","DHID":"de:06438:2746","Parent":"de:06438:2746","Name":"Langen (Hessen) Lorscher Straße","MunicipalityCode":"06438006","Municipality":"Langen (Hessen)","DistrictCode":"-","District":"-","Description":"","Authority":"rms","DelfiName":"-","THID":"D91926000ABA","LastOperationDate":"2025-06-14T00:00:00","SEV":"nein","longitude":"8,677969","latitude":"49,981325","geojson_lng":8.677969,"geojson_lat":49.981325},"geometry":{"type":"Point","coordinates":[8.677969,49.981325]}},{"type":"Feature","properties":{"SeqNo":"445382","Type":"A","DHID":"de:06438:2746:1","Parent":"de:06438:2746","Name":"Langen Lorscher Straße | NDarmstadt","MunicipalityCode":"00000000","Municipality":"-","DistrictCode":"-","District":"-","Description":"","Authority":"rms","DelfiName":"-","THID":"-","LastOperationDate":"","SEV":"nein","longitude":"8,677857","latitude":"49,981307","geojson_lng":8.677857,"geojson_lat":49.981307},"geometry":{"type":"Point","coordinates":[8.677857,49.981307]}},{"type":"Feature","properties":{"SeqNo":"445383","Type":"A","DHID":"de:06438:2746:2","Parent":"de:06438:2746","Name":"Langen Lorscher Straße | VDarmstadt","MunicipalityCode":"00000000","Municipality":"-","DistrictCode":"-","District":"-","Description":"","Authority":"rms","DelfiName":"-","THID":"-","LastOperationDate":"","SEV":"nein","longitude":"8,678066","latitude":"49,981289","geojson_lng":8.678066,"geojson_lat":49.981289},"geometry":{"type":"Point","coordinates":[8.678066,49.981289]}},{"type":"Feature","properties":{"SeqNo":"445384","Type":"Q","DHID":"de:06438:2746:1:1","Parent":"de:06438:2746:1","Name":"NDarmstadt","MunicipalityCode":"00000000","Municipality":"-","DistrictCode":"-","District":"-","Description":"","Authority":"rms","DelfiName":"-","THID":"-","LastOperationDate":"","SEV":"nein","longitude":"8,677857","latitude":"49,981307","geojson_lng":8.677857,"geojson_lat":49.981307},"geometry":{"type":"Point","coordinates":[8.677857,49.981307]}},{"type":"Feature","properties":{"SeqNo":"445385","Type":"Q","DHID":"de:06438:2746:2:2","Parent":"de:06438:2746:2","Name":"VDarmstadt","MunicipalityCode":"00000000","Municipality":"-","DistrictCode":"-","District":"-","Description":"","Authority":"rms","DelfiName":"-","THID":"-","LastOperationDate":"","SEV":"nein","longitude":"8,678066","latitude":"49,981289","geojson_lng":8.678066,"geojson_lat":49.981289},"geometry":{"type":"Point","coordinates":[8.678066,49.981289]}},{"type":"Feature","properties":{"SeqNo":"445433","Type":"S","DHID":"de:06438:2757","Parent":"de:06438:2757","Name":"Langen (Hessen) Leukertsweg","MunicipalityCode":"06438006","Municipality":"Langen (Hessen)","DistrictCode":"-","District":"-","Description":"","Authority":"rms","DelfiName":"-","THID":"D91926000AC5","LastOperationDate":"2025-06-14T00:00:00","SEV":"nein","longitude":"8,67293","latitude":"49,984179","geojson_lng":8.67293,"geojson_lat":49.984179},"geometry":{"type":"Point","coordinates":[8.67293,49.984179]}},{"type":"Feature","properties":{"SeqNo":"445434","Type":"A","DHID":"de:06438:2757:1","Parent":"de:06438:2757","Name":"Langen Leukertsweg | VNeu-Isenburg","MunicipalityCode":"00000000","Municipality":"-","DistrictCode":"-","District":"-","Description":"","Authority":"rms","DelfiName":"-","THID":"-","LastOperationDate":"","SEV":"nein","longitude":"8,672943","latitude":"49,98426","geojson_lng":8.672943,"geojson_lat":49.98426},"geometry":{"type":"Point","coordinates":[8.672943,49.98426]}},{"type":"Feature","properties":{"SeqNo":"445435","Type":"A","DHID":"de:06438:2757:2","Parent":"de:06438:2757","Name":"Langen Leukertsweg | NNeu-Isenburg","MunicipalityCode":"00000000","Municipality":"-","DistrictCode":"-","District":"-","Description":"","Authority":"rms","DelfiName":"-","THID":"-","LastOperationDate":"","SEV":"nein","longitude":"8,672959","latitude":"49,984053","geojson_lng":8.672959,"geojson_lat":49.984053},"geometry":{"type":"Point","coordinates":[8.672959,49.984053]}},{"type":"Feature","properties":{"SeqNo":"445436","Type":"Q","DHID":"de:06438:2757:1:1","Parent":"de:06438:2757:1","Name":"VNeu-Isenburg","MunicipalityCode":"00000000","Municipality":"-","DistrictCode":"-","District":"-","Description":"","Authority":"rms","DelfiName":"-","THID":"-","LastOperationDate":"","SEV":"nein","longitude":"8,672943","latitude":"49,98426","geojson_lng":8.672943,"geojson_lat":49.98426},"geometry":{"type":"Point","coordinates":[8.672943,49.98426]}},{"type":"Feature","properties":{"SeqNo":"445437","Type":"Q","DHID":"de:06438:2757:2:2","Parent":"de:06438:2757:2","Name":"NNeu-Isenburg","MunicipalityCode":"00000000","Municipality":"-","DistrictCode":"-","District":"-","Description":"","Authority":"rms","DelfiName":"-","THID":"-","LastOperationDate":"","SEV":"nein","longitude":"8,672959","latitude":"49,984053","geojson_lng":8.672959,"geojson_lat":49.984053},"geometry":{"type":"Point","coordinates":[8.672959,49.984053]}},{"type":"Feature","properties":{"SeqNo":"445438","Type":"S","DHID":"de:06438:2758","Parent":"de:06438:2758","Name":"Langen (Hessen) Wilhelmstraße","MunicipalityCode":"06438006","Municipality":"Langen (Hessen)","DistrictCode":"-","District":"-","Description":"","Authority":"rms","DelfiName":"-","THID":"D91926000AC6","LastOperationDate":"2025-06-14T00:00:00","SEV":"nein","longitude":"8,676562","latitude":"49,9832","geojson_lng":8.676562,"geojson_lat":49.9832},"geometry":{"type":"Point","coordinates":[8.676562,49.9832]}},{"type":"Feature","properties":{"SeqNo":"445439","Type":"A","DHID":"de:06438:2758:1","Parent":"de:06438:2758","Name":"Langen Wilhelmstraße | VLangenBhf","MunicipalityCode":"00000000","Municipality":"-","DistrictCode":"-","District":"-","Description":"","Authority":"rms","DelfiName":"-","THID":"-","LastOperationDate":"","SEV":"nein","longitude":"8,676521","latitude":"49,983101","geojson_lng":8.676521,"geojson_lat":49.983101},"geometry":{"type":"Point","coordinates":[8.676521,49.983101]}},{"type":"Feature","properties":{"SeqNo":"445440","Type":"A","DHID":"de:06438:2758:2","Parent":"de:06438:2758","Name":"Langen Wilhelmstraße | NLangenBhf","MunicipalityCode":"00000000","Municipality":"-","DistrictCode":"-","District":"-","Description":"","Authority":"rms","DelfiName":"-","THID":"-","LastOperationDate":"","SEV":"nein","longitude":"8,676575","latitude":"49,983263","geojson_lng":8.676575,"geojson_lat":49.983263},"geometry":{"type":"Point","coordinates":[8.676575,49.983263]}},{"type":"Feature","properties":{"SeqNo":"445441","Type":"Q","DHID":"de:06438:2758:1:1","Parent":"de:06438:2758:1","Name":"VLangenBhf","MunicipalityCode":"00000000","Municipality":"-","DistrictCode":"-","District":"-","Description":"","Authority":"rms","DelfiName":"-","THID":"-","LastOperationDate":"","SEV":"nein","longitude":"8,676521","latitude":"49,983101","geojson_lng":8.676521,"geojson_lat":49.983101},"geometry":{"type":"Point","coordinates":[8.676521,49.983101]}},{"type":"Feature","properties":{"SeqNo":"445442","Type":"Q","DHID":"de:06438:2758:2:2","Parent":"de:06438:2758:2","Name":"NLangenBhf","MunicipalityCode":"00000000","Municipality":"-","DistrictCode":"-","District":"-","Description":"","Authority":"rms","DelfiName":"-","THID":"-","LastOperationDate":"","SEV":"nein","longitude":"8,676575","latitude":"49,983263","geojson_lng":8.676575,"geojson_lat":49.983263},"geometry":{"type":"Point","coordinates":[8.676575,49.983263]}},{"type":"Feature","properties":{"SeqNo":"447287","Type":"S","DHID":"de:06438:8397","Parent":"de:06438:8397","Name":"Langen (Hessen) Altes Amtsgericht","MunicipalityCode":"06438006","Municipality":"Langen (Hessen)","DistrictCode":"-","District":"-","Description":"","Authority":"rms","DelfiName":"-","THID":"D919260020CD","LastOperationDate":"2025-06-14T00:00:00","SEV":"nein","longitude":"8,67852","latitude":"49,98433","geojson_lng":8.67852,"geojson_lat":49.98433},"geometry":{"type":"Point","coordinates":[8.67852,49.98433]}},{"type":"Feature","properties":{"SeqNo":"447288","Type":"A","DHID":"de:06438:8397:1","Parent":"de:06438:8397","Name":"Langen Altes Amtsgericht | NSüdl.Ringstr.","MunicipalityCode":"00000000","Municipality":"-","DistrictCode":"-","District":"-","Description":"","Authority":"rms","DelfiName":"-","THID":"-","LastOperationDate":"","SEV":"nein","longitude":"8,678478","latitude":"49,984437","geojson_lng":8.678478,"geojson_lat":49.984437},"geometry":{"type":"Point","coordinates":[8.678478,49.984437]}},{"type":"Feature","properties":{"SeqNo":"447289","Type":"Q","DHID":"de:06438:8397:1:1","Parent":"de:06438:8397:1","Name":"NSüdl.Ringstr.","MunicipalityCode":"00000000","Municipality":"-","DistrictCode":"-","District":"-","Description":"","Authority":"rms","DelfiName":"-","THID":"-","LastOperationDate":"","SEV":"nein","longitude":"8,678478","latitude":"49,984437","geojson_lng":8.678478,"geojson_lat":49.984437},"geometry":{"type":"Point","coordinates":[8.678478,49.984437]}}]}