{"type":"FeatureCollection","features":[{"type":"Feature","properties":{"SeqNo":"93525","Type":"S","DHID":"de:08436:8412","Parent":"de:08436:8412","Name":"Horgenzell Russmaier","MunicipalityCode":"08436095","Municipality":"Horgenzell","DistrictCode":"-","District":"-","Description":"","Authority":"NVBW","DelfiName":"-","THID":"D920F40020DC","LastOperationDate":"2025-06-14T00:00:00","SEV":"nein","longitude":"9,458119","latitude":"47,773429","geojson_lng":9.458119,"geojson_lat":47.773429},"geometry":{"type":"Point","coordinates":[9.458119,47.773429]}},{"type":"Feature","properties":{"SeqNo":"93526","Type":"Q","DHID":"de:08436:8412:0:1","Parent":"de:08436:8412","Name":"1","MunicipalityCode":"00000000","Municipality":"-","DistrictCode":"-","District":"-","Description":"Steig 1","Authority":"NVBW","DelfiName":"-","THID":"-","LastOperationDate":"","SEV":"nein","longitude":"9,458065","latitude":"47,773176","geojson_lng":9.458065,"geojson_lat":47.773176},"geometry":{"type":"Point","coordinates":[9.458065,47.773176]}},{"type":"Feature","properties":{"SeqNo":"93527","Type":"Q","DHID":"de:08436:8412:0:2","Parent":"de:08436:8412","Name":"2","MunicipalityCode":"00000000","Municipality":"-","DistrictCode":"-","District":"-","Description":"Steig 2","Authority":"NVBW","DelfiName":"-","THID":"-","LastOperationDate":"","SEV":"nein","longitude":"9,458137","latitude":"47,773598","geojson_lng":9.458137,"geojson_lat":47.773598},"geometry":{"type":"Point","coordinates":[9.458137,47.773598]}},{"type":"Feature","properties":{"SeqNo":"93528","Type":"S","DHID":"de:08436:8413","Parent":"de:08436:8413","Name":"Horgenzell Kappel","MunicipalityCode":"08436095","Municipality":"Horgenzell","DistrictCode":"","District":"","Description":"","Authority":"NVBW","DelfiName":"-","THID":"D920F40020DD","LastOperationDate":"2025-06-14T00:00:00","SEV":"nein","longitude":"9,452594","latitude":"47,771811","geojson_lng":9.452594,"geojson_lat":47.771811},"geometry":{"type":"Point","coordinates":[9.452594,47.771811]}},{"type":"Feature","properties":{"SeqNo":"93529","Type":"Q","DHID":"de:08436:8413:0:1","Parent":"de:08436:8413","Name":"Steig 1","MunicipalityCode":"00000000","Municipality":"-","DistrictCode":"-","District":"-","Description":"","Authority":"NVBW","DelfiName":"-","THID":"-","LastOperationDate":"","SEV":"nein","longitude":"9,452639","latitude":"47,771793","geojson_lng":9.452639,"geojson_lat":47.771793},"geometry":{"type":"Point","coordinates":[9.452639,47.771793]}},{"type":"Feature","properties":{"SeqNo":"94097","Type":"S","DHID":"de:08436:8821","Parent":"de:08436:8821","Name":"Horgenzell Kappel Kindergarten","MunicipalityCode":"08436095","Municipality":"Horgenzell","DistrictCode":"-","District":"-","Description":"","Authority":"NVBW","DelfiName":"-","THID":"D920F4002275","LastOperationDate":"2024-12-13T00:00:00","SEV":"nein","longitude":"9,449477","latitude":"47,771691","geojson_lng":9.449477,"geojson_lat":47.771691},"geometry":{"type":"Point","coordinates":[9.449477,47.771691]}},{"type":"Feature","properties":{"SeqNo":"94098","Type":"Q","DHID":"de:08436:8821:0:1","Parent":"de:08436:8821","Name":"1","MunicipalityCode":"00000000","Municipality":"-","DistrictCode":"-","District":"-","Description":"Steig 1","Authority":"NVBW","DelfiName":"-","THID":"-","LastOperationDate":"","SEV":"nein","longitude":"9,449459","latitude":"47,771642","geojson_lng":9.449459,"geojson_lat":47.771642},"geometry":{"type":"Point","coordinates":[9.449459,47.771642]}}]}