{"type":"FeatureCollection","features":[{"type":"Feature","properties":{"SeqNo":"554389","Type":"S","DHID":"de:05162:20314","Parent":"de:05162:20314","Name":"Dormagen Nievenheim BF","Latitude":"51,123136","Longitude":"6,782936","MunicipalityCode":"05162004","Municipality":"Dormagen","DistrictCode":"","District":"","Description":"","Authority":"VRR","DelfiName":"-","THID":"D9142A004F5A","TariffProvider":"-","LastOperationDate":"2025-12-13T00:00:00","SEV":"nein","geojson_lng":6.782936,"geojson_lat":51.123136},"geometry":{"type":"Point","coordinates":[6.782936,51.123136]}},{"type":"Feature","properties":{"SeqNo":"554390","Type":"A","DHID":"de:05162:20314:1","Parent":"de:05162:20314","Name":"Bus","Latitude":"51,123688","Longitude":"6,783691","MunicipalityCode":"00000000","Municipality":"-","DistrictCode":"-","District":"-","Description":"","Authority":"VRR","DelfiName":"-","THID":"-","TariffProvider":"-","LastOperationDate":"","SEV":"nein","geojson_lng":6.783691,"geojson_lat":51.123688},"geometry":{"type":"Point","coordinates":[6.783691,51.123688]}},{"type":"Feature","properties":{"SeqNo":"554391","Type":"A","DHID":"de:05162:20314:40","Parent":"de:05162:20314","Name":"Zugang 1","Latitude":"51,122905","Longitude":"6,782909","MunicipalityCode":"00000000","Municipality":"-","DistrictCode":"-","District":"-","Description":"","Authority":"VRR","DelfiName":"-","THID":"-","TariffProvider":"-","LastOperationDate":"","SEV":"nein","geojson_lng":6.782909,"geojson_lat":51.122905},"geometry":{"type":"Point","coordinates":[6.782909,51.122905]}},{"type":"Feature","properties":{"SeqNo":"554392","Type":"A","DHID":"de:05162:20314:41","Parent":"de:05162:20314","Name":"Zugang 2","Latitude":"51,122984","Longitude":"6,782703","MunicipalityCode":"00000000","Municipality":"-","DistrictCode":"-","District":"-","Description":"","Authority":"VRR","DelfiName":"-","THID":"-","TariffProvider":"-","LastOperationDate":"","SEV":"nein","geojson_lng":6.782703,"geojson_lat":51.122984},"geometry":{"type":"Point","coordinates":[6.782703,51.122984]}},{"type":"Feature","properties":{"SeqNo":"554393","Type":"A","DHID":"de:05162:20314:42","Parent":"de:05162:20314","Name":"Zugang 3","Latitude":"51,123017","Longitude":"6,782748","MunicipalityCode":"00000000","Municipality":"-","DistrictCode":"-","District":"-","Description":"","Authority":"VRR","DelfiName":"-","THID":"-","TariffProvider":"-","LastOperationDate":"","SEV":"nein","geojson_lng":6.782748,"geojson_lat":51.123017},"geometry":{"type":"Point","coordinates":[6.782748,51.123017]}},{"type":"Feature","properties":{"SeqNo":"554394","Type":"A","DHID":"de:05162:20314:43","Parent":"de:05162:20314","Name":"Zugang 4","Latitude":"51,123209","Longitude":"6,783322","MunicipalityCode":"00000000","Municipality":"-","DistrictCode":"-","District":"-","Description":"","Authority":"VRR","DelfiName":"-","THID":"-","TariffProvider":"-","LastOperationDate":"","SEV":"nein","geojson_lng":6.783322,"geojson_lat":51.123209},"geometry":{"type":"Point","coordinates":[6.783322,51.123209]}},{"type":"Feature","properties":{"SeqNo":"554395","Type":"A","DHID":"de:05162:20314:44","Parent":"de:05162:20314","Name":"Zugang 5","Latitude":"51,123277","Longitude":"6,782954","MunicipalityCode":"00000000","Municipality":"-","DistrictCode":"-","District":"-","Description":"","Authority":"VRR","DelfiName":"-","THID":"-","TariffProvider":"-","LastOperationDate":"","SEV":"nein","geojson_lng":6.782954,"geojson_lat":51.123277},"geometry":{"type":"Point","coordinates":[6.782954,51.123277]}},{"type":"Feature","properties":{"SeqNo":"554396","Type":"A","DHID":"de:05162:20314:45","Parent":"de:05162:20314","Name":"Zugang 6","Latitude":"51,123863","Longitude":"6,782559","MunicipalityCode":"00000000","Municipality":"-","DistrictCode":"-","District":"-","Description":"","Authority":"VRR","DelfiName":"-","THID":"-","TariffProvider":"-","LastOperationDate":"","SEV":"nein","geojson_lng":6.782559,"geojson_lat":51.123863},"geometry":{"type":"Point","coordinates":[6.782559,51.123863]}},{"type":"Feature","properties":{"SeqNo":"554397","Type":"A","DHID":"de:05162:20314:46","Parent":"de:05162:20314","Name":"Zugang 7","Latitude":"51,123841","Longitude":"6,782307","MunicipalityCode":"00000000","Municipality":"-","DistrictCode":"-","District":"-","Description":"","Authority":"VRR","DelfiName":"-","THID":"-","TariffProvider":"-","LastOperationDate":"","SEV":"nein","geojson_lng":6.782307,"geojson_lat":51.123841},"geometry":{"type":"Point","coordinates":[6.782307,51.123841]}},{"type":"Feature","properties":{"SeqNo":"554399","Type":"A","DHID":"de:05162:20314:60","Parent":"de:05162:20314","Name":"P+R Nord","Latitude":"51,124139","Longitude":"6,781939","MunicipalityCode":"00000000","Municipality":"-","DistrictCode":"-","District":"-","Description":"","Authority":"VRR","DelfiName":"-","THID":"-","TariffProvider":"-","LastOperationDate":"","SEV":"nein","geojson_lng":6.781939,"geojson_lat":51.124139},"geometry":{"type":"Point","coordinates":[6.781939,51.124139]}},{"type":"Feature","properties":{"SeqNo":"554400","Type":"A","DHID":"de:05162:20314:61","Parent":"de:05162:20314","Name":"P+R Süd","Latitude":"51,122014","Longitude":"6,784032","MunicipalityCode":"00000000","Municipality":"-","DistrictCode":"-","District":"-","Description":"","Authority":"VRR","DelfiName":"-","THID":"-","TariffProvider":"-","LastOperationDate":"","SEV":"nein","geojson_lng":6.784032,"geojson_lat":51.122014},"geometry":{"type":"Point","coordinates":[6.784032,51.122014]}},{"type":"Feature","properties":{"SeqNo":"554401","Type":"A","DHID":"de:05162:20314:89","Parent":"de:05162:20314","Name":"Schienenersatzv.","Latitude":"51,123694","Longitude":"6,783691","MunicipalityCode":"00000000","Municipality":"-","DistrictCode":"-","District":"-","Description":"","Authority":"VRR","DelfiName":"-","THID":"-","TariffProvider":"-","LastOperationDate":"","SEV":"nein","geojson_lng":6.783691,"geojson_lat":51.123694},"geometry":{"type":"Point","coordinates":[6.783691,51.123694]}},{"type":"Feature","properties":{"SeqNo":"554402","Type":"A","DHID":"de:05162:20314:98","Parent":"de:05162:20314","Name":"S-Bahn Köln","Latitude":"51,123463","Longitude":"6,782352","MunicipalityCode":"00000000","Municipality":"-","DistrictCode":"-","District":"-","Description":"","Authority":"VRR","DelfiName":"-","THID":"-","TariffProvider":"-","LastOperationDate":"","SEV":"nein","geojson_lng":6.782352,"geojson_lat":51.123463},"geometry":{"type":"Point","coordinates":[6.782352,51.123463]}},{"type":"Feature","properties":{"SeqNo":"554403","Type":"A","DHID":"de:05162:20314:99","Parent":"de:05162:20314","Name":"S-Bahn Neuss","Latitude":"51,123531","Longitude":"6,782496","MunicipalityCode":"00000000","Municipality":"-","DistrictCode":"-","District":"-","Description":"","Authority":"VRR","DelfiName":"-","THID":"-","TariffProvider":"-","LastOperationDate":"","SEV":"nein","geojson_lng":6.782496,"geojson_lat":51.123531},"geometry":{"type":"Point","coordinates":[6.782496,51.123531]}},{"type":"Feature","properties":{"SeqNo":"554404","Type":"Q","DHID":"de:05162:20314:1:1","Parent":"de:05162:20314:1","Name":"-","Latitude":"51,123734","Longitude":"6,783924","MunicipalityCode":"00000000","Municipality":"-","DistrictCode":"-","District":"-","Description":"","Authority":"VRR","DelfiName":"-","THID":"-","TariffProvider":"-","LastOperationDate":"","SEV":"nein","geojson_lng":6.783924,"geojson_lat":51.123734},"geometry":{"type":"Point","coordinates":[6.783924,51.123734]}},{"type":"Feature","properties":{"SeqNo":"554405","Type":"Q","DHID":"de:05162:20314:1:2","Parent":"de:05162:20314:1","Name":"-","Latitude":"51,123683","Longitude":"6,783529","MunicipalityCode":"00000000","Municipality":"-","DistrictCode":"-","District":"-","Description":"","Authority":"VRR","DelfiName":"-","THID":"-","TariffProvider":"-","LastOperationDate":"","SEV":"nein","geojson_lng":6.783529,"geojson_lat":51.123683},"geometry":{"type":"Point","coordinates":[6.783529,51.123683]}},{"type":"Feature","properties":{"SeqNo":"554406","Type":"Q","DHID":"de:05162:20314:89:5","Parent":"de:05162:20314:89","Name":"-","Latitude":"51,123728","Longitude":"6,783906","MunicipalityCode":"00000000","Municipality":"-","DistrictCode":"-","District":"-","Description":"","Authority":"VRR","DelfiName":"-","THID":"-","TariffProvider":"-","LastOperationDate":"","SEV":"nein","geojson_lng":6.783906,"geojson_lat":51.123728},"geometry":{"type":"Point","coordinates":[6.783906,51.123728]}},{"type":"Feature","properties":{"SeqNo":"554407","Type":"Q","DHID":"de:05162:20314:98:2","Parent":"de:05162:20314:98","Name":"2","Latitude":"51,123858","Longitude":"6,781885","MunicipalityCode":"00000000","Municipality":"-","DistrictCode":"-","District":"-","Description":"","Authority":"VRR","DelfiName":"-","THID":"-","TariffProvider":"-","LastOperationDate":"","SEV":"nein","geojson_lng":6.781885,"geojson_lat":51.123858},"geometry":{"type":"Point","coordinates":[6.781885,51.123858]}},{"type":"Feature","properties":{"SeqNo":"554408","Type":"Q","DHID":"de:05162:20314:98:1","Parent":"de:05162:20314:99","Name":"1","Latitude":"51,123886","Longitude":"6,78193","MunicipalityCode":"00000000","Municipality":"-","DistrictCode":"-","District":"-","Description":"","Authority":"VRR","DelfiName":"-","THID":"-","TariffProvider":"-","LastOperationDate":"","SEV":"nein","geojson_lng":6.78193,"geojson_lat":51.123886},"geometry":{"type":"Point","coordinates":[6.78193,51.123886]}},{"type":"Feature","properties":{"SeqNo":"555178","Type":"S","DHID":"de:05162:20568","Parent":"de:05162:20568","Name":"Dormagen Nievenheim Gesamtsch.","Latitude":"51,119443","Longitude":"6,780331","MunicipalityCode":"05162004","Municipality":"Dormagen","DistrictCode":"05162","District":"","Description":"","Authority":"VRR","DelfiName":"-","THID":"D9142A005058","TariffProvider":"-","LastOperationDate":"2025-12-12T00:00:00","SEV":"nein","geojson_lng":6.780331,"geojson_lat":51.119443},"geometry":{"type":"Point","coordinates":[6.780331,51.119443]}},{"type":"Feature","properties":{"SeqNo":"555179","Type":"A","DHID":"de:05162:20568:1","Parent":"de:05162:20568","Name":"Hst. ohne Bereich","Latitude":"51,119476","Longitude":"6,780331","MunicipalityCode":"00000000","Municipality":"-","DistrictCode":"-","District":"-","Description":"","Authority":"VRR","DelfiName":"-","THID":"-","TariffProvider":"-","LastOperationDate":"","SEV":"nein","geojson_lng":6.780331,"geojson_lat":51.119476},"geometry":{"type":"Point","coordinates":[6.780331,51.119476]}},{"type":"Feature","properties":{"SeqNo":"555180","Type":"Q","DHID":"de:05162:20568:1:1","Parent":"de:05162:20568:1","Name":"-","Latitude":"51,119516","Longitude":"6,780322","MunicipalityCode":"00000000","Municipality":"-","DistrictCode":"-","District":"-","Description":"","Authority":"VRR","DelfiName":"-","THID":"-","TariffProvider":"-","LastOperationDate":"","SEV":"nein","geojson_lng":6.780322,"geojson_lat":51.119516},"geometry":{"type":"Point","coordinates":[6.780322,51.119516]}},{"type":"Feature","properties":{"SeqNo":"555187","Type":"S","DHID":"de:05162:20603","Parent":"de:05162:20603","Name":"Dormagen Marie-Schlei-Str.","Latitude":"51,120407","Longitude":"6,778849","MunicipalityCode":"05162004","Municipality":"Dormagen","DistrictCode":"05162","District":"","Description":"","Authority":"VRR","DelfiName":"-","THID":"D9142A00507B","TariffProvider":"-","LastOperationDate":"2025-12-13T00:00:00","SEV":"nein","geojson_lng":6.778849,"geojson_lat":51.120407},"geometry":{"type":"Point","coordinates":[6.778849,51.120407]}},{"type":"Feature","properties":{"SeqNo":"555189","Type":"Q","DHID":"de:05162:20603:0:2","Parent":"de:05162:20603","Name":"Steig 2","Latitude":"51,120638","Longitude":"6,77919","MunicipalityCode":"00000000","Municipality":"-","DistrictCode":"-","District":"-","Description":"","Authority":"VRR","DelfiName":"-","THID":"-","TariffProvider":"-","LastOperationDate":"","SEV":"nein","geojson_lng":6.77919,"geojson_lat":51.120638},"geometry":{"type":"Point","coordinates":[6.77919,51.120638]}}]}