{"type":"FeatureCollection","features":[{"type":"Feature","properties":{"SeqNo":"544611","Type":"S","DHID":"de:05162:20314","Parent":"de:05162:20314","Name":"Dormagen Nievenheim BF","MunicipalityCode":"05162004","Municipality":"Dormagen","DistrictCode":"","District":"","Description":"","Authority":"VRR","DelfiName":"-","THID":"D9142A004F5A","LastOperationDate":"2025-02-28T00:00:00","SEV":"nein","longitude":"6,782936","latitude":"51,123136","geojson_lng":6.782936,"geojson_lat":51.123136},"geometry":{"type":"Point","coordinates":[6.782936,51.123136]}},{"type":"Feature","properties":{"SeqNo":"544612","Type":"A","DHID":"de:05162:20314:1","Parent":"de:05162:20314","Name":"Bus","MunicipalityCode":"00000000","Municipality":"-","DistrictCode":"-","District":"-","Description":"","Authority":"VRR","DelfiName":"-","THID":"-","LastOperationDate":"","SEV":"nein","longitude":"6,783799","latitude":"51,123728","geojson_lng":6.783799,"geojson_lat":51.123728},"geometry":{"type":"Point","coordinates":[6.783799,51.123728]}},{"type":"Feature","properties":{"SeqNo":"544613","Type":"A","DHID":"de:05162:20314:40","Parent":"de:05162:20314","Name":"Zugang 1","MunicipalityCode":"00000000","Municipality":"-","DistrictCode":"-","District":"-","Description":"","Authority":"VRR","DelfiName":"-","THID":"-","LastOperationDate":"","SEV":"nein","longitude":"6,782909","latitude":"51,122905","geojson_lng":6.782909,"geojson_lat":51.122905},"geometry":{"type":"Point","coordinates":[6.782909,51.122905]}},{"type":"Feature","properties":{"SeqNo":"544614","Type":"A","DHID":"de:05162:20314:41","Parent":"de:05162:20314","Name":"Zugang 2","MunicipalityCode":"00000000","Municipality":"-","DistrictCode":"-","District":"-","Description":"","Authority":"VRR","DelfiName":"-","THID":"-","LastOperationDate":"","SEV":"nein","longitude":"6,782703","latitude":"51,122984","geojson_lng":6.782703,"geojson_lat":51.122984},"geometry":{"type":"Point","coordinates":[6.782703,51.122984]}},{"type":"Feature","properties":{"SeqNo":"544615","Type":"A","DHID":"de:05162:20314:42","Parent":"de:05162:20314","Name":"Zugang 3","MunicipalityCode":"00000000","Municipality":"-","DistrictCode":"-","District":"-","Description":"","Authority":"VRR","DelfiName":"-","THID":"-","LastOperationDate":"","SEV":"nein","longitude":"6,782748","latitude":"51,123017","geojson_lng":6.782748,"geojson_lat":51.123017},"geometry":{"type":"Point","coordinates":[6.782748,51.123017]}},{"type":"Feature","properties":{"SeqNo":"544616","Type":"A","DHID":"de:05162:20314:43","Parent":"de:05162:20314","Name":"Zugang 4","MunicipalityCode":"00000000","Municipality":"-","DistrictCode":"-","District":"-","Description":"","Authority":"VRR","DelfiName":"-","THID":"-","LastOperationDate":"","SEV":"nein","longitude":"6,783322","latitude":"51,123209","geojson_lng":6.783322,"geojson_lat":51.123209},"geometry":{"type":"Point","coordinates":[6.783322,51.123209]}},{"type":"Feature","properties":{"SeqNo":"544617","Type":"A","DHID":"de:05162:20314:44","Parent":"de:05162:20314","Name":"Zugang 5","MunicipalityCode":"00000000","Municipality":"-","DistrictCode":"-","District":"-","Description":"","Authority":"VRR","DelfiName":"-","THID":"-","LastOperationDate":"","SEV":"nein","longitude":"6,782954","latitude":"51,123277","geojson_lng":6.782954,"geojson_lat":51.123277},"geometry":{"type":"Point","coordinates":[6.782954,51.123277]}},{"type":"Feature","properties":{"SeqNo":"544618","Type":"A","DHID":"de:05162:20314:45","Parent":"de:05162:20314","Name":"Zugang 6","MunicipalityCode":"00000000","Municipality":"-","DistrictCode":"-","District":"-","Description":"","Authority":"VRR","DelfiName":"-","THID":"-","LastOperationDate":"","SEV":"nein","longitude":"6,782559","latitude":"51,123863","geojson_lng":6.782559,"geojson_lat":51.123863},"geometry":{"type":"Point","coordinates":[6.782559,51.123863]}},{"type":"Feature","properties":{"SeqNo":"544619","Type":"A","DHID":"de:05162:20314:46","Parent":"de:05162:20314","Name":"Zugang 7","MunicipalityCode":"00000000","Municipality":"-","DistrictCode":"-","District":"-","Description":"","Authority":"VRR","DelfiName":"-","THID":"-","LastOperationDate":"","SEV":"nein","longitude":"6,782307","latitude":"51,123841","geojson_lng":6.782307,"geojson_lat":51.123841},"geometry":{"type":"Point","coordinates":[6.782307,51.123841]}},{"type":"Feature","properties":{"SeqNo":"544621","Type":"A","DHID":"de:05162:20314:60","Parent":"de:05162:20314","Name":"P+R Nord","MunicipalityCode":"00000000","Municipality":"-","DistrictCode":"-","District":"-","Description":"","Authority":"VRR","DelfiName":"-","THID":"-","LastOperationDate":"","SEV":"nein","longitude":"6,781939","latitude":"51,124139","geojson_lng":6.781939,"geojson_lat":51.124139},"geometry":{"type":"Point","coordinates":[6.781939,51.124139]}},{"type":"Feature","properties":{"SeqNo":"544622","Type":"A","DHID":"de:05162:20314:61","Parent":"de:05162:20314","Name":"P+R Süd","MunicipalityCode":"00000000","Municipality":"-","DistrictCode":"-","District":"-","Description":"","Authority":"VRR","DelfiName":"-","THID":"-","LastOperationDate":"","SEV":"nein","longitude":"6,784032","latitude":"51,122014","geojson_lng":6.784032,"geojson_lat":51.122014},"geometry":{"type":"Point","coordinates":[6.784032,51.122014]}},{"type":"Feature","properties":{"SeqNo":"544623","Type":"A","DHID":"de:05162:20314:89","Parent":"de:05162:20314","Name":"Schienenersatzv.","MunicipalityCode":"00000000","Municipality":"-","DistrictCode":"-","District":"-","Description":"","Authority":"VRR","DelfiName":"-","THID":"-","LastOperationDate":"","SEV":"nein","longitude":"6,783888","latitude":"51,123728","geojson_lng":6.783888,"geojson_lat":51.123728},"geometry":{"type":"Point","coordinates":[6.783888,51.123728]}},{"type":"Feature","properties":{"SeqNo":"544624","Type":"A","DHID":"de:05162:20314:98","Parent":"de:05162:20314","Name":"S-Bahn Köln","MunicipalityCode":"00000000","Municipality":"-","DistrictCode":"-","District":"-","Description":"","Authority":"VRR","DelfiName":"-","THID":"-","LastOperationDate":"","SEV":"nein","longitude":"6,782352","latitude":"51,123463","geojson_lng":6.782352,"geojson_lat":51.123463},"geometry":{"type":"Point","coordinates":[6.782352,51.123463]}},{"type":"Feature","properties":{"SeqNo":"544625","Type":"A","DHID":"de:05162:20314:99","Parent":"de:05162:20314","Name":"S-Bahn Neuss","MunicipalityCode":"00000000","Municipality":"-","DistrictCode":"-","District":"-","Description":"","Authority":"VRR","DelfiName":"-","THID":"-","LastOperationDate":"","SEV":"nein","longitude":"6,782496","latitude":"51,123531","geojson_lng":6.782496,"geojson_lat":51.123531},"geometry":{"type":"Point","coordinates":[6.782496,51.123531]}},{"type":"Feature","properties":{"SeqNo":"544626","Type":"Q","DHID":"de:05162:20314:1:1","Parent":"de:05162:20314:1","Name":"Steig 1","MunicipalityCode":"00000000","Municipality":"-","DistrictCode":"-","District":"-","Description":"","Authority":"VRR","DelfiName":"-","THID":"-","LastOperationDate":"","SEV":"nein","longitude":"6,783906","latitude":"51,123779","geojson_lng":6.783906,"geojson_lat":51.123779},"geometry":{"type":"Point","coordinates":[6.783906,51.123779]}},{"type":"Feature","properties":{"SeqNo":"544627","Type":"Q","DHID":"de:05162:20314:1:2","Parent":"de:05162:20314:1","Name":"Steig 2","MunicipalityCode":"00000000","Municipality":"-","DistrictCode":"-","District":"-","Description":"","Authority":"VRR","DelfiName":"-","THID":"-","LastOperationDate":"","SEV":"nein","longitude":"6,783682","latitude":"51,123671","geojson_lng":6.783682,"geojson_lat":51.123671},"geometry":{"type":"Point","coordinates":[6.783682,51.123671]}},{"type":"Feature","properties":{"SeqNo":"544628","Type":"Q","DHID":"de:05162:20314:89:5","Parent":"de:05162:20314:89","Name":"Ersatzverkehr","MunicipalityCode":"00000000","Municipality":"-","DistrictCode":"-","District":"-","Description":"","Authority":"VRR","DelfiName":"-","THID":"-","LastOperationDate":"","SEV":"nein","longitude":"6,783861","latitude":"51,123756","geojson_lng":6.783861,"geojson_lat":51.123756},"geometry":{"type":"Point","coordinates":[6.783861,51.123756]}},{"type":"Feature","properties":{"SeqNo":"544629","Type":"Q","DHID":"de:05162:20314:98:2","Parent":"de:05162:20314:98","Name":"Richtung Köln","MunicipalityCode":"00000000","Municipality":"-","DistrictCode":"-","District":"-","Description":"","Authority":"VRR","DelfiName":"-","THID":"-","LastOperationDate":"","SEV":"nein","longitude":"6,781885","latitude":"51,123858","geojson_lng":6.781885,"geojson_lat":51.123858},"geometry":{"type":"Point","coordinates":[6.781885,51.123858]}},{"type":"Feature","properties":{"SeqNo":"544630","Type":"Q","DHID":"de:05162:20314:98:1","Parent":"de:05162:20314:99","Name":"Richtung Neuss","MunicipalityCode":"00000000","Municipality":"-","DistrictCode":"-","District":"-","Description":"","Authority":"VRR","DelfiName":"-","THID":"-","LastOperationDate":"","SEV":"nein","longitude":"6,78193","latitude":"51,123886","geojson_lng":6.78193,"geojson_lat":51.123886},"geometry":{"type":"Point","coordinates":[6.78193,51.123886]}},{"type":"Feature","properties":{"SeqNo":"545400","Type":"S","DHID":"de:05162:20568","Parent":"de:05162:20568","Name":"Dormagen Nievenheim Gesamtsch.","MunicipalityCode":"05162004","Municipality":"Dormagen","DistrictCode":"05162","District":"","Description":"","Authority":"VRR","DelfiName":"-","THID":"D9142A005058","LastOperationDate":"2025-02-28T00:00:00","SEV":"nein","longitude":"6,780349","latitude":"51,119358","geojson_lng":6.780349,"geojson_lat":51.119358},"geometry":{"type":"Point","coordinates":[6.780349,51.119358]}},{"type":"Feature","properties":{"SeqNo":"545401","Type":"A","DHID":"de:05162:20568:1","Parent":"de:05162:20568","Name":"Hst. ohne Bereich","MunicipalityCode":"00000000","Municipality":"-","DistrictCode":"-","District":"-","Description":"","Authority":"VRR","DelfiName":"-","THID":"-","LastOperationDate":"","SEV":"nein","longitude":"6,780439","latitude":"51,119302","geojson_lng":6.780439,"geojson_lat":51.119302},"geometry":{"type":"Point","coordinates":[6.780439,51.119302]}},{"type":"Feature","properties":{"SeqNo":"545402","Type":"Q","DHID":"de:05162:20568:1:1","Parent":"de:05162:20568:1","Name":"Steig 1","MunicipalityCode":"00000000","Municipality":"-","DistrictCode":"-","District":"-","Description":"","Authority":"VRR","DelfiName":"-","THID":"-","LastOperationDate":"","SEV":"nein","longitude":"6,780439","latitude":"51,119358","geojson_lng":6.780439,"geojson_lat":51.119358},"geometry":{"type":"Point","coordinates":[6.780439,51.119358]}},{"type":"Feature","properties":{"SeqNo":"545409","Type":"S","DHID":"de:05162:20603","Parent":"de:05162:20603","Name":"Dormagen Marie-Schlei-Str.","MunicipalityCode":"05162004","Municipality":"Dormagen","DistrictCode":"05162","District":"","Description":"","Authority":"VRR","DelfiName":"-","THID":"D9142A00507B","LastOperationDate":"2025-02-28T00:00:00","SEV":"nein","longitude":"6,778849","latitude":"51,120407","geojson_lng":6.778849,"geojson_lat":51.120407},"geometry":{"type":"Point","coordinates":[6.778849,51.120407]}},{"type":"Feature","properties":{"SeqNo":"545411","Type":"Q","DHID":"de:05162:20603:0:2","Parent":"de:05162:20603","Name":"Steig 2","MunicipalityCode":"00000000","Municipality":"-","DistrictCode":"-","District":"-","Description":"","Authority":"VRR","DelfiName":"-","THID":"-","LastOperationDate":"","SEV":"nein","longitude":"6,77919","latitude":"51,120638","geojson_lng":6.77919,"geojson_lat":51.120638},"geometry":{"type":"Point","coordinates":[6.77919,51.120638]}}]}