{"type":"FeatureCollection","features":[{"type":"Feature","properties":{"SeqNo":"654211","Type":"S","DHID":"de:05774:40616","Parent":"de:05774:40616","Name":"Höv-Hövelriege, Mühlenweg","MunicipalityCode":"05774024","Municipality":"Hövelhof","DistrictCode":"-","District":"-","Description":"","Authority":"VRR","DelfiName":"-","THID":"D9168E009EA8","LastOperationDate":"2024-07-05T00:00:00","SEV":"nein","longitude":"8,652546","latitude":"51,837874","geojson_lng":8.652546,"geojson_lat":51.837874},"geometry":{"type":"Point","coordinates":[8.652546,51.837874]}},{"type":"Feature","properties":{"SeqNo":"654212","Type":"Q","DHID":"de:05774:40616:0:1","Parent":"de:05774:40616","Name":"1","MunicipalityCode":"00000000","Municipality":"-","DistrictCode":"-","District":"-","Description":"Ri Hövelhof","Authority":"VRR","DelfiName":"-","THID":"-","LastOperationDate":"","SEV":"nein","longitude":"8,652519","latitude":"51,837991","geojson_lng":8.652519,"geojson_lat":51.837991},"geometry":{"type":"Point","coordinates":[8.652519,51.837991]}},{"type":"Feature","properties":{"SeqNo":"654213","Type":"Q","DHID":"de:05774:40616:0:2","Parent":"de:05774:40616","Name":"2","MunicipalityCode":"00000000","Municipality":"-","DistrictCode":"-","District":"-","Description":"Ri Tellweg","Authority":"VRR","DelfiName":"-","THID":"-","LastOperationDate":"","SEV":"nein","longitude":"8,652573","latitude":"51,837913","geojson_lng":8.652573,"geojson_lat":51.837913},"geometry":{"type":"Point","coordinates":[8.652573,51.837913]}},{"type":"Feature","properties":{"SeqNo":"654620","Type":"S","DHID":"de:05774:41407","Parent":"de:05774:41407","Name":"Hövelhof, Rennerich","MunicipalityCode":"05774024","Municipality":"Hövelhof","DistrictCode":"","District":"","Description":"","Authority":"VRR","DelfiName":"-","THID":"D9168E00A1BF","LastOperationDate":"2025-06-14T00:00:00","SEV":"nein","longitude":"8,650507","latitude":"51,837936","geojson_lng":8.650507,"geojson_lat":51.837936},"geometry":{"type":"Point","coordinates":[8.650507,51.837936]}},{"type":"Feature","properties":{"SeqNo":"654621","Type":"Q","DHID":"de:05774:41407:0:1","Parent":"de:05774:41407","Name":"Ri Nord","MunicipalityCode":"00000000","Municipality":"-","DistrictCode":"-","District":"-","Description":"","Authority":"VRR","DelfiName":"-","THID":"-","LastOperationDate":"","SEV":"nein","longitude":"8,650632","latitude":"51,838047","geojson_lng":8.650632,"geojson_lat":51.838047},"geometry":{"type":"Point","coordinates":[8.650632,51.838047]}},{"type":"Feature","properties":{"SeqNo":"654622","Type":"Q","DHID":"de:05774:41407:0:2","Parent":"de:05774:41407","Name":"Ri Süd","MunicipalityCode":"00000000","Municipality":"-","DistrictCode":"-","District":"-","Description":"","Authority":"VRR","DelfiName":"-","THID":"-","LastOperationDate":"","SEV":"nein","longitude":"8,65039","latitude":"51,837819","geojson_lng":8.65039,"geojson_lat":51.837819},"geometry":{"type":"Point","coordinates":[8.65039,51.837819]}},{"type":"Feature","properties":{"SeqNo":"654623","Type":"S","DHID":"de:05774:41408","Parent":"de:05774:41408","Name":"Hövelhof, horatec","MunicipalityCode":"05774024","Municipality":"Hövelhof","DistrictCode":"","District":"","Description":"","Authority":"VRR","DelfiName":"-","THID":"D9168E00A1C0","LastOperationDate":"2025-06-14T00:00:00","SEV":"nein","longitude":"8,649231","latitude":"51,840444","geojson_lng":8.649231,"geojson_lat":51.840444},"geometry":{"type":"Point","coordinates":[8.649231,51.840444]}},{"type":"Feature","properties":{"SeqNo":"654624","Type":"Q","DHID":"de:05774:41408:0:1","Parent":"de:05774:41408","Name":"Wendehammer","MunicipalityCode":"00000000","Municipality":"-","DistrictCode":"-","District":"-","Description":"","Authority":"VRR","DelfiName":"-","THID":"-","LastOperationDate":"","SEV":"nein","longitude":"8,649321","latitude":"51,840444","geojson_lng":8.649321,"geojson_lat":51.840444},"geometry":{"type":"Point","coordinates":[8.649321,51.840444]}},{"type":"Feature","properties":{"SeqNo":"654793","Type":"S","DHID":"de:05774:6164","Parent":"de:05774:6164","Name":"Höv-Hövelriege, Wiethof","MunicipalityCode":"05774024","Municipality":"Hövelhof","DistrictCode":"","District":"","Description":"","Authority":"VRR","DelfiName":"-","THID":"D9168E001814","LastOperationDate":"2025-06-14T00:00:00","SEV":"nein","longitude":"8,652842","latitude":"51,837269","geojson_lng":8.652842,"geojson_lat":51.837269},"geometry":{"type":"Point","coordinates":[8.652842,51.837269]}},{"type":"Feature","properties":{"SeqNo":"654794","Type":"Q","DHID":"de:05774:6164:0:1","Parent":"de:05774:6164","Name":"Ri Hövelhof","MunicipalityCode":"00000000","Municipality":"-","DistrictCode":"-","District":"-","Description":"","Authority":"VRR","DelfiName":"-","THID":"-","LastOperationDate":"","SEV":"nein","longitude":"8,652708","latitude":"51,837497","geojson_lng":8.652708,"geojson_lat":51.837497},"geometry":{"type":"Point","coordinates":[8.652708,51.837497]}},{"type":"Feature","properties":{"SeqNo":"654795","Type":"Q","DHID":"de:05774:6164:0:2","Parent":"de:05774:6164","Name":"Ri Riege","MunicipalityCode":"00000000","Municipality":"-","DistrictCode":"-","District":"-","Description":"","Authority":"VRR","DelfiName":"-","THID":"-","LastOperationDate":"","SEV":"nein","longitude":"8,65207","latitude":"51,837874","geojson_lng":8.65207,"geojson_lat":51.837874},"geometry":{"type":"Point","coordinates":[8.65207,51.837874]}}]}