{"type":"FeatureCollection","features":[{"type":"Feature","properties":{"SeqNo":"451713","Type":"S","DHID":"de:06440:22933","Parent":"de:06440:22933","Name":"Butzbach-Kirch-Göns Grundschule","MunicipalityCode":"06440005","Municipality":"Butzbach","DistrictCode":"-","District":"-","Description":"","Authority":"rms","DelfiName":"-","THID":"D91928005995","LastOperationDate":"2025-06-13T00:00:00","SEV":"nein","longitude":"8,650971","latitude":"50,466805","geojson_lng":8.650971,"geojson_lat":50.466805},"geometry":{"type":"Point","coordinates":[8.650971,50.466805]}},{"type":"Feature","properties":{"SeqNo":"451714","Type":"A","DHID":"de:06440:22933:1","Parent":"de:06440:22933","Name":"Kirch-Göns Oberer Hüttenberg | Nxxx","MunicipalityCode":"00000000","Municipality":"-","DistrictCode":"-","District":"-","Description":"","Authority":"rms","DelfiName":"-","THID":"-","LastOperationDate":"","SEV":"nein","longitude":"8,65066","latitude":"50,466876","geojson_lng":8.65066,"geojson_lat":50.466876},"geometry":{"type":"Point","coordinates":[8.65066,50.466876]}},{"type":"Feature","properties":{"SeqNo":"451715","Type":"Q","DHID":"de:06440:22933:1:1","Parent":"de:06440:22933:1","Name":"Nxxx","MunicipalityCode":"00000000","Municipality":"-","DistrictCode":"-","District":"-","Description":"","Authority":"rms","DelfiName":"-","THID":"-","LastOperationDate":"","SEV":"nein","longitude":"8,65066","latitude":"50,466876","geojson_lng":8.65066,"geojson_lat":50.466876},"geometry":{"type":"Point","coordinates":[8.65066,50.466876]}},{"type":"Feature","properties":{"SeqNo":"454007","Type":"S","DHID":"de:06440:28610","Parent":"de:06440:28610","Name":"Butzbach-Kirch-Göns Bürgerhaus","MunicipalityCode":"06440005","Municipality":"Butzbach","DistrictCode":"-","District":"-","Description":"","Authority":"rms","DelfiName":"-","THID":"D91928006FC2","LastOperationDate":"2025-06-14T00:00:00","SEV":"nein","longitude":"8,653434","latitude":"50,470813","geojson_lng":8.653434,"geojson_lat":50.470813},"geometry":{"type":"Point","coordinates":[8.653434,50.470813]}},{"type":"Feature","properties":{"SeqNo":"454008","Type":"A","DHID":"de:06440:28610:1","Parent":"de:06440:28610","Name":"Kirch-Göns Bürgerhaus | NNiederkleen","MunicipalityCode":"00000000","Municipality":"-","DistrictCode":"-","District":"-","Description":"","Authority":"rms","DelfiName":"-","THID":"-","LastOperationDate":"","SEV":"nein","longitude":"8,653464","latitude":"50,470597","geojson_lng":8.653464,"geojson_lat":50.470597},"geometry":{"type":"Point","coordinates":[8.653464,50.470597]}},{"type":"Feature","properties":{"SeqNo":"454009","Type":"A","DHID":"de:06440:28610:2","Parent":"de:06440:28610","Name":"Kirch-Göns Bürgerhaus | NPohl-Göns","MunicipalityCode":"00000000","Municipality":"-","DistrictCode":"-","District":"-","Description":"","Authority":"rms","DelfiName":"-","THID":"-","LastOperationDate":"","SEV":"nein","longitude":"8,653461","latitude":"50,471028","geojson_lng":8.653461,"geojson_lat":50.471028},"geometry":{"type":"Point","coordinates":[8.653461,50.471028]}},{"type":"Feature","properties":{"SeqNo":"454010","Type":"Q","DHID":"de:06440:28610:1:1","Parent":"de:06440:28610:1","Name":"NNiederkleen","MunicipalityCode":"00000000","Municipality":"-","DistrictCode":"-","District":"-","Description":"","Authority":"rms","DelfiName":"-","THID":"-","LastOperationDate":"","SEV":"nein","longitude":"8,653464","latitude":"50,470597","geojson_lng":8.653464,"geojson_lat":50.470597},"geometry":{"type":"Point","coordinates":[8.653464,50.470597]}},{"type":"Feature","properties":{"SeqNo":"454011","Type":"Q","DHID":"de:06440:28610:2:2","Parent":"de:06440:28610:2","Name":"NPohl-Göns","MunicipalityCode":"00000000","Municipality":"-","DistrictCode":"-","District":"-","Description":"","Authority":"rms","DelfiName":"-","THID":"-","LastOperationDate":"","SEV":"nein","longitude":"8,653461","latitude":"50,471028","geojson_lng":8.653461,"geojson_lat":50.471028},"geometry":{"type":"Point","coordinates":[8.653461,50.471028]}}]}