{"type":"FeatureCollection","features":[{"type":"Feature","properties":{"SeqNo":"783078","Type":"S","DHID":"de:08226:4102","Parent":"de:08226:4102","Name":"Weinheim, Akazienweg","MunicipalityCode":"08226096","Municipality":"Weinheim","DistrictCode":"","District":"","Description":"","Authority":"VRN","DelfiName":"-","THID":"D92022001006","LastOperationDate":"2025-06-14T00:00:00","SEV":"nein","longitude":"8,647803","latitude":"49,548674","geojson_lng":8.647803,"geojson_lat":49.548674},"geometry":{"type":"Point","coordinates":[8.647803,49.548674]}},{"type":"Feature","properties":{"SeqNo":"783079","Type":"Q","DHID":"de:08226:4102:0:1","Parent":"de:08226:4102","Name":"1","MunicipalityCode":"00000000","Municipality":"-","DistrictCode":"-","District":"-","Description":"","Authority":"VRN","DelfiName":"-","THID":"-","LastOperationDate":"","SEV":"nein","longitude":"8,647794","latitude":"49,548663","geojson_lng":8.647794,"geojson_lat":49.548663},"geometry":{"type":"Point","coordinates":[8.647794,49.548663]}},{"type":"Feature","properties":{"SeqNo":"783158","Type":"S","DHID":"de:08226:4118","Parent":"de:08226:4118","Name":"Weinheim, Händelstraße","MunicipalityCode":"08226096","Municipality":"Weinheim","DistrictCode":"","District":"","Description":"","Authority":"VRN","DelfiName":"-","THID":"D92022001016","LastOperationDate":"2025-06-12T00:00:00","SEV":"nein","longitude":"8,655924","latitude":"49,548791","geojson_lng":8.655924,"geojson_lat":49.548791},"geometry":{"type":"Point","coordinates":[8.655924,49.548791]}},{"type":"Feature","properties":{"SeqNo":"783159","Type":"A","DHID":"de:08226:4118:1","Parent":"de:08226:4118","Name":"Tram","MunicipalityCode":"00000000","Municipality":"-","DistrictCode":"-","District":"-","Description":"","Authority":"VRN","DelfiName":"-","THID":"-","LastOperationDate":"","SEV":"nein","longitude":"8,655959","latitude":"49,548803","geojson_lng":8.655959,"geojson_lat":49.548803},"geometry":{"type":"Point","coordinates":[8.655959,49.548803]}},{"type":"Feature","properties":{"SeqNo":"783160","Type":"A","DHID":"de:08226:4118:2","Parent":"de:08226:4118","Name":"Bus","MunicipalityCode":"00000000","Municipality":"-","DistrictCode":"-","District":"-","Description":"","Authority":"VRN","DelfiName":"-","THID":"-","LastOperationDate":"","SEV":"nein","longitude":"8,655322","latitude":"49,548226","geojson_lng":8.655322,"geojson_lat":49.548226},"geometry":{"type":"Point","coordinates":[8.655322,49.548226]}},{"type":"Feature","properties":{"SeqNo":"783161","Type":"A","DHID":"de:08226:4118:3","Parent":"de:08226:4118","Name":"SEV","MunicipalityCode":"00000000","Municipality":"-","DistrictCode":"-","District":"-","Description":"","Authority":"VRN","DelfiName":"-","THID":"-","LastOperationDate":"","SEV":"nein","longitude":"8,655214","latitude":"49,548657","geojson_lng":8.655214,"geojson_lat":49.548657},"geometry":{"type":"Point","coordinates":[8.655214,49.548657]}},{"type":"Feature","properties":{"SeqNo":"783162","Type":"Q","DHID":"de:08226:4118:1:TrRiO","Parent":"de:08226:4118:1","Name":"Tram Ri O Bahnhof","MunicipalityCode":"00000000","Municipality":"-","DistrictCode":"-","District":"-","Description":"","Authority":"VRN","DelfiName":"-","THID":"-","LastOperationDate":"","SEV":"nein","longitude":"8,655349","latitude":"49,548587","geojson_lng":8.655349,"geojson_lat":49.548587},"geometry":{"type":"Point","coordinates":[8.655349,49.548587]}},{"type":"Feature","properties":{"SeqNo":"783163","Type":"Q","DHID":"de:08226:4118:1:TrRiW","Parent":"de:08226:4118:1","Name":"Tram Ri W Stahlbad","MunicipalityCode":"00000000","Municipality":"-","DistrictCode":"-","District":"-","Description":"","Authority":"VRN","DelfiName":"-","THID":"-","LastOperationDate":"","SEV":"nein","longitude":"8,655492","latitude":"49,548669","geojson_lng":8.655492,"geojson_lat":49.548669},"geometry":{"type":"Point","coordinates":[8.655492,49.548669]}},{"type":"Feature","properties":{"SeqNo":"783164","Type":"Q","DHID":"de:08226:4118:2:3","Parent":"de:08226:4118:2","Name":"RiN","MunicipalityCode":"00000000","Municipality":"-","DistrictCode":"-","District":"-","Description":"","Authority":"VRN","DelfiName":"-","THID":"-","LastOperationDate":"","SEV":"nein","longitude":"8,655367","latitude":"49,548231","geojson_lng":8.655367,"geojson_lat":49.548231},"geometry":{"type":"Point","coordinates":[8.655367,49.548231]}},{"type":"Feature","properties":{"SeqNo":"783165","Type":"Q","DHID":"de:08226:4118:2:BuRiS","Parent":"de:08226:4118:2","Name":"RiS Schollstr","MunicipalityCode":"00000000","Municipality":"-","DistrictCode":"-","District":"-","Description":"","Authority":"VRN","DelfiName":"-","THID":"-","LastOperationDate":"","SEV":"nein","longitude":"8,655277","latitude":"49,547981","geojson_lng":8.655277,"geojson_lat":49.547981},"geometry":{"type":"Point","coordinates":[8.655277,49.547981]}},{"type":"Feature","properties":{"SeqNo":"783166","Type":"Q","DHID":"de:08226:4118:3:Bus","Parent":"de:08226:4118:3","Name":"SEV Bus","MunicipalityCode":"00000000","Municipality":"-","DistrictCode":"-","District":"-","Description":"","Authority":"VRN","DelfiName":"-","THID":"-","LastOperationDate":"","SEV":"nein","longitude":"8,655196","latitude":"49,548634","geojson_lng":8.655196,"geojson_lat":49.548634},"geometry":{"type":"Point","coordinates":[8.655196,49.548634]}},{"type":"Feature","properties":{"SeqNo":"783211","Type":"S","DHID":"de:08226:4134","Parent":"de:08226:4134","Name":"Weinheim, Schollstraße","MunicipalityCode":"08226096","Municipality":"Weinheim","DistrictCode":"-","District":"-","Description":"","Authority":"VRN","DelfiName":"-","THID":"D92022001026","LastOperationDate":"2025-06-14T00:00:00","SEV":"nein","longitude":"8,6526","latitude":"49,54706","geojson_lng":8.6526,"geojson_lat":49.54706},"geometry":{"type":"Point","coordinates":[8.6526,49.54706]}},{"type":"Feature","properties":{"SeqNo":"783212","Type":"Q","DHID":"de:08226:4134:0:RiN","Parent":"de:08226:4134","Name":"RiN Händelstraße","MunicipalityCode":"00000000","Municipality":"-","DistrictCode":"-","District":"-","Description":"RiN Händelstraße","Authority":"VRN","DelfiName":"-","THID":"-","LastOperationDate":"","SEV":"nein","longitude":"8,652797","latitude":"49,547031","geojson_lng":8.652797,"geojson_lat":49.547031},"geometry":{"type":"Point","coordinates":[8.652797,49.547031]}},{"type":"Feature","properties":{"SeqNo":"783213","Type":"Q","DHID":"de:08226:4134:0:RiS","Parent":"de:08226:4134","Name":"RiS Stahlbad","MunicipalityCode":"00000000","Municipality":"-","DistrictCode":"-","District":"-","Description":"RiS Stahlbad","Authority":"VRN","DelfiName":"-","THID":"-","LastOperationDate":"","SEV":"nein","longitude":"8,652519","latitude":"49,547042","geojson_lng":8.652519,"geojson_lat":49.547042},"geometry":{"type":"Point","coordinates":[8.652519,49.547042]}},{"type":"Feature","properties":{"SeqNo":"783225","Type":"S","DHID":"de:08226:4138","Parent":"de:08226:4138","Name":"Weinheim, Berliner Platz","MunicipalityCode":"08226096","Municipality":"Weinheim","DistrictCode":"08226","District":"","Description":"","Authority":"VRN","DelfiName":"-","THID":"D9202200102A","LastOperationDate":"1999-12-31T00:00:00","SEV":"nein","longitude":"8,654082","latitude":"49,548173","geojson_lng":8.654082,"geojson_lat":49.548173},"geometry":{"type":"Point","coordinates":[8.654082,49.548173]}},{"type":"Feature","properties":{"SeqNo":"783259","Type":"S","DHID":"de:08226:4149","Parent":"de:08226:4149","Name":"Weinheim, Wormser Straße","MunicipalityCode":"08226096","Municipality":"Weinheim","DistrictCode":"-","District":"-","Description":"","Authority":"VRN","DelfiName":"-","THID":"D92022001035","LastOperationDate":"2025-06-14T00:00:00","SEV":"nein","longitude":"8,656103","latitude":"49,552661","geojson_lng":8.656103,"geojson_lat":49.552661},"geometry":{"type":"Point","coordinates":[8.656103,49.552661]}},{"type":"Feature","properties":{"SeqNo":"783260","Type":"A","DHID":"de:08226:4149:1","Parent":"de:08226:4149","Name":"OEG Bus","MunicipalityCode":"00000000","Municipality":"-","DistrictCode":"-","District":"-","Description":"OEG Bus","Authority":"VRN","DelfiName":"-","THID":"-","LastOperationDate":"","SEV":"nein","longitude":"8,655888","latitude":"49,552649","geojson_lng":8.655888,"geojson_lat":49.552649},"geometry":{"type":"Point","coordinates":[8.655888,49.552649]}},{"type":"Feature","properties":{"SeqNo":"783261","Type":"A","DHID":"de:08226:4149:2","Parent":"de:08226:4149","Name":"BRN","MunicipalityCode":"00000000","Municipality":"-","DistrictCode":"-","District":"-","Description":"BRN","Authority":"VRN","DelfiName":"-","THID":"-","LastOperationDate":"","SEV":"nein","longitude":"8,656274","latitude":"49,55269","geojson_lng":8.656274,"geojson_lat":49.55269},"geometry":{"type":"Point","coordinates":[8.656274,49.55269]}},{"type":"Feature","properties":{"SeqNo":"783262","Type":"Q","DHID":"de:08226:4149:1:RiO","Parent":"de:08226:4149:1","Name":"RiO HaWei","MunicipalityCode":"00000000","Municipality":"-","DistrictCode":"-","District":"-","Description":"RiO HaWei","Authority":"VRN","DelfiName":"-","THID":"-","LastOperationDate":"","SEV":"nein","longitude":"8,655906","latitude":"49,552643","geojson_lng":8.655906,"geojson_lat":49.552643},"geometry":{"type":"Point","coordinates":[8.655906,49.552643]}},{"type":"Feature","properties":{"SeqNo":"783263","Type":"Q","DHID":"de:08226:4149:1:RiW","Parent":"de:08226:4149:1","Name":"RiW Multzentrum","MunicipalityCode":"00000000","Municipality":"-","DistrictCode":"-","District":"-","Description":"RiW Multzentrum","Authority":"VRN","DelfiName":"-","THID":"-","LastOperationDate":"","SEV":"nein","longitude":"8,656265","latitude":"49,552684","geojson_lng":8.656265,"geojson_lat":49.552684},"geometry":{"type":"Point","coordinates":[8.656265,49.552684]}},{"type":"Feature","properties":{"SeqNo":"783267","Type":"S","DHID":"de:08226:4151","Parent":"de:08226:4151","Name":"Weinheim, Multzentrum","MunicipalityCode":"08226096","Municipality":"Weinheim","DistrictCode":"-","District":"-","Description":"","Authority":"VRN","DelfiName":"-","THID":"D92022001037","LastOperationDate":"2025-06-14T00:00:00","SEV":"nein","longitude":"8,653354","latitude":"49,549531","geojson_lng":8.653354,"geojson_lat":49.549531},"geometry":{"type":"Point","coordinates":[8.653354,49.549531]}},{"type":"Feature","properties":{"SeqNo":"783268","Type":"Q","DHID":"de:08226:4151:0:RiO","Parent":"de:08226:4151","Name":"RiO Händelstraße/Wormser Straße","MunicipalityCode":"00000000","Municipality":"-","DistrictCode":"-","District":"-","Description":"RiO Händelstraße/Wormser Straße","Authority":"VRN","DelfiName":"-","THID":"-","LastOperationDate":"","SEV":"nein","longitude":"8,653354","latitude":"49,549438","geojson_lng":8.653354,"geojson_lat":49.549438},"geometry":{"type":"Point","coordinates":[8.653354,49.549438]}},{"type":"Feature","properties":{"SeqNo":"783269","Type":"Q","DHID":"de:08226:4151:0:RiW","Parent":"de:08226:4151","Name":"RiW Bensheimer Straße/Krankenhaus GRN","MunicipalityCode":"00000000","Municipality":"-","DistrictCode":"-","District":"-","Description":"RiW Bensheimer Straße/Krankenhaus GRN","Authority":"VRN","DelfiName":"-","THID":"-","LastOperationDate":"","SEV":"nein","longitude":"8,653354","latitude":"49,54963","geojson_lng":8.653354,"geojson_lat":49.54963},"geometry":{"type":"Point","coordinates":[8.653354,49.54963]}},{"type":"Feature","properties":{"SeqNo":"783272","Type":"S","DHID":"de:08226:4153","Parent":"de:08226:4153","Name":"Weinheim, Krankenhaus GRN","MunicipalityCode":"08226096","Municipality":"Weinheim","DistrictCode":"-","District":"-","Description":"","Authority":"VRN","DelfiName":"-","THID":"D92022001039","LastOperationDate":"2025-06-14T00:00:00","SEV":"nein","longitude":"8,646204","latitude":"49,548692","geojson_lng":8.646204,"geojson_lat":49.548692},"geometry":{"type":"Point","coordinates":[8.646204,49.548692]}},{"type":"Feature","properties":{"SeqNo":"783273","Type":"Q","DHID":"de:08226:4153:0:1","Parent":"de:08226:4153","Name":"ins Krankenhaus","MunicipalityCode":"00000000","Municipality":"-","DistrictCode":"-","District":"-","Description":"ins Krankenhaus","Authority":"VRN","DelfiName":"-","THID":"-","LastOperationDate":"","SEV":"nein","longitude":"8,64641","latitude":"49,548762","geojson_lng":8.64641,"geojson_lat":49.548762},"geometry":{"type":"Point","coordinates":[8.64641,49.548762]}},{"type":"Feature","properties":{"SeqNo":"783274","Type":"Q","DHID":"de:08226:4153:0:2","Parent":"de:08226:4153","Name":"Krankenhaus raus","MunicipalityCode":"00000000","Municipality":"-","DistrictCode":"-","District":"-","Description":"Krankenhaus raus","Authority":"VRN","DelfiName":"-","THID":"-","LastOperationDate":"","SEV":"nein","longitude":"8,646195","latitude":"49,548581","geojson_lng":8.646195,"geojson_lat":49.548581},"geometry":{"type":"Point","coordinates":[8.646195,49.548581]}}]}