{"type":"FeatureCollection","features":[{"type":"Feature","properties":{"highway":"bus_stop","public_transport":"platform","name":"Zaanenlaan","ref:IFOPT":"NL:Q:55100100","_quaycode":"NL:Q:55100100","_town":"Haarlem","_status":"available","_mode":"bus","_direction":44,"_visuallyAccessible":false,"_disabledAccessible":true,"geojson_lng":4.6457540050256,"geojson_lat":52.40205482937432},"geometry":{"type":"Point","coordinates":[4.6457540050256,52.40205482937432]}},{"type":"Feature","properties":{"highway":"bus_stop","public_transport":"platform","name":"Zaanenlaan","ref:IFOPT":"NL:Q:55100150","_quaycode":"NL:Q:55100150","_town":"Haarlem","_status":"available","_mode":"bus","_direction":209,"_visuallyAccessible":true,"_disabledAccessible":true,"geojson_lng":4.644648852718871,"geojson_lat":52.40048402193889},"geometry":{"type":"Point","coordinates":[4.644648852718871,52.40048402193889]}},{"type":"Feature","properties":{"highway":"bus_stop","public_transport":"platform","name":"Kloosterstraat","ref:IFOPT":"NL:Q:55100060","_quaycode":"NL:Q:55100060","_town":"Haarlem","_status":"available","_mode":"bus","_direction":25,"_visuallyAccessible":false,"_disabledAccessible":true,"geojson_lng":4.6411772398908555,"geojson_lat":52.394602127977144},"geometry":{"type":"Point","coordinates":[4.6411772398908555,52.394602127977144]}},{"type":"Feature","properties":{"highway":"bus_stop","public_transport":"platform","name":"Julianapark","ref:IFOPT":"NL:Q:55100080","_quaycode":"NL:Q:55100080","_town":"Haarlem","_status":"available","_mode":"bus","_direction":51,"_visuallyAccessible":true,"_disabledAccessible":true,"geojson_lng":4.643151266414595,"geojson_lat":52.39778725778126},"geometry":{"type":"Point","coordinates":[4.643151266414595,52.39778725778126]}},{"type":"Feature","properties":{"highway":"bus_stop","public_transport":"platform","name":"Frans Halsplein","ref:IFOPT":"NL:Q:55100040","_quaycode":"NL:Q:55100040","_town":"Haarlem","_status":"available","_mode":"bus","_direction":78,"_visuallyAccessible":true,"_disabledAccessible":false,"geojson_lng":4.640473895824098,"geojson_lat":52.39013072866642},"geometry":{"type":"Point","coordinates":[4.640473895824098,52.39013072866642]}},{"type":"Feature","properties":{"highway":"bus_stop","public_transport":"platform","name":"Kloosterstraat","ref:IFOPT":"NL:Q:55100190","_quaycode":"NL:Q:55100190","_town":"Haarlem","_status":"available","_mode":"bus","_direction":210,"_visuallyAccessible":false,"_disabledAccessible":true,"geojson_lng":4.6401981311805365,"geojson_lat":52.3934185469392},"geometry":{"type":"Point","coordinates":[4.6401981311805365,52.3934185469392]}},{"type":"Feature","properties":{"highway":"bus_stop","public_transport":"platform","name":"Julianapark","ref:IFOPT":"NL:Q:55100170","_quaycode":"NL:Q:55100170","_town":"Haarlem","_status":"available","_mode":"bus","_direction":229,"_visuallyAccessible":false,"_disabledAccessible":true,"geojson_lng":4.642465446889219,"geojson_lat":52.397504324002526},"geometry":{"type":"Point","coordinates":[4.642465446889219,52.397504324002526]}},{"type":"Feature","properties":{"highway":"bus_stop","public_transport":"platform","name":"Zaanenstraat","ref:IFOPT":"NL:Q:55102100","_quaycode":"NL:Q:55102100","_town":"Haarlem","_status":"available","_mode":"bus","_direction":36,"_visuallyAccessible":false,"_disabledAccessible":false,"geojson_lng":4.652349475647159,"geojson_lat":52.400424195046746},"geometry":{"type":"Point","coordinates":[4.652349475647159,52.400424195046746]}},{"type":"Feature","properties":{"highway":"bus_stop","public_transport":"platform","name":"Paul Krugerkade","ref:IFOPT":"NL:Q:55102350","_quaycode":"NL:Q:55102350","_town":"Haarlem","_status":"available","_mode":"bus","_direction":13,"_visuallyAccessible":false,"_disabledAccessible":true,"geojson_lng":4.649899824750782,"geojson_lat":52.39222104469166},"geometry":{"type":"Point","coordinates":[4.649899824750782,52.39222104469166]}},{"type":"Feature","properties":{"highway":"bus_stop","public_transport":"platform","name":"Paul Krugerkade","ref:IFOPT":"NL:Q:55102360","_quaycode":"NL:Q:55102360","_town":"Haarlem","_status":"available","_mode":"bus","_direction":194,"_visuallyAccessible":false,"_disabledAccessible":true,"geojson_lng":4.6496076760152345,"geojson_lat":52.39212035909621},"geometry":{"type":"Point","coordinates":[4.6496076760152345,52.39212035909621]}},{"type":"Feature","properties":{"highway":"bus_stop","public_transport":"platform","name":"Waarderbrug","ref:IFOPT":"NL:Q:55102380","_quaycode":"NL:Q:55102380","_town":"Haarlem","_status":"available","_mode":"bus","_direction":189,"_visuallyAccessible":true,"_disabledAccessible":true,"geojson_lng":4.650270196420695,"geojson_lat":52.394686020825155},"geometry":{"type":"Point","coordinates":[4.650270196420695,52.394686020825155]}},{"type":"Feature","properties":{"highway":"bus_stop","public_transport":"platform","name":"Waarderbrug","ref:IFOPT":"NL:Q:55102370","_quaycode":"NL:Q:55102370","_town":"Haarlem","_status":"available","_mode":"bus","_direction":11,"_visuallyAccessible":false,"_disabledAccessible":false,"geojson_lng":4.650423077217514,"geojson_lat":52.39432745810196},"geometry":{"type":"Point","coordinates":[4.650423077217514,52.39432745810196]}},{"type":"Feature","properties":{"highway":"bus_stop","public_transport":"platform","name":"Zaanenstraat","ref:IFOPT":"NL:Q:55102170","_quaycode":"NL:Q:55102170","_town":"Haarlem","_status":"available","_mode":"bus","_direction":208,"_visuallyAccessible":false,"_disabledAccessible":false,"geojson_lng":4.651698758200512,"geojson_lat":52.39979100748674},"geometry":{"type":"Point","coordinates":[4.651698758200512,52.39979100748674]}}]}