{"type":"FeatureCollection","features":[{"type":"Feature","properties":{"SeqNo":"573608","Type":"S","DHID":"de:05362:83758","Parent":"de:05362:83758","Name":"Hürth Fischenich Auf der Höhe","MunicipalityCode":"05362028","Municipality":"Hürth","DistrictCode":"","District":"","Description":"","Authority":"VRR","DelfiName":"-","THID":"D914F201472E","LastOperationDate":"2025-01-06T00:00:00","SEV":"nein","longitude":"6,886521","latitude":"50,855228","geojson_lng":6.886521,"geojson_lat":50.855228},"geometry":{"type":"Point","coordinates":[6.886521,50.855228]}},{"type":"Feature","properties":{"SeqNo":"573609","Type":"A","DHID":"de:05362:83758:2","Parent":"de:05362:83758","Name":"Auf der Höhe","MunicipalityCode":"00000000","Municipality":"-","DistrictCode":"-","District":"-","Description":"","Authority":"VRR","DelfiName":"-","THID":"-","LastOperationDate":"","SEV":"nein","longitude":"6,886521","latitude":"50,855228","geojson_lng":6.886521,"geojson_lat":50.855228},"geometry":{"type":"Point","coordinates":[6.886521,50.855228]}},{"type":"Feature","properties":{"SeqNo":"573610","Type":"Q","DHID":"de:05362:83758:2:21","Parent":"de:05362:83758:2","Name":"","MunicipalityCode":"00000000","Municipality":"-","DistrictCode":"-","District":"-","Description":"","Authority":"VRR","DelfiName":"-","THID":"-","LastOperationDate":"","SEV":"nein","longitude":"6,886512","latitude":"50,855296","geojson_lng":6.886512,"geojson_lat":50.855296},"geometry":{"type":"Point","coordinates":[6.886512,50.855296]}},{"type":"Feature","properties":{"SeqNo":"573611","Type":"Q","DHID":"de:05362:83758:2:22","Parent":"de:05362:83758:2","Name":"","MunicipalityCode":"00000000","Municipality":"-","DistrictCode":"-","District":"-","Description":"","Authority":"VRR","DelfiName":"-","THID":"-","LastOperationDate":"","SEV":"nein","longitude":"6,886575","latitude":"50,855177","geojson_lng":6.886575,"geojson_lat":50.855177},"geometry":{"type":"Point","coordinates":[6.886575,50.855177]}},{"type":"Feature","properties":{"SeqNo":"573643","Type":"S","DHID":"de:05362:83853","Parent":"de:05362:83853","Name":"Hürth Kendenich Am Schneeberg","MunicipalityCode":"05362028","Municipality":"Hürth","DistrictCode":"","District":"","Description":"","Authority":"VRR","DelfiName":"-","THID":"D914F201478D","LastOperationDate":"2025-01-06T00:00:00","SEV":"nein","longitude":"6,88688","latitude":"50,859594","geojson_lng":6.88688,"geojson_lat":50.859594},"geometry":{"type":"Point","coordinates":[6.88688,50.859594]}},{"type":"Feature","properties":{"SeqNo":"573644","Type":"A","DHID":"de:05362:83853:2","Parent":"de:05362:83853","Name":"Am Schneeberg","MunicipalityCode":"00000000","Municipality":"-","DistrictCode":"-","District":"-","Description":"","Authority":"VRR","DelfiName":"-","THID":"-","LastOperationDate":"","SEV":"nein","longitude":"6,88688","latitude":"50,859588","geojson_lng":6.88688,"geojson_lat":50.859588},"geometry":{"type":"Point","coordinates":[6.88688,50.859588]}},{"type":"Feature","properties":{"SeqNo":"573645","Type":"Q","DHID":"de:05362:83853:2:21","Parent":"de:05362:83853:2","Name":"","MunicipalityCode":"00000000","Municipality":"-","DistrictCode":"-","District":"-","Description":"","Authority":"VRR","DelfiName":"-","THID":"-","LastOperationDate":"","SEV":"nein","longitude":"6,886934","latitude":"50,859515","geojson_lng":6.886934,"geojson_lat":50.859515},"geometry":{"type":"Point","coordinates":[6.886934,50.859515]}},{"type":"Feature","properties":{"SeqNo":"573646","Type":"Q","DHID":"de:05362:83853:2:22","Parent":"de:05362:83853:2","Name":"","MunicipalityCode":"00000000","Municipality":"-","DistrictCode":"-","District":"-","Description":"","Authority":"VRR","DelfiName":"-","THID":"-","LastOperationDate":"","SEV":"nein","longitude":"6,886835","latitude":"50,859741","geojson_lng":6.886835,"geojson_lat":50.859741},"geometry":{"type":"Point","coordinates":[6.886835,50.859741]}}]}