{"type":"FeatureCollection","features":[{"type":"Feature","properties":{"SeqNo":"577781","Type":"S","DHID":"de:05366:73731","Parent":"de:05366:73731","Name":"Bad M端nstereifel Rupperath","MunicipalityCode":"05366004","Municipality":"Bad M端nstereifel","DistrictCode":"","District":"","Description":"","Authority":"VRR","DelfiName":"-","THID":"D914F6012003","LastOperationDate":"2025-01-06T00:00:00","SEV":"nein","longitude":"6,879802","latitude":"50,470652","geojson_lng":6.879802,"geojson_lat":50.470652},"geometry":{"type":"Point","coordinates":[6.879802,50.470652]}},{"type":"Feature","properties":{"SeqNo":"577782","Type":"A","DHID":"de:05366:73731:2","Parent":"de:05366:73731","Name":"Rupperath","MunicipalityCode":"00000000","Municipality":"-","DistrictCode":"-","District":"-","Description":"","Authority":"VRR","DelfiName":"-","THID":"-","LastOperationDate":"","SEV":"nein","longitude":"6,879784","latitude":"50,470641","geojson_lng":6.879784,"geojson_lat":50.470641},"geometry":{"type":"Point","coordinates":[6.879784,50.470641]}},{"type":"Feature","properties":{"SeqNo":"577783","Type":"Q","DHID":"de:05366:73731:2:21","Parent":"de:05366:73731:2","Name":"","MunicipalityCode":"00000000","Municipality":"-","DistrictCode":"-","District":"-","Description":"","Authority":"VRR","DelfiName":"-","THID":"-","LastOperationDate":"","SEV":"nein","longitude":"6,879802","latitude":"50,470686","geojson_lng":6.879802,"geojson_lat":50.470686},"geometry":{"type":"Point","coordinates":[6.879802,50.470686]}},{"type":"Feature","properties":{"SeqNo":"577784","Type":"Q","DHID":"de:05366:73731:2:22","Parent":"de:05366:73731:2","Name":"","MunicipalityCode":"00000000","Municipality":"-","DistrictCode":"-","District":"-","Description":"","Authority":"VRR","DelfiName":"-","THID":"-","LastOperationDate":"","SEV":"nein","longitude":"6,879802","latitude":"50,470681","geojson_lng":6.879802,"geojson_lat":50.470681},"geometry":{"type":"Point","coordinates":[6.879802,50.470681]}},{"type":"Feature","properties":{"SeqNo":"577841","Type":"S","DHID":"de:05366:73749","Parent":"de:05366:73749","Name":"Bad M端nstereifel Rupperath Rupperather Ring","MunicipalityCode":"05366004","Municipality":"Bad M端nstereifel","DistrictCode":"","District":"","Description":"","Authority":"VRR","DelfiName":"-","THID":"D914F6012015","LastOperationDate":"2024-12-13T00:00:00","SEV":"nein","longitude":"6,878786","latitude":"50,469903","geojson_lng":6.878786,"geojson_lat":50.469903},"geometry":{"type":"Point","coordinates":[6.878786,50.469903]}},{"type":"Feature","properties":{"SeqNo":"577842","Type":"A","DHID":"de:05366:73749:2","Parent":"de:05366:73749","Name":"Rupperather Ring","MunicipalityCode":"00000000","Municipality":"-","DistrictCode":"-","District":"-","Description":"","Authority":"VRR","DelfiName":"-","THID":"-","LastOperationDate":"","SEV":"nein","longitude":"6,878786","latitude":"50,469903","geojson_lng":6.878786,"geojson_lat":50.469903},"geometry":{"type":"Point","coordinates":[6.878786,50.469903]}},{"type":"Feature","properties":{"SeqNo":"577843","Type":"Q","DHID":"de:05366:73749:2:21","Parent":"de:05366:73749:2","Name":"","MunicipalityCode":"00000000","Municipality":"-","DistrictCode":"-","District":"-","Description":"","Authority":"VRR","DelfiName":"-","THID":"-","LastOperationDate":"","SEV":"nein","longitude":"6,878786","latitude":"50,469903","geojson_lng":6.878786,"geojson_lat":50.469903},"geometry":{"type":"Point","coordinates":[6.878786,50.469903]}}]}