{"type":"FeatureCollection","features":[{"type":"Feature","properties":{"highway":"bus_stop","public_transport":"platform","name":"Bloemend.gouw 51","ref:IFOPT":"NL:Q:30001327","_quaycode":"NL:Q:30001327","_town":"Amsterdam","_status":"available","_mode":"bus","_direction":275,"_visuallyAccessible":false,"_disabledAccessible":false,"geojson_lng":5.008591639999982,"geojson_lat":52.39606783804137},"geometry":{"type":"Point","coordinates":[5.008591639999982,52.39606783804137]}},{"type":"Feature","properties":{"highway":"bus_stop","public_transport":"platform","name":"Blijkmeer","ref:IFOPT":"NL:Q:30001048","_quaycode":"NL:Q:30001048","_town":"Amsterdam","_status":"available","_mode":"bus","_direction":53,"_visuallyAccessible":false,"_disabledAccessible":false,"geojson_lng":5.024794812174302,"geojson_lat":52.4089168380854},"geometry":{"type":"Point","coordinates":[5.024794812174302,52.4089168380854]}},{"type":"Feature","properties":{"highway":"bus_stop","public_transport":"platform","name":"Blijkmeer","ref:IFOPT":"NL:Q:30001049","_quaycode":"NL:Q:30001049","_town":"Amsterdam","_status":"available","_mode":"bus","_direction":234,"_visuallyAccessible":false,"_disabledAccessible":false,"geojson_lng":5.024765199707667,"geojson_lat":52.4089437102332},"geometry":{"type":"Point","coordinates":[5.024765199707667,52.4089437102332]}},{"type":"Feature","properties":{"highway":"bus_stop","public_transport":"platform","name":"Dorpsstraat","ref:IFOPT":"NL:Q:37371030","_quaycode":"NL:Q:37371030","_town":"Uitdam","_status":"available","_mode":"bus","_direction":230,"_visuallyAccessible":false,"_disabledAccessible":false,"geojson_lng":5.071816078699996,"geojson_lat":52.42022283884929},"geometry":{"type":"Point","coordinates":[5.071816078699996,52.42022283884929]}},{"type":"Feature","properties":{"highway":"bus_stop","public_transport":"platform","name":"Bloemend.gouw 69","ref:IFOPT":"NL:Q:30001046","_quaycode":"NL:Q:30001046","_town":"Amsterdam","_status":"available","_mode":"bus","_direction":49,"_visuallyAccessible":false,"_disabledAccessible":false,"geojson_lng":5.018125012796726,"geojson_lat":52.403341924301934},"geometry":{"type":"Point","coordinates":[5.018125012796726,52.403341924301934]}},{"type":"Feature","properties":{"highway":"bus_stop","public_transport":"platform","name":"Bloemend.gouw 51","ref:IFOPT":"NL:Q:30001326","_quaycode":"NL:Q:30001326","_town":"Amsterdam","_status":"available","_mode":"bus","_direction":91,"_visuallyAccessible":false,"_disabledAccessible":false,"geojson_lng":5.008694635320445,"geojson_lat":52.396050191961734},"geometry":{"type":"Point","coordinates":[5.008694635320445,52.396050191961734]}},{"type":"Feature","properties":{"highway":"bus_stop","public_transport":"platform","name":"Kinselmeer","ref:IFOPT":"NL:Q:30001045","_quaycode":"NL:Q:30001045","_town":"Ransdorp","_status":"available","_mode":"bus","_direction":238,"_visuallyAccessible":false,"_disabledAccessible":false,"geojson_lng":5.010516251994021,"geojson_lat":52.39607397351512},"geometry":{"type":"Point","coordinates":[5.010516251994021,52.39607397351512]}},{"type":"Feature","properties":{"highway":"bus_stop","public_transport":"platform","name":"Bloemend.gouw 38","ref:IFOPT":"NL:Q:30001050","_quaycode":"NL:Q:30001050","_town":"Holysloot","_status":"available","_mode":"bus","_direction":8,"_visuallyAccessible":false,"_disabledAccessible":false,"geojson_lng":5.025684878729296,"geojson_lat":52.41330549115393},"geometry":{"type":"Point","coordinates":[5.025684878729296,52.41330549115393]}},{"type":"Feature","properties":{"highway":"bus_stop","public_transport":"platform","name":"Bloemend.gouw 69","ref:IFOPT":"NL:Q:30001047","_quaycode":"NL:Q:30001047","_town":"Amsterdam","_status":"available","_mode":"bus","_direction":229,"_visuallyAccessible":false,"_disabledAccessible":false,"geojson_lng":5.017905424770742,"geojson_lat":52.40324237658107},"geometry":{"type":"Point","coordinates":[5.017905424770742,52.40324237658107]}},{"type":"Feature","properties":{"highway":"bus_stop","public_transport":"platform","name":"Camping","ref:IFOPT":"NL:Q:37371010","_quaycode":"NL:Q:37371010","_town":"Uitdam","_status":"available","_mode":"bus","_direction":120,"_visuallyAccessible":false,"_disabledAccessible":false,"geojson_lng":5.071981388355634,"geojson_lat":52.42797951410365},"geometry":{"type":"Point","coordinates":[5.071981388355634,52.42797951410365]}},{"type":"Feature","properties":{"highway":"bus_stop","public_transport":"platform","name":"Dorpsstraat","ref:IFOPT":"NL:Q:37371040","_quaycode":"NL:Q:37371040","_town":"Uitdam","_status":"available","_mode":"bus","_direction":39,"_visuallyAccessible":false,"_disabledAccessible":false,"geojson_lng":5.071934188634477,"geojson_lat":52.420151252815046},"geometry":{"type":"Point","coordinates":[5.071934188634477,52.420151252815046]}},{"type":"Feature","properties":{"highway":"bus_stop","public_transport":"platform","name":"Camping","ref:IFOPT":"NL:Q:37371020","_quaycode":"NL:Q:37371020","_town":"Uitdam","_status":"available","_mode":"bus","_direction":300,"_visuallyAccessible":false,"_disabledAccessible":false,"geojson_lng":5.0719807487451725,"geojson_lat":52.42806938759462},"geometry":{"type":"Point","coordinates":[5.0719807487451725,52.42806938759462]}},{"type":"Feature","properties":{"highway":"bus_stop","public_transport":"platform","name":"Kinselmeer","ref:IFOPT":"NL:Q:30001044","_quaycode":"NL:Q:30001044","_town":"Ransdorp","_status":"available","_mode":"bus","_direction":86,"_visuallyAccessible":false,"_disabledAccessible":false,"geojson_lng":5.010502018518736,"geojson_lat":52.39602000262706},"geometry":{"type":"Point","coordinates":[5.010502018518736,52.39602000262706]}},{"type":"Feature","properties":{"highway":"bus_stop","public_transport":"platform","name":"Bloemend.gouw 38","ref:IFOPT":"NL:Q:30001051","_quaycode":"NL:Q:30001051","_town":"Holysloot","_status":"available","_mode":"bus","_direction":190,"_visuallyAccessible":false,"_disabledAccessible":false,"geojson_lng":5.025611904964027,"geojson_lat":52.41324235553998},"geometry":{"type":"Point","coordinates":[5.025611904964027,52.41324235553998]}},{"type":"Feature","properties":{"highway":"bus_stop","public_transport":"platform","name":"Holysloot","ref:IFOPT":"NL:Q:30001052","_quaycode":"NL:Q:30001052","_town":"Holysloot","_status":"available","_mode":"bus","_direction":43,"_visuallyAccessible":false,"_disabledAccessible":false,"geojson_lng":5.025082798155351,"geojson_lat":52.41324073981563},"geometry":{"type":"Point","coordinates":[5.025082798155351,52.41324073981563]}}]}