{"type":"FeatureCollection","features":[{"type":"Feature","properties":{"SeqNo":"860475","Type":"S","DHID":"de:14628:1800","Parent":"de:14628:1800","Name":"Geising Bahnhof","MunicipalityCode":"14628010","Municipality":"Altenberg","DistrictCode":"","District":"","Description":"","Authority":"VVO","DelfiName":"Geising, Bahnhof","THID":"D93924000708","LastOperationDate":"2025-02-28T00:00:00","SEV":"ja","longitude":"13,786256","latitude":"50,760746","geojson_lng":13.786256,"geojson_lat":50.760746},"geometry":{"type":"Point","coordinates":[13.786256,50.760746]}},{"type":"Feature","properties":{"SeqNo":"860476","Type":"A","DHID":"de:14628:1800:1","Parent":"de:14628:1800","Name":"DB-Bahnsteig","MunicipalityCode":"00000000","Municipality":"-","DistrictCode":"-","District":"-","Description":"","Authority":"VVO","DelfiName":"-","THID":"-","LastOperationDate":"","SEV":"nein","longitude":"13,786283","latitude":"50,760683","geojson_lng":13.786283,"geojson_lat":50.760683},"geometry":{"type":"Point","coordinates":[13.786283,50.760683]}},{"type":"Feature","properties":{"SeqNo":"860477","Type":"A","DHID":"de:14628:1800:2","Parent":"de:14628:1800","Name":"Zugang","MunicipalityCode":"00000000","Municipality":"-","DistrictCode":"-","District":"-","Description":"","Authority":"VVO","DelfiName":"-","THID":"-","LastOperationDate":"","SEV":"nein","longitude":"13,786211","latitude":"50,760825","geojson_lng":13.786211,"geojson_lat":50.760825},"geometry":{"type":"Point","coordinates":[13.786211,50.760825]}},{"type":"Feature","properties":{"SeqNo":"860478","Type":"A","DHID":"de:14628:1800:3","Parent":"de:14628:1800","Name":"Bus","MunicipalityCode":"00000000","Municipality":"-","DistrictCode":"-","District":"-","Description":"","Authority":"VVO","DelfiName":"-","THID":"-","LastOperationDate":"","SEV":"ja","longitude":"13,787136","latitude":"50,760802","geojson_lng":13.787136,"geojson_lat":50.760802},"geometry":{"type":"Point","coordinates":[13.787136,50.760802]}},{"type":"Feature","properties":{"SeqNo":"860479","Type":"Q","DHID":"de:14628:1800:1:Gleis1","Parent":"de:14628:1800:1","Name":"Gleis 1","MunicipalityCode":"00000000","Municipality":"-","DistrictCode":"-","District":"-","Description":"","Authority":"VVO","DelfiName":"-","THID":"-","LastOperationDate":"","SEV":"nein","longitude":"13,786274","latitude":"50,760638","geojson_lng":13.786274,"geojson_lat":50.760638},"geometry":{"type":"Point","coordinates":[13.786274,50.760638]}},{"type":"Feature","properties":{"SeqNo":"860480","Type":"Q","DHID":"de:14628:1800:3:1","Parent":"de:14628:1800:3","Name":"Li. 385 (hin+rück), Li. 367/368 rück","MunicipalityCode":"00000000","Municipality":"-","DistrictCode":"-","District":"-","Description":"","Authority":"VVO","DelfiName":"-","THID":"-","LastOperationDate":"","SEV":"ja","longitude":"13,78737","latitude":"50,760791","geojson_lng":13.78737,"geojson_lat":50.760791},"geometry":{"type":"Point","coordinates":[13.78737,50.760791]}},{"type":"Feature","properties":{"SeqNo":"860481","Type":"Q","DHID":"de:14628:1800:3:2","Parent":"de:14628:1800:3","Name":"Li. 367/368 hin","MunicipalityCode":"00000000","Municipality":"-","DistrictCode":"-","District":"-","Description":"","Authority":"VVO","DelfiName":"-","THID":"-","LastOperationDate":"","SEV":"nein","longitude":"13,78737","latitude":"50,760791","geojson_lng":13.78737,"geojson_lat":50.760791},"geometry":{"type":"Point","coordinates":[13.78737,50.760791]}}]}