{"type":"FeatureCollection","features":[{"type":"Feature","properties":{"SeqNo":"501377","Type":"S","DHID":"de:13075:4055","Parent":"de:13075:4055","Name":"Heringsdorf Seebad","MunicipalityCode":"13075049","Municipality":"Heringsdorf","DistrictCode":"","District":"","Description":"","Authority":"VMV","DelfiName":"-","THID":"D93313000FD7","LastOperationDate":"2025-06-01T00:00:00","SEV":"nein","longitude":"14,169217","latitude":"53,949637","geojson_lng":14.169217,"geojson_lat":53.949637},"geometry":{"type":"Point","coordinates":[14.169217,53.949637]}},{"type":"Feature","properties":{"SeqNo":"501378","Type":"A","DHID":"de:13075:4055:1","Parent":"de:13075:4055","Name":"Bus","MunicipalityCode":"00000000","Municipality":"-","DistrictCode":"-","District":"-","Description":"","Authority":"VMV","DelfiName":"-","THID":"-","LastOperationDate":"","SEV":"nein","longitude":"14,169271","latitude":"53,94969","geojson_lng":14.169271,"geojson_lat":53.94969},"geometry":{"type":"Point","coordinates":[14.169271,53.94969]}},{"type":"Feature","properties":{"SeqNo":"504300","Type":"S","DHID":"de:13075:92240","Parent":"de:13075:92240","Name":"Seebad Heringsdorf","MunicipalityCode":"13075049","Municipality":"Heringsdorf","DistrictCode":"","District":"","Description":"","Authority":"VMV","DelfiName":"-","THID":"D93313016850","LastOperationDate":"2025-06-14T00:00:00","SEV":"nein","longitude":"14,169926","latitude":"53,949315","geojson_lng":14.169926,"geojson_lat":53.949315},"geometry":{"type":"Point","coordinates":[14.169926,53.949315]}},{"type":"Feature","properties":{"SeqNo":"504301","Type":"A","DHID":"de:13075:92240:1","Parent":"de:13075:92240","Name":"Bus SEV","MunicipalityCode":"00000000","Municipality":"-","DistrictCode":"-","District":"-","Description":"","Authority":"VMV","DelfiName":"-","THID":"-","LastOperationDate":"","SEV":"nein","longitude":"14,169926","latitude":"53,949315","geojson_lng":14.169926,"geojson_lat":53.949315},"geometry":{"type":"Point","coordinates":[14.169926,53.949315]}},{"type":"Feature","properties":{"SeqNo":"504302","Type":"A","DHID":"de:13075:92240:2","Parent":"de:13075:92240","Name":"Gleis 1+4","MunicipalityCode":"00000000","Municipality":"-","DistrictCode":"-","District":"-","Description":"","Authority":"VMV","DelfiName":"-","THID":"-","LastOperationDate":"","SEV":"nein","longitude":"14,170735","latitude":"53,949061","geojson_lng":14.170735,"geojson_lat":53.949061},"geometry":{"type":"Point","coordinates":[14.170735,53.949061]}},{"type":"Feature","properties":{"SeqNo":"504303","Type":"A","DHID":"de:13075:92240:3","Parent":"de:13075:92240","Name":"Gleis 4","MunicipalityCode":"00000000","Municipality":"-","DistrictCode":"-","District":"-","Description":"","Authority":"VMV","DelfiName":"-","THID":"-","LastOperationDate":"","SEV":"nein","longitude":"14,170879","latitude":"53,949162","geojson_lng":14.170879,"geojson_lat":53.949162},"geometry":{"type":"Point","coordinates":[14.170879,53.949162]}},{"type":"Feature","properties":{"SeqNo":"504304","Type":"A","DHID":"de:13075:92240:80","Parent":"de:13075:92240","Name":"Parkplatz","MunicipalityCode":"00000000","Municipality":"-","DistrictCode":"-","District":"-","Description":"","Authority":"VMV","DelfiName":"-","THID":"-","LastOperationDate":"","SEV":"nein","longitude":"14,169729","latitude":"53,948834","geojson_lng":14.169729,"geojson_lat":53.948834},"geometry":{"type":"Point","coordinates":[14.169729,53.948834]}},{"type":"Feature","properties":{"SeqNo":"504305","Type":"A","DHID":"de:13075:92240:81","Parent":"de:13075:92240","Name":"B+R","MunicipalityCode":"00000000","Municipality":"-","DistrictCode":"-","District":"-","Description":"","Authority":"VMV","DelfiName":"-","THID":"-","LastOperationDate":"","SEV":"nein","longitude":"14,170016","latitude":"53,949479","geojson_lng":14.170016,"geojson_lat":53.949479},"geometry":{"type":"Point","coordinates":[14.170016,53.949479]}},{"type":"Feature","properties":{"SeqNo":"504306","Type":"A","DHID":"de:13075:92240:90","Parent":"de:13075:92240","Name":"Eingang","MunicipalityCode":"00000000","Municipality":"-","DistrictCode":"-","District":"-","Description":"","Authority":"VMV","DelfiName":"-","THID":"-","LastOperationDate":"","SEV":"nein","longitude":"14,170376","latitude":"53,948786","geojson_lng":14.170376,"geojson_lat":53.948786},"geometry":{"type":"Point","coordinates":[14.170376,53.948786]}},{"type":"Feature","properties":{"SeqNo":"504307","Type":"Q","DHID":"de:13075:92240:1:1","Parent":"de:13075:92240:1","Name":"423101","MunicipalityCode":"00000000","Municipality":"-","DistrictCode":"-","District":"-","Description":"","Authority":"VMV","DelfiName":"-","THID":"-","LastOperationDate":"","SEV":"nein","longitude":"14,169199","latitude":"53,94969","geojson_lng":14.169199,"geojson_lat":53.94969},"geometry":{"type":"Point","coordinates":[14.169199,53.94969]}},{"type":"Feature","properties":{"SeqNo":"504308","Type":"Q","DHID":"de:13075:92240:1:2","Parent":"de:13075:92240:1","Name":"423106","MunicipalityCode":"00000000","Municipality":"-","DistrictCode":"-","District":"-","Description":"","Authority":"VMV","DelfiName":"-","THID":"-","LastOperationDate":"","SEV":"nein","longitude":"14,169307","latitude":"53,949637","geojson_lng":14.169307,"geojson_lat":53.949637},"geometry":{"type":"Point","coordinates":[14.169307,53.949637]}},{"type":"Feature","properties":{"SeqNo":"504309","Type":"Q","DHID":"de:13075:92240:2:1","Parent":"de:13075:92240:2","Name":"Gleis 1","MunicipalityCode":"00000000","Municipality":"-","DistrictCode":"-","District":"-","Description":"","Authority":"VMV","DelfiName":"-","THID":"-","LastOperationDate":"","SEV":"nein","longitude":"14,170798","latitude":"53,949045","geojson_lng":14.170798,"geojson_lat":53.949045},"geometry":{"type":"Point","coordinates":[14.170798,53.949045]}},{"type":"Feature","properties":{"SeqNo":"504310","Type":"Q","DHID":"de:13075:92240:3:4","Parent":"de:13075:92240:3","Name":"Gleis 4","MunicipalityCode":"00000000","Municipality":"-","DistrictCode":"-","District":"-","Description":"","Authority":"VMV","DelfiName":"-","THID":"-","LastOperationDate":"","SEV":"nein","longitude":"14,17087","latitude":"53,949104","geojson_lng":14.17087,"geojson_lat":53.949104},"geometry":{"type":"Point","coordinates":[14.17087,53.949104]}},{"type":"Feature","properties":{"SeqNo":"504311","Type":"Q","DHID":"de:13075:92240:3:5","Parent":"de:13075:92240:3","Name":"Gleis 5","MunicipalityCode":"00000000","Municipality":"-","DistrictCode":"-","District":"-","Description":"","Authority":"VMV","DelfiName":"-","THID":"-","LastOperationDate":"","SEV":"nein","longitude":"14,170969","latitude":"53,949172","geojson_lng":14.170969,"geojson_lat":53.949172},"geometry":{"type":"Point","coordinates":[14.170969,53.949172]}}]}