{"type":"FeatureCollection","features":[{"type":"Feature","properties":{"SeqNo":"44778","Type":"S","DHID":"de:08216:12005","Parent":"de:08216:12005","Name":"Bühlertal Hirschbach","MunicipalityCode":"08216008","Municipality":"Bühlertal","DistrictCode":"","District":"","Description":"","Authority":"NVBW","DelfiName":"-","THID":"D92018002EE5","LastOperationDate":"2025-06-06T00:00:00","SEV":"nein","longitude":"8,195968","latitude":"48,682731","geojson_lng":8.195968,"geojson_lat":48.682731},"geometry":{"type":"Point","coordinates":[8.195968,48.682731]}},{"type":"Feature","properties":{"SeqNo":"44780","Type":"Q","DHID":"de:08216:12005:0:2","Parent":"de:08216:12005","Name":"Ri Post","MunicipalityCode":"00000000","Municipality":"-","DistrictCode":"-","District":"-","Description":"","Authority":"NVBW","DelfiName":"-","THID":"-","LastOperationDate":"","SEV":"nein","longitude":"8,195806","latitude":"48,682696","geojson_lng":8.195806,"geojson_lat":48.682696},"geometry":{"type":"Point","coordinates":[8.195806,48.682696]}},{"type":"Feature","properties":{"SeqNo":"44781","Type":"S","DHID":"de:08216:12006","Parent":"de:08216:12006","Name":"Bühlertal Parkdeck","MunicipalityCode":"08216008","Municipality":"Bühlertal","DistrictCode":"","District":"","Description":"","Authority":"NVBW","DelfiName":"-","THID":"D92018002EE6","LastOperationDate":"2025-06-06T00:00:00","SEV":"nein","longitude":"8,192312","latitude":"48,68253","geojson_lng":8.192312,"geojson_lat":48.68253},"geometry":{"type":"Point","coordinates":[8.192312,48.68253]}},{"type":"Feature","properties":{"SeqNo":"44782","Type":"Q","DHID":"de:08216:12006:0:1","Parent":"de:08216:12006","Name":"Ri Post/Oberer Haaberg","MunicipalityCode":"00000000","Municipality":"-","DistrictCode":"-","District":"-","Description":"","Authority":"NVBW","DelfiName":"-","THID":"-","LastOperationDate":"","SEV":"nein","longitude":"8,192114","latitude":"48,682642","geojson_lng":8.192114,"geojson_lat":48.682642},"geometry":{"type":"Point","coordinates":[8.192114,48.682642]}},{"type":"Feature","properties":{"SeqNo":"44783","Type":"Q","DHID":"de:08216:12006:0:2","Parent":"de:08216:12006","Name":"Ri Geisloch","MunicipalityCode":"00000000","Municipality":"-","DistrictCode":"-","District":"-","Description":"","Authority":"NVBW","DelfiName":"-","THID":"-","LastOperationDate":"","SEV":"nein","longitude":"8,192438","latitude":"48,682417","geojson_lng":8.192438,"geojson_lat":48.682417},"geometry":{"type":"Point","coordinates":[8.192438,48.682417]}},{"type":"Feature","properties":{"SeqNo":"44787","Type":"S","DHID":"de:08216:12008","Parent":"de:08216:12008","Name":"Bühlertal Haaberg Mitte","MunicipalityCode":"08216008","Municipality":"Bühlertal","DistrictCode":"","District":"","Description":"","Authority":"NVBW","DelfiName":"-","THID":"D92018002EE8","LastOperationDate":"2025-06-06T00:00:00","SEV":"nein","longitude":"8,184775","latitude":"48,682435","geojson_lng":8.184775,"geojson_lat":48.682435},"geometry":{"type":"Point","coordinates":[8.184775,48.682435]}},{"type":"Feature","properties":{"SeqNo":"44788","Type":"Q","DHID":"de:08216:12008:0:1","Parent":"de:08216:12008","Name":"Ri Oberer Haaberg","MunicipalityCode":"00000000","Municipality":"-","DistrictCode":"-","District":"-","Description":"","Authority":"NVBW","DelfiName":"-","THID":"-","LastOperationDate":"","SEV":"nein","longitude":"8,184766","latitude":"48,682488","geojson_lng":8.184766,"geojson_lat":48.682488},"geometry":{"type":"Point","coordinates":[8.184766,48.682488]}},{"type":"Feature","properties":{"SeqNo":"44789","Type":"Q","DHID":"de:08216:12008:0:2","Parent":"de:08216:12008","Name":"Ri Post","MunicipalityCode":"00000000","Municipality":"-","DistrictCode":"-","District":"-","Description":"","Authority":"NVBW","DelfiName":"-","THID":"-","LastOperationDate":"","SEV":"nein","longitude":"8,184766","latitude":"48,682381","geojson_lng":8.184766,"geojson_lat":48.682381},"geometry":{"type":"Point","coordinates":[8.184766,48.682381]}},{"type":"Feature","properties":{"SeqNo":"44790","Type":"S","DHID":"de:08216:12009","Parent":"de:08216:12009","Name":"Bühlertal Sandgrube","MunicipalityCode":"08216008","Municipality":"Bühlertal","DistrictCode":"","District":"","Description":"","Authority":"NVBW","DelfiName":"-","THID":"D92018002EE9","LastOperationDate":"2025-06-06T00:00:00","SEV":"nein","longitude":"8,186455","latitude":"48,682085","geojson_lng":8.186455,"geojson_lat":48.682085},"geometry":{"type":"Point","coordinates":[8.186455,48.682085]}},{"type":"Feature","properties":{"SeqNo":"44791","Type":"Q","DHID":"de:08216:12009:0:1","Parent":"de:08216:12009","Name":"Ri Oberer Haaberg","MunicipalityCode":"00000000","Municipality":"-","DistrictCode":"-","District":"-","Description":"","Authority":"NVBW","DelfiName":"-","THID":"-","LastOperationDate":"","SEV":"nein","longitude":"8,18641","latitude":"48,682126","geojson_lng":8.18641,"geojson_lat":48.682126},"geometry":{"type":"Point","coordinates":[8.18641,48.682126]}},{"type":"Feature","properties":{"SeqNo":"44792","Type":"Q","DHID":"de:08216:12009:0:2","Parent":"de:08216:12009","Name":"Ri Post","MunicipalityCode":"00000000","Municipality":"-","DistrictCode":"-","District":"-","Description":"","Authority":"NVBW","DelfiName":"-","THID":"-","LastOperationDate":"","SEV":"nein","longitude":"8,186482","latitude":"48,682055","geojson_lng":8.186482,"geojson_lat":48.682055},"geometry":{"type":"Point","coordinates":[8.186482,48.682055]}},{"type":"Feature","properties":{"SeqNo":"44793","Type":"S","DHID":"de:08216:12010","Parent":"de:08216:12010","Name":"Bühlertal Breitmatt","MunicipalityCode":"08216008","Municipality":"Bühlertal","DistrictCode":"","District":"","Description":"","Authority":"NVBW","DelfiName":"-","THID":"D92018002EEA","LastOperationDate":"2025-06-06T00:00:00","SEV":"nein","longitude":"8,191018","latitude":"48,682257","geojson_lng":8.191018,"geojson_lat":48.682257},"geometry":{"type":"Point","coordinates":[8.191018,48.682257]}},{"type":"Feature","properties":{"SeqNo":"44794","Type":"Q","DHID":"de:08216:12010:0:1","Parent":"de:08216:12010","Name":"Ri Post/Parkdeck","MunicipalityCode":"00000000","Municipality":"-","DistrictCode":"-","District":"-","Description":"","Authority":"NVBW","DelfiName":"-","THID":"-","LastOperationDate":"","SEV":"nein","longitude":"8,191081","latitude":"48,682215","geojson_lng":8.191081,"geojson_lat":48.682215},"geometry":{"type":"Point","coordinates":[8.191081,48.682215]}},{"type":"Feature","properties":{"SeqNo":"44795","Type":"Q","DHID":"de:08216:12010:0:2","Parent":"de:08216:12010","Name":"zum Löschen","MunicipalityCode":"00000000","Municipality":"-","DistrictCode":"-","District":"-","Description":"","Authority":"NVBW","DelfiName":"-","THID":"-","LastOperationDate":"","SEV":"nein","longitude":"8,191387","latitude":"48,682387","geojson_lng":8.191387,"geojson_lat":48.682387},"geometry":{"type":"Point","coordinates":[8.191387,48.682387]}},{"type":"Feature","properties":{"SeqNo":"44808","Type":"S","DHID":"de:08216:12018","Parent":"de:08216:12018","Name":"Bühlertal Josef-Schofer Schule","MunicipalityCode":"08216008","Municipality":"Bühlertal","DistrictCode":"","District":"","Description":"","Authority":"NVBW","DelfiName":"-","THID":"D92018002EF2","LastOperationDate":"2025-06-06T00:00:00","SEV":"nein","longitude":"8,195214","latitude":"48,676367","geojson_lng":8.195214,"geojson_lat":48.676367},"geometry":{"type":"Point","coordinates":[8.195214,48.676367]}},{"type":"Feature","properties":{"SeqNo":"44809","Type":"Q","DHID":"de:08216:12018:0:1","Parent":"de:08216:12018","Name":"1","MunicipalityCode":"00000000","Municipality":"-","DistrictCode":"-","District":"-","Description":"","Authority":"NVBW","DelfiName":"-","THID":"-","LastOperationDate":"","SEV":"nein","longitude":"8,195267","latitude":"48,676367","geojson_lng":8.195267,"geojson_lat":48.676367},"geometry":{"type":"Point","coordinates":[8.195267,48.676367]}},{"type":"Feature","properties":{"SeqNo":"44831","Type":"S","DHID":"de:08216:12027","Parent":"de:08216:12027","Name":"Bühlertal Altes Feuerwehrhaus","MunicipalityCode":"08216008","Municipality":"Bühlertal","DistrictCode":"","District":"","Description":"","Authority":"NVBW","DelfiName":"-","THID":"D92018002EFB","LastOperationDate":"2025-06-06T00:00:00","SEV":"nein","longitude":"8,189967","latitude":"48,682298","geojson_lng":8.189967,"geojson_lat":48.682298},"geometry":{"type":"Point","coordinates":[8.189967,48.682298]}},{"type":"Feature","properties":{"SeqNo":"44832","Type":"Q","DHID":"de:08216:12027:0:1","Parent":"de:08216:12027","Name":"1","MunicipalityCode":"00000000","Municipality":"-","DistrictCode":"-","District":"-","Description":"","Authority":"NVBW","DelfiName":"-","THID":"-","LastOperationDate":"","SEV":"nein","longitude":"8,190003","latitude":"48,682346","geojson_lng":8.190003,"geojson_lat":48.682346},"geometry":{"type":"Point","coordinates":[8.190003,48.682346]}},{"type":"Feature","properties":{"SeqNo":"44940","Type":"S","DHID":"de:08216:30168","Parent":"de:08216:30168","Name":"Bühlertal Eichwaldstraße","MunicipalityCode":"08216008","Municipality":"Bühlertal","DistrictCode":"","District":"","Description":"","Authority":"NVBW","DelfiName":"-","THID":"D920180075D8","LastOperationDate":"2025-06-14T00:00:00","SEV":"nein","longitude":"8,195429","latitude":"48,676847","geojson_lng":8.195429,"geojson_lat":48.676847},"geometry":{"type":"Point","coordinates":[8.195429,48.676847]}},{"type":"Feature","properties":{"SeqNo":"44941","Type":"Q","DHID":"de:08216:30168:0:1","Parent":"de:08216:30168","Name":"1","MunicipalityCode":"00000000","Municipality":"-","DistrictCode":"-","District":"-","Description":"","Authority":"NVBW","DelfiName":"-","THID":"-","LastOperationDate":"","SEV":"nein","longitude":"8,195438","latitude":"48,676806","geojson_lng":8.195438,"geojson_lat":48.676806},"geometry":{"type":"Point","coordinates":[8.195438,48.676806]}},{"type":"Feature","properties":{"SeqNo":"45633","Type":"S","DHID":"de:08216:32193","Parent":"de:08216:32193","Name":"Bühlertal Schönbüch","MunicipalityCode":"08216008","Municipality":"Bühlertal","DistrictCode":"","District":"","Description":"","Authority":"NVBW","DelfiName":"-","THID":"D92018007DC1","LastOperationDate":"2025-06-14T00:00:00","SEV":"nein","longitude":"8,187856","latitude":"48,676403","geojson_lng":8.187856,"geojson_lat":48.676403},"geometry":{"type":"Point","coordinates":[8.187856,48.676403]}},{"type":"Feature","properties":{"SeqNo":"45634","Type":"Q","DHID":"de:08216:32193:0:1","Parent":"de:08216:32193","Name":"Ri Neusatz","MunicipalityCode":"00000000","Municipality":"-","DistrictCode":"-","District":"-","Description":"","Authority":"NVBW","DelfiName":"-","THID":"-","LastOperationDate":"","SEV":"nein","longitude":"8,187856","latitude":"48,676456","geojson_lng":8.187856,"geojson_lat":48.676456},"geometry":{"type":"Point","coordinates":[8.187856,48.676456]}},{"type":"Feature","properties":{"SeqNo":"45635","Type":"Q","DHID":"de:08216:32193:0:2","Parent":"de:08216:32193","Name":"Ri Eichwald","MunicipalityCode":"00000000","Municipality":"-","DistrictCode":"-","District":"-","Description":"","Authority":"NVBW","DelfiName":"-","THID":"-","LastOperationDate":"","SEV":"nein","longitude":"8,187901","latitude":"48,676379","geojson_lng":8.187901,"geojson_lat":48.676379},"geometry":{"type":"Point","coordinates":[8.187901,48.676379]}},{"type":"Feature","properties":{"SeqNo":"45642","Type":"S","DHID":"de:08216:32196","Parent":"de:08216:32196","Name":"Bühlertal Post","MunicipalityCode":"08216008","Municipality":"Bühlertal","DistrictCode":"","District":"","Description":"","Authority":"NVBW","DelfiName":"-","THID":"D92018007DC4","LastOperationDate":"2025-06-14T00:00:00","SEV":"nein","longitude":"8,190776","latitude":"48,683698","geojson_lng":8.190776,"geojson_lat":48.683698},"geometry":{"type":"Point","coordinates":[8.190776,48.683698]}},{"type":"Feature","properties":{"SeqNo":"45643","Type":"Q","DHID":"de:08216:32196:0:1","Parent":"de:08216:32196","Name":"Ri Sand","MunicipalityCode":"00000000","Municipality":"-","DistrictCode":"-","District":"-","Description":"","Authority":"NVBW","DelfiName":"-","THID":"-","LastOperationDate":"","SEV":"nein","longitude":"8,190803","latitude":"48,683609","geojson_lng":8.190803,"geojson_lat":48.683609},"geometry":{"type":"Point","coordinates":[8.190803,48.683609]}},{"type":"Feature","properties":{"SeqNo":"45644","Type":"Q","DHID":"de:08216:32196:0:2","Parent":"de:08216:32196","Name":"Ri Bühl","MunicipalityCode":"00000000","Municipality":"-","DistrictCode":"-","District":"-","Description":"","Authority":"NVBW","DelfiName":"-","THID":"-","LastOperationDate":"","SEV":"nein","longitude":"8,190695","latitude":"48,683817","geojson_lng":8.190695,"geojson_lat":48.683817},"geometry":{"type":"Point","coordinates":[8.190695,48.683817]}},{"type":"Feature","properties":{"SeqNo":"45656","Type":"S","DHID":"de:08216:32201","Parent":"de:08216:32201","Name":"Bühlertal Friedhof Obertal","MunicipalityCode":"08216008","Municipality":"Bühlertal","DistrictCode":"","District":"","Description":"","Authority":"NVBW","DelfiName":"-","THID":"D92018007DC9","LastOperationDate":"2025-06-14T00:00:00","SEV":"nein","longitude":"8,190857","latitude":"48,677494","geojson_lng":8.190857,"geojson_lat":48.677494},"geometry":{"type":"Point","coordinates":[8.190857,48.677494]}},{"type":"Feature","properties":{"SeqNo":"45657","Type":"Q","DHID":"de:08216:32201:0:1","Parent":"de:08216:32201","Name":"Ri Neusatz","MunicipalityCode":"00000000","Municipality":"-","DistrictCode":"-","District":"-","Description":"","Authority":"NVBW","DelfiName":"-","THID":"-","LastOperationDate":"","SEV":"nein","longitude":"8,190794","latitude":"48,677518","geojson_lng":8.190794,"geojson_lat":48.677518},"geometry":{"type":"Point","coordinates":[8.190794,48.677518]}},{"type":"Feature","properties":{"SeqNo":"45658","Type":"Q","DHID":"de:08216:32201:0:2","Parent":"de:08216:32201","Name":"Ri Eichwald","MunicipalityCode":"00000000","Municipality":"-","DistrictCode":"-","District":"-","Description":"","Authority":"NVBW","DelfiName":"-","THID":"-","LastOperationDate":"","SEV":"nein","longitude":"8,190902","latitude":"48,677482","geojson_lng":8.190902,"geojson_lat":48.677482},"geometry":{"type":"Point","coordinates":[8.190902,48.677482]}}]}