{"type":"FeatureCollection","features":[{"type":"Feature","properties":{"SeqNo":"721134","Type":"A","DHID":"de:03241:2911:1","Parent":"de:03241:2911","Name":"Stadtbahn","MunicipalityCode":"00000000","Municipality":"-","DistrictCode":"-","District":"-","Description":"","Authority":"HannIT","DelfiName":"-","THID":"-","LastOperationDate":"","SEV":"nein","longitude":"9,733794","latitude":"52,438015","geojson_lng":9.733794,"geojson_lat":52.438015},"geometry":{"type":"Point","coordinates":[9.733794,52.438015]}},{"type":"Feature","properties":{"SeqNo":"721136","Type":"A","DHID":"de:03241:2911:3","Parent":"de:03241:2911","Name":"von Lgh./Zentrum","MunicipalityCode":"00000000","Municipality":"-","DistrictCode":"-","District":"-","Description":"","Authority":"HannIT","DelfiName":"-","THID":"-","LastOperationDate":"","SEV":"nein","longitude":"9,733695","latitude":"52,438617","geojson_lng":9.733695,"geojson_lat":52.438617},"geometry":{"type":"Point","coordinates":[9.733695,52.438617]}},{"type":"Feature","properties":{"SeqNo":"721137","Type":"A","DHID":"de:03241:2911:4","Parent":"de:03241:2911","Name":"Ri. Godshorner St","MunicipalityCode":"00000000","Municipality":"-","DistrictCode":"-","District":"-","Description":"","Authority":"HannIT","DelfiName":"-","THID":"-","LastOperationDate":"","SEV":"nein","longitude":"9,733956","latitude":"52,438409","geojson_lng":9.733956,"geojson_lat":52.438409},"geometry":{"type":"Point","coordinates":[9.733956,52.438409]}},{"type":"Feature","properties":{"SeqNo":"721139","Type":"A","DHID":"de:03241:2911:6","Parent":"de:03241:2911","Name":"Ri. Kastanienalle","MunicipalityCode":"00000000","Municipality":"-","DistrictCode":"-","District":"-","Description":"","Authority":"HannIT","DelfiName":"-","THID":"-","LastOperationDate":"","SEV":"nein","longitude":"9,733426","latitude":"52,437511","geojson_lng":9.733426,"geojson_lat":52.437511},"geometry":{"type":"Point","coordinates":[9.733426,52.437511]}},{"type":"Feature","properties":{"SeqNo":"721140","Type":"A","DHID":"de:03241:2911:7","Parent":"de:03241:2911","Name":"Ri. Walsroder Str","MunicipalityCode":"00000000","Municipality":"-","DistrictCode":"-","District":"-","Description":"","Authority":"HannIT","DelfiName":"-","THID":"-","LastOperationDate":"","SEV":"nein","longitude":"9,733668","latitude":"52,437456","geojson_lng":9.733668,"geojson_lat":52.437456},"geometry":{"type":"Point","coordinates":[9.733668,52.437456]}},{"type":"Feature","properties":{"SeqNo":"721141","Type":"A","DHID":"de:03241:2911:8","Parent":"de:03241:2911","Name":"Stadtbahn 2","MunicipalityCode":"00000000","Municipality":"-","DistrictCode":"-","District":"-","Description":"","Authority":"HannIT","DelfiName":"-","THID":"-","LastOperationDate":"","SEV":"nein","longitude":"9,733992","latitude":"52,438103","geojson_lng":9.733992,"geojson_lat":52.438103},"geometry":{"type":"Point","coordinates":[9.733992,52.438103]}},{"type":"Feature","properties":{"SeqNo":"721142","Type":"A","DHID":"de:03241:2911:80","Parent":"de:03241:2911","Name":"SEV","MunicipalityCode":"00000000","Municipality":"-","DistrictCode":"-","District":"-","Description":"","Authority":"HannIT","DelfiName":"-","THID":"-","LastOperationDate":"","SEV":"nein","longitude":"9,733794","latitude":"52,438015","geojson_lng":9.733794,"geojson_lat":52.438015},"geometry":{"type":"Point","coordinates":[9.733794,52.438015]}},{"type":"Feature","properties":{"SeqNo":"721143","Type":"Q","DHID":"de:03241:2911:1:2911","Parent":"de:03241:2911:1","Name":"Hauptbahnhof","MunicipalityCode":"00000000","Municipality":"-","DistrictCode":"-","District":"-","Description":"","Authority":"HannIT","DelfiName":"-","THID":"-","LastOperationDate":"","SEV":"nein","longitude":"9,733713","latitude":"52,437845","geojson_lng":9.733713,"geojson_lat":52.437845},"geometry":{"type":"Point","coordinates":[9.733713,52.437845]}},{"type":"Feature","properties":{"SeqNo":"721145","Type":"Q","DHID":"de:03241:2911:3:6093","Parent":"de:03241:2911:3","Name":"Langenhagen-Mitte/Bf.","MunicipalityCode":"00000000","Municipality":"-","DistrictCode":"-","District":"-","Description":"","Authority":"HannIT","DelfiName":"-","THID":"-","LastOperationDate":"","SEV":"nein","longitude":"9,733561","latitude":"52,438645","geojson_lng":9.733561,"geojson_lat":52.438645},"geometry":{"type":"Point","coordinates":[9.733561,52.438645]}},{"type":"Feature","properties":{"SeqNo":"721146","Type":"Q","DHID":"de:03241:2911:8:2912","Parent":"de:03241:2911:8","Name":"Langenhagen","MunicipalityCode":"00000000","Municipality":"-","DistrictCode":"-","District":"-","Description":"","Authority":"HannIT","DelfiName":"-","THID":"-","LastOperationDate":"","SEV":"nein","longitude":"9,734028","latitude":"52,438234","geojson_lng":9.734028,"geojson_lat":52.438234},"geometry":{"type":"Point","coordinates":[9.734028,52.438234]}},{"type":"Feature","properties":{"SeqNo":"721147","Type":"Q","DHID":"de:03241:2911:80:22911","Parent":"de:03241:2911:80","Name":"SEV Hauptbahnhof","MunicipalityCode":"00000000","Municipality":"-","DistrictCode":"-","District":"-","Description":"","Authority":"HannIT","DelfiName":"-","THID":"-","LastOperationDate":"","SEV":"nein","longitude":"9,733426","latitude":"52,437708","geojson_lng":9.733426,"geojson_lat":52.437708},"geometry":{"type":"Point","coordinates":[9.733426,52.437708]}},{"type":"Feature","properties":{"SeqNo":"721148","Type":"Q","DHID":"de:03241:2911:80:22912","Parent":"de:03241:2911:80","Name":"SEV Langenhagen","MunicipalityCode":"00000000","Municipality":"-","DistrictCode":"-","District":"-","Description":"","Authority":"HannIT","DelfiName":"-","THID":"-","LastOperationDate":"","SEV":"nein","longitude":"9,733947","latitude":"52,437681","geojson_lng":9.733947,"geojson_lat":52.437681},"geometry":{"type":"Point","coordinates":[9.733947,52.437681]}},{"type":"Feature","properties":{"SeqNo":"721149","Type":"Q","DHID":"de:03241:2911:80:8707","Parent":"de:03241:2911:80","Name":"SEV Hauptbahnhof","MunicipalityCode":"00000000","Municipality":"-","DistrictCode":"-","District":"-","Description":"","Authority":"HannIT","DelfiName":"-","THID":"-","LastOperationDate":"","SEV":"nein","longitude":"9,733426","latitude":"52,437708","geojson_lng":9.733426,"geojson_lat":52.437708},"geometry":{"type":"Point","coordinates":[9.733426,52.437708]}},{"type":"Feature","properties":{"SeqNo":"721150","Type":"Q","DHID":"de:03241:2911:80:8708","Parent":"de:03241:2911:80","Name":"SEV Langenhagen","MunicipalityCode":"00000000","Municipality":"-","DistrictCode":"-","District":"-","Description":"","Authority":"HannIT","DelfiName":"-","THID":"-","LastOperationDate":"","SEV":"nein","longitude":"9,733947","latitude":"52,437681","geojson_lng":9.733947,"geojson_lat":52.437681},"geometry":{"type":"Point","coordinates":[9.733947,52.437681]}},{"type":"Feature","properties":{"SeqNo":"722532","Type":"S","DHID":"de:03241:4158","Parent":"de:03241:4158","Name":"Langenhagen Hans-Böckler-Str.","MunicipalityCode":"03241010","Municipality":"Langenhagen","DistrictCode":"","District":"","Description":"","Authority":"HannIT","DelfiName":"-","THID":"D90CA900103E","LastOperationDate":"2025-06-14T00:00:00","SEV":"nein","longitude":"9,722754","latitude":"52,436049","geojson_lng":9.722754,"geojson_lat":52.436049},"geometry":{"type":"Point","coordinates":[9.722754,52.436049]}},{"type":"Feature","properties":{"SeqNo":"722533","Type":"Q","DHID":"de:03241:4158:0:4158","Parent":"de:03241:4158","Name":"Langenhagen-Mitte/Bf","MunicipalityCode":"00000000","Municipality":"-","DistrictCode":"-","District":"-","Description":"","Authority":"HannIT","DelfiName":"-","THID":"-","LastOperationDate":"","SEV":"nein","longitude":"9,722924","latitude":"52,436076","geojson_lng":9.722924,"geojson_lat":52.436076},"geometry":{"type":"Point","coordinates":[9.722924,52.436076]}},{"type":"Feature","properties":{"SeqNo":"722535","Type":"S","DHID":"de:03241:4161","Parent":"de:03241:4161","Name":"Langenhagen Sattelhof","MunicipalityCode":"03241010","Municipality":"Langenhagen","DistrictCode":"","District":"","Description":"","Authority":"HannIT","DelfiName":"-","THID":"D90CA9001041","LastOperationDate":"2025-06-14T00:00:00","SEV":"nein","longitude":"9,730156","latitude":"52,438683","geojson_lng":9.730156,"geojson_lat":52.438683},"geometry":{"type":"Point","coordinates":[9.730156,52.438683]}},{"type":"Feature","properties":{"SeqNo":"722536","Type":"A","DHID":"de:03241:4161:1","Parent":"de:03241:4161","Name":"von Lgh./Zentrum","MunicipalityCode":"00000000","Municipality":"-","DistrictCode":"-","District":"-","Description":"","Authority":"HannIT","DelfiName":"-","THID":"-","LastOperationDate":"","SEV":"nein","longitude":"9,730228","latitude":"52,438765","geojson_lng":9.730228,"geojson_lat":52.438765},"geometry":{"type":"Point","coordinates":[9.730228,52.438765]}},{"type":"Feature","properties":{"SeqNo":"722537","Type":"A","DHID":"de:03241:4161:2","Parent":"de:03241:4161","Name":"nach Lgh./Zentrum","MunicipalityCode":"00000000","Municipality":"-","DistrictCode":"-","District":"-","Description":"","Authority":"HannIT","DelfiName":"-","THID":"-","LastOperationDate":"","SEV":"nein","longitude":"9,730147","latitude":"52,438607","geojson_lng":9.730147,"geojson_lat":52.438607},"geometry":{"type":"Point","coordinates":[9.730147,52.438607]}},{"type":"Feature","properties":{"SeqNo":"722538","Type":"Q","DHID":"de:03241:4161:1:4161","Parent":"de:03241:4161:1","Name":"Langenhagen-Mitte/Bf.","MunicipalityCode":"00000000","Municipality":"-","DistrictCode":"-","District":"-","Description":"","Authority":"HannIT","DelfiName":"-","THID":"-","LastOperationDate":"","SEV":"nein","longitude":"9,730165","latitude":"52,438771","geojson_lng":9.730165,"geojson_lat":52.438771},"geometry":{"type":"Point","coordinates":[9.730165,52.438771]}},{"type":"Feature","properties":{"SeqNo":"722539","Type":"Q","DHID":"de:03241:4161:2:4162","Parent":"de:03241:4161:2","Name":"Langenhagen/Zentrum","MunicipalityCode":"00000000","Municipality":"-","DistrictCode":"-","District":"-","Description":"","Authority":"HannIT","DelfiName":"-","THID":"-","LastOperationDate":"","SEV":"nein","longitude":"9,730228","latitude":"52,438607","geojson_lng":9.730228,"geojson_lat":52.438607},"geometry":{"type":"Point","coordinates":[9.730228,52.438607]}},{"type":"Feature","properties":{"SeqNo":"725799","Type":"S","DHID":"de:03241:6631","Parent":"de:03241:6631","Name":"Langenhagen Bahnhof Mitte","MunicipalityCode":"03241010","Municipality":"Langenhagen","DistrictCode":"","District":"","Description":"","Authority":"HannIT","DelfiName":"-","THID":"D90CA90019E7","LastOperationDate":"2025-06-14T00:00:00","SEV":"nein","longitude":"9,726024","latitude":"52,440282","geojson_lng":9.726024,"geojson_lat":52.440282},"geometry":{"type":"Point","coordinates":[9.726024,52.440282]}},{"type":"Feature","properties":{"SeqNo":"725800","Type":"A","DHID":"de:03241:6631:1","Parent":"de:03241:6631","Name":"von Lgh./Zentrum","MunicipalityCode":"00000000","Municipality":"-","DistrictCode":"-","District":"-","Description":"","Authority":"HannIT","DelfiName":"-","THID":"-","LastOperationDate":"","SEV":"nein","longitude":"9,726922","latitude":"52,440255","geojson_lng":9.726922,"geojson_lat":52.440255},"geometry":{"type":"Point","coordinates":[9.726922,52.440255]}},{"type":"Feature","properties":{"SeqNo":"725801","Type":"A","DHID":"de:03241:6631:10","Parent":"de:03241:6631","Name":"ZG Gartenstraße","MunicipalityCode":"00000000","Municipality":"-","DistrictCode":"-","District":"-","Description":"","Authority":"HannIT","DelfiName":"-","THID":"-","LastOperationDate":"","SEV":"nein","longitude":"9,724308","latitude":"52,438776","geojson_lng":9.724308,"geojson_lat":52.438776},"geometry":{"type":"Point","coordinates":[9.724308,52.438776]}},{"type":"Feature","properties":{"SeqNo":"725802","Type":"A","DHID":"de:03241:6631:11","Parent":"de:03241:6631","Name":"ZG Straßb. Platz","MunicipalityCode":"00000000","Municipality":"-","DistrictCode":"-","District":"-","Description":"","Authority":"HannIT","DelfiName":"-","THID":"-","LastOperationDate":"","SEV":"nein","longitude":"9,726266","latitude":"52,440589","geojson_lng":9.726266,"geojson_lat":52.440589},"geometry":{"type":"Point","coordinates":[9.726266,52.440589]}},{"type":"Feature","properties":{"SeqNo":"725803","Type":"A","DHID":"de:03241:6631:12","Parent":"de:03241:6631","Name":"ZG Buchengarten","MunicipalityCode":"00000000","Municipality":"-","DistrictCode":"-","District":"-","Description":"","Authority":"HannIT","DelfiName":"-","THID":"-","LastOperationDate":"","SEV":"nein","longitude":"9,723661","latitude":"52,439023","geojson_lng":9.723661,"geojson_lat":52.439023},"geometry":{"type":"Point","coordinates":[9.723661,52.439023]}},{"type":"Feature","properties":{"SeqNo":"725804","Type":"A","DHID":"de:03241:6631:13","Parent":"de:03241:6631","Name":"ZG Brüsseler Str.","MunicipalityCode":"00000000","Municipality":"-","DistrictCode":"-","District":"-","Description":"","Authority":"HannIT","DelfiName":"-","THID":"-","LastOperationDate":"","SEV":"nein","longitude":"9,725637","latitude":"52,440841","geojson_lng":9.725637,"geojson_lat":52.440841},"geometry":{"type":"Point","coordinates":[9.725637,52.440841]}},{"type":"Feature","properties":{"SeqNo":"725805","Type":"A","DHID":"de:03241:6631:2","Parent":"de:03241:6631","Name":"nach Lgh./Zentrum","MunicipalityCode":"00000000","Municipality":"-","DistrictCode":"-","District":"-","Description":"","Authority":"HannIT","DelfiName":"-","THID":"-","LastOperationDate":"","SEV":"nein","longitude":"9,727021","latitude":"52,440206","geojson_lng":9.727021,"geojson_lat":52.440206},"geometry":{"type":"Point","coordinates":[9.727021,52.440206]}},{"type":"Feature","properties":{"SeqNo":"725806","Type":"A","DHID":"de:03241:6631:20","Parent":"de:03241:6631","Name":"ZWG Tunnel Nord","MunicipalityCode":"00000000","Municipality":"-","DistrictCode":"-","District":"-","Description":"","Authority":"HannIT","DelfiName":"-","THID":"-","LastOperationDate":"","SEV":"nein","longitude":"9,725916","latitude":"52,440731","geojson_lng":9.725916,"geojson_lat":52.440731},"geometry":{"type":"Point","coordinates":[9.725916,52.440731]}},{"type":"Feature","properties":{"SeqNo":"725807","Type":"A","DHID":"de:03241:6631:21","Parent":"de:03241:6631","Name":"ZWG Tunnel Süd","MunicipalityCode":"00000000","Municipality":"-","DistrictCode":"-","District":"-","Description":"","Authority":"HannIT","DelfiName":"-","THID":"-","LastOperationDate":"","SEV":"nein","longitude":"9,724011","latitude":"52,438897","geojson_lng":9.724011,"geojson_lat":52.438897},"geometry":{"type":"Point","coordinates":[9.724011,52.438897]}},{"type":"Feature","properties":{"SeqNo":"725808","Type":"A","DHID":"de:03241:6631:3","Parent":"de:03241:6631","Name":"RufTaxi","MunicipalityCode":"00000000","Municipality":"-","DistrictCode":"-","District":"-","Description":"","Authority":"HannIT","DelfiName":"-","THID":"-","LastOperationDate":"","SEV":"nein","longitude":"9,726464","latitude":"52,440145","geojson_lng":9.726464,"geojson_lat":52.440145},"geometry":{"type":"Point","coordinates":[9.726464,52.440145]}},{"type":"Feature","properties":{"SeqNo":"725809","Type":"A","DHID":"de:03241:6631:30","Parent":"de:03241:6631","Name":"P+R","MunicipalityCode":"00000000","Municipality":"-","DistrictCode":"-","District":"-","Description":"","Authority":"HannIT","DelfiName":"-","THID":"-","LastOperationDate":"","SEV":"nein","longitude":"9,724928","latitude":"52,441301","geojson_lng":9.724928,"geojson_lat":52.441301},"geometry":{"type":"Point","coordinates":[9.724928,52.441301]}},{"type":"Feature","properties":{"SeqNo":"725810","Type":"A","DHID":"de:03241:6631:40","Parent":"de:03241:6631","Name":"Aufzug","MunicipalityCode":"00000000","Municipality":"-","DistrictCode":"-","District":"-","Description":"","Authority":"HannIT","DelfiName":"-","THID":"-","LastOperationDate":"","SEV":"nein","longitude":"9,725979","latitude":"52,440731","geojson_lng":9.725979,"geojson_lat":52.440731},"geometry":{"type":"Point","coordinates":[9.725979,52.440731]}},{"type":"Feature","properties":{"SeqNo":"725811","Type":"A","DHID":"de:03241:6631:50","Parent":"de:03241:6631","Name":"B+R","MunicipalityCode":"00000000","Municipality":"-","DistrictCode":"-","District":"-","Description":"","Authority":"HannIT","DelfiName":"-","THID":"-","LastOperationDate":"","SEV":"nein","longitude":"9,725637","latitude":"52,440906","geojson_lng":9.725637,"geojson_lat":52.440906},"geometry":{"type":"Point","coordinates":[9.725637,52.440906]}},{"type":"Feature","properties":{"SeqNo":"725812","Type":"A","DHID":"de:03241:6631:90","Parent":"de:03241:6631","Name":"Gleis 1","MunicipalityCode":"00000000","Municipality":"-","DistrictCode":"-","District":"-","Description":"","Authority":"HannIT","DelfiName":"-","THID":"-","LastOperationDate":"","SEV":"nein","longitude":"9,725592","latitude":"52,440167","geojson_lng":9.725592,"geojson_lat":52.440167},"geometry":{"type":"Point","coordinates":[9.725592,52.440167]}},{"type":"Feature","properties":{"SeqNo":"725813","Type":"A","DHID":"de:03241:6631:91","Parent":"de:03241:6631","Name":"Gleis 2, 3","MunicipalityCode":"00000000","Municipality":"-","DistrictCode":"-","District":"-","Description":"","Authority":"HannIT","DelfiName":"-","THID":"-","LastOperationDate":"","SEV":"nein","longitude":"9,725413","latitude":"52,440233","geojson_lng":9.725413,"geojson_lat":52.440233},"geometry":{"type":"Point","coordinates":[9.725413,52.440233]}},{"type":"Feature","properties":{"SeqNo":"725814","Type":"A","DHID":"de:03241:6631:92","Parent":"de:03241:6631","Name":"Gleis 4","MunicipalityCode":"00000000","Municipality":"-","DistrictCode":"-","District":"-","Description":"","Authority":"HannIT","DelfiName":"-","THID":"-","LastOperationDate":"","SEV":"nein","longitude":"9,725242","latitude":"52,440288","geojson_lng":9.725242,"geojson_lat":52.440288},"geometry":{"type":"Point","coordinates":[9.725242,52.440288]}},{"type":"Feature","properties":{"SeqNo":"725815","Type":"Q","DHID":"de:03241:6631:1:6631","Parent":"de:03241:6631:1","Name":"Nr. 6631","MunicipalityCode":"00000000","Municipality":"-","DistrictCode":"-","District":"-","Description":"","Authority":"HannIT","DelfiName":"-","THID":"-","LastOperationDate":"","SEV":"nein","longitude":"9,727057","latitude":"52,440216","geojson_lng":9.727057,"geojson_lat":52.440216},"geometry":{"type":"Point","coordinates":[9.727057,52.440216]}},{"type":"Feature","properties":{"SeqNo":"725816","Type":"Q","DHID":"de:03241:6631:1:6633","Parent":"de:03241:6631:1","Name":"Godshorn (470,480)","MunicipalityCode":"00000000","Municipality":"-","DistrictCode":"-","District":"-","Description":"","Authority":"HannIT","DelfiName":"-","THID":"-","LastOperationDate":"","SEV":"nein","longitude":"9,72667","latitude":"52,440359","geojson_lng":9.72667,"geojson_lat":52.440359},"geometry":{"type":"Point","coordinates":[9.72667,52.440359]}},{"type":"Feature","properties":{"SeqNo":"725817","Type":"Q","DHID":"de:03241:6631:2:6632","Parent":"de:03241:6631:2","Name":"Nr. 6632","MunicipalityCode":"00000000","Municipality":"-","DistrictCode":"-","District":"-","Description":"","Authority":"HannIT","DelfiName":"-","THID":"-","LastOperationDate":"","SEV":"nein","longitude":"9,726796","latitude":"52,44031","geojson_lng":9.726796,"geojson_lat":52.44031},"geometry":{"type":"Point","coordinates":[9.726796,52.44031]}},{"type":"Feature","properties":{"SeqNo":"725818","Type":"Q","DHID":"de:03241:6631:3:6634","Parent":"de:03241:6631:3","Name":"Abfahrt/Ankunft 616, Abfahrt 254","MunicipalityCode":"00000000","Municipality":"-","DistrictCode":"-","District":"-","Description":"","Authority":"HannIT","DelfiName":"-","THID":"-","LastOperationDate":"","SEV":"nein","longitude":"9,726509","latitude":"52,44014","geojson_lng":9.726509,"geojson_lat":52.44014},"geometry":{"type":"Point","coordinates":[9.726509,52.44014]}},{"type":"Feature","properties":{"SeqNo":"725819","Type":"Q","DHID":"de:03241:6631:90:1","Parent":"de:03241:6631:90","Name":"Gleis1-Ri Uelzen","MunicipalityCode":"00000000","Municipality":"-","DistrictCode":"-","District":"-","Description":"","Authority":"HannIT","DelfiName":"-","THID":"-","LastOperationDate":"","SEV":"nein","longitude":"9,725539","latitude":"52,440156","geojson_lng":9.725539,"geojson_lat":52.440156},"geometry":{"type":"Point","coordinates":[9.725539,52.440156]}},{"type":"Feature","properties":{"SeqNo":"725820","Type":"Q","DHID":"de:03241:6631:91:2","Parent":"de:03241:6631:91","Name":"Gleis2 - Uelzen-H","MunicipalityCode":"00000000","Municipality":"-","DistrictCode":"-","District":"-","Description":"","Authority":"HannIT","DelfiName":"-","THID":"-","LastOperationDate":"","SEV":"nein","longitude":"9,725413","latitude":"52,440178","geojson_lng":9.725413,"geojson_lat":52.440178},"geometry":{"type":"Point","coordinates":[9.725413,52.440178]}},{"type":"Feature","properties":{"SeqNo":"725821","Type":"Q","DHID":"de:03241:6631:91:3","Parent":"de:03241:6631:91","Name":"Gleis3-Ri Bennemühlen/Walsrode","MunicipalityCode":"00000000","Municipality":"-","DistrictCode":"-","District":"-","Description":"","Authority":"HannIT","DelfiName":"-","THID":"-","LastOperationDate":"","SEV":"nein","longitude":"9,725323","latitude":"52,440227","geojson_lng":9.725323,"geojson_lat":52.440227},"geometry":{"type":"Point","coordinates":[9.725323,52.440227]}},{"type":"Feature","properties":{"SeqNo":"725822","Type":"Q","DHID":"de:03241:6631:92:4","Parent":"de:03241:6631:92","Name":"Gleis4 - Walsrode-H","MunicipalityCode":"00000000","Municipality":"-","DistrictCode":"-","District":"-","Description":"","Authority":"HannIT","DelfiName":"-","THID":"-","LastOperationDate":"","SEV":"nein","longitude":"9,725215","latitude":"52,440255","geojson_lng":9.725215,"geojson_lat":52.440255},"geometry":{"type":"Point","coordinates":[9.725215,52.440255]}},{"type":"Feature","properties":{"SeqNo":"729591","Type":"S","DHID":"de:03241:9942","Parent":"de:03241:9942","Name":"Langenhagen-Mitte","MunicipalityCode":"03241010","Municipality":"Langenhagen","DistrictCode":"","District":"","Description":"","Authority":"HannIT","DelfiName":"-","THID":"D90CA90026D6","LastOperationDate":"1999-12-31T00:00:00","SEV":"nein","longitude":"9,725718","latitude":"52,440397","geojson_lng":9.725718,"geojson_lat":52.440397},"geometry":{"type":"Point","coordinates":[9.725718,52.440397]}},{"type":"Feature","properties":{"SeqNo":"729592","Type":"Q","DHID":"de:03241:9942:0:1","Parent":"de:03241:9942","Name":"Straße2","MunicipalityCode":"00000000","Municipality":"-","DistrictCode":"-","District":"-","Description":"","Authority":"HannIT","DelfiName":"-","THID":"-","LastOperationDate":"","SEV":"nein","longitude":"9,724649","latitude":"52,442122","geojson_lng":9.724649,"geojson_lat":52.442122},"geometry":{"type":"Point","coordinates":[9.724649,52.442122]}},{"type":"Feature","properties":{"SeqNo":"729593","Type":"Q","DHID":"de:03241:9942:0:2","Parent":"de:03241:9942","Name":"Straße1","MunicipalityCode":"00000000","Municipality":"-","DistrictCode":"-","District":"-","Description":"","Authority":"HannIT","DelfiName":"-","THID":"-","LastOperationDate":"","SEV":"nein","longitude":"9,727641","latitude":"52,440178","geojson_lng":9.727641,"geojson_lat":52.440178},"geometry":{"type":"Point","coordinates":[9.727641,52.440178]}},{"type":"Feature","properties":{"SeqNo":"729594","Type":"Q","DHID":"de:03241:9942:0:3","Parent":"de:03241:9942","Name":"DB","MunicipalityCode":"00000000","Municipality":"-","DistrictCode":"-","District":"-","Description":"","Authority":"HannIT","DelfiName":"-","THID":"-","LastOperationDate":"","SEV":"nein","longitude":"9,726122","latitude":"52,440786","geojson_lng":9.726122,"geojson_lat":52.440786},"geometry":{"type":"Point","coordinates":[9.726122,52.440786]}}]}