{"type":"FeatureCollection","features":[{"type":"Feature","properties":{"highway":"bus_stop","public_transport":"platform","name":"Bitgum","ref:IFOPT":"NL:Q:20210110","_quaycode":"NL:Q:20210110","_town":"Bitgum","_status":"available","_mode":"bus","_direction":117,"_visuallyAccessible":true,"_disabledAccessible":true,"geojson_lng":5.690659711511291,"geojson_lat":53.23728863974259},"geometry":{"type":"Point","coordinates":[5.690659711511291,53.23728863974259]}},{"type":"Feature","properties":{"highway":"bus_stop","public_transport":"platform","name":"Bitgum","ref:IFOPT":"NL:Q:20210100","_quaycode":"NL:Q:20210100","_town":"Bitgum","_status":"available","_mode":"bus","_direction":288,"_visuallyAccessible":true,"_disabledAccessible":true,"geojson_lng":5.690510825472953,"geojson_lat":53.2374148137035},"geometry":{"type":"Point","coordinates":[5.690510825472953,53.2374148137035]}},{"type":"Feature","properties":{"highway":"bus_stop","public_transport":"platform","name":"Bitgummole Provinciale weg","ref:IFOPT":"NL:Q:20171500","_quaycode":"NL:Q:20171500","_town":"Bitgummole","_status":"available","_mode":"bus","_direction":120,"_visuallyAccessible":false,"_disabledAccessible":false,"geojson_lng":5.694007202593468,"geojson_lat":53.229920962127366},"geometry":{"type":"Point","coordinates":[5.694007202593468,53.229920962127366]}},{"type":"Feature","properties":{"highway":"bus_stop","public_transport":"platform","name":"Terhornestrjitte","ref:IFOPT":"NL:Q:20170210","_quaycode":"NL:Q:20170210","_town":"Bitgummole","_status":"available","_mode":"bus","_direction":97,"_visuallyAccessible":true,"_disabledAccessible":true,"geojson_lng":5.7053361317372335,"geojson_lat":53.235085109172275},"geometry":{"type":"Point","coordinates":[5.7053361317372335,53.235085109172275]}},{"type":"Feature","properties":{"highway":"bus_stop","public_transport":"platform","name":"Bitgum Provinciale weg","ref:IFOPT":"NL:Q:20210310","_quaycode":"NL:Q:20210310","_town":"Bitgum","_status":"available","_mode":"bus","_direction":115,"_visuallyAccessible":true,"_disabledAccessible":true,"geojson_lng":5.681070912930373,"geojson_lat":53.23679134596823},"geometry":{"type":"Point","coordinates":[5.681070912930373,53.23679134596823]}},{"type":"Feature","properties":{"highway":"bus_stop","public_transport":"platform","name":"Bitgumerdyk","ref:IFOPT":"NL:Q:20310010","_quaycode":"NL:Q:20310010","_town":"Berltsum","_status":"available","_mode":"bus","_direction":81,"_visuallyAccessible":true,"_disabledAccessible":true,"geojson_lng":5.668438280198587,"geojson_lat":53.24031699005904},"geometry":{"type":"Point","coordinates":[5.668438280198587,53.24031699005904]}},{"type":"Feature","properties":{"highway":"bus_stop","public_transport":"platform","name":"Ingelumerdyk","ref:IFOPT":"NL:Q:20170030","_quaycode":"NL:Q:20170030","_town":"Bitgummole","_status":"available","_mode":"bus","_direction":159,"_visuallyAccessible":false,"_disabledAccessible":false,"geojson_lng":5.710366291555749,"geojson_lat":53.23282527831357},"geometry":{"type":"Point","coordinates":[5.710366291555749,53.23282527831357]}},{"type":"Feature","properties":{"highway":"bus_stop","public_transport":"platform","name":"Bitgum Provinciale weg","ref:IFOPT":"NL:Q:20210300","_quaycode":"NL:Q:20210300","_town":"Bitgum","_status":"available","_mode":"bus","_direction":297,"_visuallyAccessible":true,"_disabledAccessible":true,"geojson_lng":5.681923118088571,"geojson_lat":53.23657360289578},"geometry":{"type":"Point","coordinates":[5.681923118088571,53.23657360289578]}},{"type":"Feature","properties":{"highway":"bus_stop","public_transport":"platform","name":"Terhornestrjitte","ref:IFOPT":"NL:Q:20170200","_quaycode":"NL:Q:20170200","_town":"Bitgummole","_status":"available","_mode":"bus","_direction":277,"_visuallyAccessible":true,"_disabledAccessible":true,"geojson_lng":5.703705704632496,"geojson_lat":53.23535898739923},"geometry":{"type":"Point","coordinates":[5.703705704632496,53.23535898739923]}},{"type":"Feature","properties":{"highway":"bus_stop","public_transport":"platform","name":"J.H. van Aismawei","ref:IFOPT":"NL:Q:20170110","_quaycode":"NL:Q:20170110","_town":"Bitgummole","_status":"available","_mode":"bus","_direction":94,"_visuallyAccessible":false,"_disabledAccessible":false,"geojson_lng":5.707790555384349,"geojson_lat":53.23485393775567},"geometry":{"type":"Point","coordinates":[5.707790555384349,53.23485393775567]}},{"type":"Feature","properties":{"highway":"bus_stop","public_transport":"platform","name":"Bitgummole Provinciale weg","ref:IFOPT":"NL:Q:20171510","_quaycode":"NL:Q:20171510","_town":"Bitgummole","_status":"available","_mode":"bus","_direction":301,"_visuallyAccessible":false,"_disabledAccessible":true,"geojson_lng":5.693800239575853,"geojson_lat":53.23029888471307},"geometry":{"type":"Point","coordinates":[5.693800239575853,53.23029888471307]}},{"type":"Feature","properties":{"highway":"bus_stop","public_transport":"platform","name":"J.H. van Aismawei","ref:IFOPT":"NL:Q:20170100","_quaycode":"NL:Q:20170100","_town":"Bitgummole","_status":"available","_mode":"bus","_direction":274,"_visuallyAccessible":false,"_disabledAccessible":false,"geojson_lng":5.7078360839389,"geojson_lat":53.23493468606268},"geometry":{"type":"Point","coordinates":[5.7078360839389,53.23493468606268]}},{"type":"Feature","properties":{"highway":"bus_stop","public_transport":"platform","name":"Ingelumerdyk","ref:IFOPT":"NL:Q:20170040","_quaycode":"NL:Q:20170040","_town":"Bitgummole","_status":"available","_mode":"bus","_direction":315,"_visuallyAccessible":false,"_disabledAccessible":false,"geojson_lng":5.710382342545188,"geojson_lat":53.2329690040097},"geometry":{"type":"Point","coordinates":[5.710382342545188,53.2329690040097]}}]}