{"type":"FeatureCollection","features":[{"type":"Feature","properties":{"highway":"bus_stop","public_transport":"platform","name":"De Pannehoeve","ref:IFOPT":"NL:Q:65310520","_quaycode":"NL:Q:65310520","_town":"Helmond","_status":"available","_mode":"bus","_direction":329,"_visuallyAccessible":false,"_disabledAccessible":true,"geojson_lng":5.67497635641238,"geojson_lat":51.49110052369001},"geometry":{"type":"Point","coordinates":[5.67497635641238,51.49110052369001]}},{"type":"Feature","properties":{"highway":"bus_stop","public_transport":"platform","name":"Bijsterveld","ref:IFOPT":"NL:Q:65310440","_quaycode":"NL:Q:65310440","_town":"Helmond","_status":"available","_mode":"bus","_direction":353,"_visuallyAccessible":false,"_disabledAccessible":true,"geojson_lng":5.674220385327708,"geojson_lat":51.48311143467481},"geometry":{"type":"Point","coordinates":[5.674220385327708,51.48311143467481]}},{"type":"Feature","properties":{"highway":"bus_stop","public_transport":"platform","name":"Jupiterlaan","ref:IFOPT":"NL:Q:65310560","_quaycode":"NL:Q:65310560","_town":"Helmond","_status":"available","_mode":"bus","_direction":334,"_visuallyAccessible":false,"_disabledAccessible":true,"geojson_lng":5.6696291060670605,"geojson_lat":51.49720792105491},"geometry":{"type":"Point","coordinates":[5.6696291060670605,51.49720792105491]}},{"type":"Feature","properties":{"highway":"bus_stop","public_transport":"platform","name":"Bijsterveld","ref:IFOPT":"NL:Q:65310450","_quaycode":"NL:Q:65310450","_town":"Helmond","_status":"available","_mode":"bus","_direction":239,"_visuallyAccessible":false,"_disabledAccessible":true,"geojson_lng":5.67428074986806,"geojson_lat":51.48355173239101},"geometry":{"type":"Point","coordinates":[5.67428074986806,51.48355173239101]}},{"type":"Feature","properties":{"highway":"bus_stop","public_transport":"platform","name":"Fokkerlaan","ref:IFOPT":"NL:Q:65311060","_quaycode":"NL:Q:65311060","_town":"Helmond","_status":"available","_mode":"bus","_direction":160,"_visuallyAccessible":false,"_disabledAccessible":true,"geojson_lng":5.684398566361792,"geojson_lat":51.48310392902176},"geometry":{"type":"Point","coordinates":[5.684398566361792,51.48310392902176]}},{"type":"Feature","properties":{"highway":"bus_stop","public_transport":"platform","name":"Titaniastraat","ref:IFOPT":"NL:Q:65310600","_quaycode":"NL:Q:65310600","_town":"Helmond","_status":"available","_mode":"bus","_direction":257,"_visuallyAccessible":false,"_disabledAccessible":true,"geojson_lng":5.668277331031506,"geojson_lat":51.49984487017696},"geometry":{"type":"Point","coordinates":[5.668277331031506,51.49984487017696]}},{"type":"Feature","properties":{"highway":"bus_stop","public_transport":"platform","name":"Sportcentrum De Braak","ref:IFOPT":"NL:Q:65310490","_quaycode":"NL:Q:65310490","_town":"Helmond","_status":"available","_mode":"bus","_direction":237,"_visuallyAccessible":false,"_disabledAccessible":true,"geojson_lng":5.673901564961148,"geojson_lat":51.487345895023395},"geometry":{"type":"Point","coordinates":[5.673901564961148,51.487345895023395]}},{"type":"Feature","properties":{"highway":"bus_stop","public_transport":"platform","name":"Nieuwveld","ref:IFOPT":"NL:Q:65310540","_quaycode":"NL:Q:65310540","_town":"Helmond","_status":"available","_mode":"bus","_direction":263,"_visuallyAccessible":false,"_disabledAccessible":true,"geojson_lng":5.670921611173639,"geojson_lat":51.494328405006435},"geometry":{"type":"Point","coordinates":[5.670921611173639,51.494328405006435]}},{"type":"Feature","properties":{"highway":"bus_stop","public_transport":"platform","name":"Coendersberglaan","ref:IFOPT":"NL:Q:65411070","_quaycode":"NL:Q:65411070","_town":"Helmond","_status":"available","_mode":"bus","_direction":89,"_visuallyAccessible":false,"_disabledAccessible":true,"geojson_lng":5.6993894414381705,"geojson_lat":51.48791868165382},"geometry":{"type":"Point","coordinates":[5.6993894414381705,51.48791868165382]}},{"type":"Feature","properties":{"highway":"bus_stop","public_transport":"platform","name":"Zeppelinstraat","ref:IFOPT":"NL:Q:65311650","_quaycode":"NL:Q:65311650","_town":"Helmond","_status":"available","_mode":"bus","_direction":70,"_visuallyAccessible":false,"_disabledAccessible":true,"geojson_lng":5.680399803041587,"geojson_lat":51.48363539118221},"geometry":{"type":"Point","coordinates":[5.680399803041587,51.48363539118221]}},{"type":"Feature","properties":{"highway":"bus_stop","public_transport":"platform","name":"Geysendorfferstraat","ref:IFOPT":"NL:Q:65311040","_quaycode":"NL:Q:65311040","_town":"Helmond","_status":"available","_mode":"bus","_direction":240,"_visuallyAccessible":false,"_disabledAccessible":true,"geojson_lng":5.681553687132107,"geojson_lat":51.481744858430375},"geometry":{"type":"Point","coordinates":[5.681553687132107,51.481744858430375]}},{"type":"Feature","properties":{"highway":"bus_stop","public_transport":"platform","name":"Coendersberglaan","ref:IFOPT":"NL:Q:65411080","_quaycode":"NL:Q:65411080","_town":"Helmond","_status":"available","_mode":"bus","_direction":265,"_visuallyAccessible":false,"_disabledAccessible":true,"geojson_lng":5.696755530696075,"geojson_lat":51.488051540851075},"geometry":{"type":"Point","coordinates":[5.696755530696075,51.488051540851075]}},{"type":"Feature","properties":{"highway":"bus_stop","public_transport":"platform","name":"Sportcentrum De Braak","ref:IFOPT":"NL:Q:65310480","_quaycode":"NL:Q:65310480","_town":"Helmond","_status":"available","_mode":"bus","_direction":71,"_visuallyAccessible":false,"_disabledAccessible":true,"geojson_lng":5.675458999373465,"geojson_lat":51.487737560335795},"geometry":{"type":"Point","coordinates":[5.675458999373465,51.487737560335795]}},{"type":"Feature","properties":{"highway":"bus_stop","public_transport":"platform","name":"Sterrenlaan","ref:IFOPT":"NL:Q:65310580","_quaycode":"NL:Q:65310580","_town":"Helmond","_status":"available","_mode":"bus","_direction":333,"_visuallyAccessible":false,"_disabledAccessible":true,"geojson_lng":5.66993968012479,"geojson_lat":51.49851951743255},"geometry":{"type":"Point","coordinates":[5.66993968012479,51.49851951743255]}},{"type":"Feature","properties":{"highway":"bus_stop","public_transport":"platform","name":"Nieuwveld","ref:IFOPT":"NL:Q:65311810","_quaycode":"NL:Q:65311810","_town":"Helmond","_status":"available","_mode":"bus","_direction":10,"_visuallyAccessible":false,"_disabledAccessible":false,"geojson_lng":5.669163455086764,"geojson_lat":51.49410794933903},"geometry":{"type":"Point","coordinates":[5.669163455086764,51.49410794933903]}},{"type":"Feature","properties":{"highway":"bus_stop","public_transport":"platform","name":"Vondellaan","ref:IFOPT":"NL:Q:65310500","_quaycode":"NL:Q:65310500","_town":"Helmond","_status":"available","_mode":"bus","_direction":74,"_visuallyAccessible":false,"_disabledAccessible":false,"geojson_lng":5.670187271567695,"geojson_lat":51.48971000057337},"geometry":{"type":"Point","coordinates":[5.670187271567695,51.48971000057337]}}]}