{"type":"FeatureCollection","features":[{"type":"Feature","properties":{"highway":"bus_stop","public_transport":"platform","name":"Dillenburg","ref:IFOPT":"NL:Q:68600130","_quaycode":"NL:Q:68600130","_town":"Weert","_status":"available","_mode":"bus","_direction":173,"_visuallyAccessible":false,"_disabledAccessible":false,"geojson_lng":5.706527717840976,"geojson_lat":51.24531044272568},"geometry":{"type":"Point","coordinates":[5.706527717840976,51.24531044272568]}},{"type":"Feature","properties":{"highway":"bus_stop","public_transport":"platform","name":"Schaekenstraat","ref:IFOPT":"NL:Q:68600540","_quaycode":"NL:Q:68600540","_town":"Weert","_status":"available","_mode":"bus","_direction":181,"_visuallyAccessible":false,"_disabledAccessible":false,"geojson_lng":5.701900355600139,"geojson_lat":51.2430219262807},"geometry":{"type":"Point","coordinates":[5.701900355600139,51.2430219262807]}},{"type":"Feature","properties":{"highway":"bus_stop","public_transport":"platform","name":"Boshoverweg","ref:IFOPT":"NL:Q:68620170","_quaycode":"NL:Q:68620170","_town":"Weert","_status":"available","_mode":"bus","_direction":32,"_visuallyAccessible":false,"_disabledAccessible":false,"geojson_lng":5.684872212389072,"geojson_lat":51.26054101853382},"geometry":{"type":"Point","coordinates":[5.684872212389072,51.26054101853382]}},{"type":"Feature","properties":{"highway":"bus_stop","public_transport":"platform","name":"St. Jans Gasthuis","ref:IFOPT":"NL:Q:68600690","_quaycode":"NL:Q:68600690","_town":"Weert","_status":"available","_mode":"bus","_direction":105,"_visuallyAccessible":false,"_disabledAccessible":false,"geojson_lng":5.7120742376832805,"geojson_lat":51.253969289808786},"geometry":{"type":"Point","coordinates":[5.7120742376832805,51.253969289808786]}},{"type":"Feature","properties":{"highway":"bus_stop","public_transport":"platform","name":"Geurtsvenweg","ref:IFOPT":"NL:Q:68601110","_quaycode":"NL:Q:68601110","_town":"Weert","_status":"available","_mode":"bus","_direction":319,"_visuallyAccessible":false,"_disabledAccessible":false,"geojson_lng":5.6702712849277574,"geojson_lat":51.24393920302455},"geometry":{"type":"Point","coordinates":[5.6702712849277574,51.24393920302455]}},{"type":"Feature","properties":{"highway":"bus_stop","public_transport":"platform","name":"Kazernelaan","ref:IFOPT":"NL:Q:68601080","_quaycode":"NL:Q:68601080","_town":"Weert","_status":"available","_mode":"bus","_direction":75,"_visuallyAccessible":false,"_disabledAccessible":false,"geojson_lng":5.685060303769824,"geojson_lat":51.245412370886925},"geometry":{"type":"Point","coordinates":[5.685060303769824,51.245412370886925]}},{"type":"Feature","properties":{"highway":"bus_stop","public_transport":"platform","name":"Station","ref:IFOPT":"NL:Q:68600620","_quaycode":"NL:Q:68600620","_town":"Weert","_status":"available","_mode":"bus","_direction":275,"_visuallyAccessible":true,"_disabledAccessible":true,"geojson_lng":5.705737660305281,"geojson_lat":51.249087913856165},"geometry":{"type":"Point","coordinates":[5.705737660305281,51.249087913856165]}},{"type":"Feature","properties":{"highway":"bus_stop","public_transport":"platform","name":"Bassin","ref:IFOPT":"NL:Q:68600100","_quaycode":"NL:Q:68600100","_town":"Weert","_status":"available","_mode":"bus","_direction":98,"_visuallyAccessible":false,"_disabledAccessible":false,"geojson_lng":5.705623607551819,"geojson_lat":51.257402881582124},"geometry":{"type":"Point","coordinates":[5.705623607551819,51.257402881582124]}},{"type":"Feature","properties":{"highway":"bus_stop","public_transport":"platform","name":"Station","ref:IFOPT":"NL:Q:68600590","_quaycode":"NL:Q:68600590","_town":"Weert","_status":"available","_mode":"bus","_direction":275,"_visuallyAccessible":false,"_disabledAccessible":false,"geojson_lng":5.704535565785711,"geojson_lat":51.249235022198704},"geometry":{"type":"Point","coordinates":[5.704535565785711,51.249235022198704]}},{"type":"Feature","properties":{"highway":"bus_stop","public_transport":"platform","name":"Zuiderstraat","ref:IFOPT":"NL:Q:68600570","_quaycode":"NL:Q:68600570","_town":"Weert","_status":"available","_mode":"bus","_direction":338,"_visuallyAccessible":false,"_disabledAccessible":false,"geojson_lng":5.7025240087106255,"geojson_lat":51.239991001495234},"geometry":{"type":"Point","coordinates":[5.7025240087106255,51.239991001495234]}},{"type":"Feature","properties":{"highway":"bus_stop","public_transport":"platform","name":"Station","ref:IFOPT":"NL:Q:68600630","_quaycode":"NL:Q:68600630","_town":"Weert","_status":"available","_mode":"bus","_direction":268,"_visuallyAccessible":true,"_disabledAccessible":true,"geojson_lng":5.706023985388129,"geojson_lat":51.24906915139987},"geometry":{"type":"Point","coordinates":[5.706023985388129,51.24906915139987]}},{"type":"Feature","properties":{"highway":"bus_stop","public_transport":"platform","name":"Dries","ref:IFOPT":"NL:Q:68600140","_quaycode":"NL:Q:68600140","_town":"Weert","_status":"available","_mode":"bus","_direction":154,"_visuallyAccessible":false,"_disabledAccessible":false,"geojson_lng":5.70201867379628,"geojson_lat":51.247722754658064},"geometry":{"type":"Point","coordinates":[5.70201867379628,51.247722754658064]}},{"type":"Feature","properties":{"highway":"bus_stop","public_transport":"platform","name":"Ringbaan West","ref:IFOPT":"NL:Q:68601040","_quaycode":"NL:Q:68601040","_town":"Weert","_status":"available","_mode":"bus","_direction":70,"_visuallyAccessible":false,"_disabledAccessible":false,"geojson_lng":5.693152634138078,"geojson_lat":51.24764754784915},"geometry":{"type":"Point","coordinates":[5.693152634138078,51.24764754784915]}},{"type":"Feature","properties":{"highway":"bus_stop","public_transport":"platform","name":"Emmasingel","ref:IFOPT":"NL:Q:68600170","_quaycode":"NL:Q:68600170","_town":"Weert","_status":"available","_mode":"bus","_direction":77,"_visuallyAccessible":false,"_disabledAccessible":false,"geojson_lng":5.709193391799269,"geojson_lat":51.25168515201381},"geometry":{"type":"Point","coordinates":[5.709193391799269,51.25168515201381]}},{"type":"Feature","properties":{"highway":"bus_stop","public_transport":"platform","name":"Oranjeplein","ref:IFOPT":"NL:Q:68600460","_quaycode":"NL:Q:68600460","_town":"Weert","_status":"available","_mode":"bus","_direction":77,"_visuallyAccessible":false,"_disabledAccessible":false,"geojson_lng":5.7080728096399,"geojson_lat":51.243032017004566},"geometry":{"type":"Point","coordinates":[5.7080728096399,51.243032017004566]}},{"type":"Feature","properties":{"highway":"bus_stop","public_transport":"platform","name":"Dillenburg","ref:IFOPT":"NL:Q:68600120","_quaycode":"NL:Q:68600120","_town":"Weert","_status":"available","_mode":"bus","_direction":329,"_visuallyAccessible":false,"_disabledAccessible":false,"geojson_lng":5.706755416602176,"geojson_lat":51.245103074229796},"geometry":{"type":"Point","coordinates":[5.706755416602176,51.245103074229796]}},{"type":"Feature","properties":{"highway":"bus_stop","public_transport":"platform","name":"Dries","ref:IFOPT":"NL:Q:68600150","_quaycode":"NL:Q:68600150","_town":"Weert","_status":"available","_mode":"bus","_direction":9,"_visuallyAccessible":false,"_disabledAccessible":false,"geojson_lng":5.702189735118636,"geojson_lat":51.24760543670051},"geometry":{"type":"Point","coordinates":[5.702189735118636,51.24760543670051]}},{"type":"Feature","properties":{"highway":"bus_stop","public_transport":"platform","name":"Oranjeplein","ref:IFOPT":"NL:Q:68600450","_quaycode":"NL:Q:68600450","_town":"Weert","_status":"available","_mode":"bus","_direction":274,"_visuallyAccessible":false,"_disabledAccessible":false,"geojson_lng":5.707901717506596,"geojson_lat":51.24314035495681},"geometry":{"type":"Point","coordinates":[5.707901717506596,51.24314035495681]}},{"type":"Feature","properties":{"highway":"bus_stop","public_transport":"platform","name":"St. Jans Gasthuis","ref:IFOPT":"NL:Q:68600680","_quaycode":"NL:Q:68600680","_town":"Weert","_status":"available","_mode":"bus","_direction":284,"_visuallyAccessible":false,"_disabledAccessible":true,"geojson_lng":5.713577107515209,"geojson_lat":51.253803282255674},"geometry":{"type":"Point","coordinates":[5.713577107515209,51.253803282255674]}},{"type":"Feature","properties":{"highway":"bus_stop","public_transport":"platform","name":"Kazernelaan","ref:IFOPT":"NL:Q:68601070","_quaycode":"NL:Q:68601070","_town":"Weert","_status":"available","_mode":"bus","_direction":255,"_visuallyAccessible":false,"_disabledAccessible":false,"geojson_lng":5.68526168071363,"geojson_lat":51.2455466869264},"geometry":{"type":"Point","coordinates":[5.68526168071363,51.2455466869264]}},{"type":"Feature","properties":{"highway":"bus_stop","public_transport":"platform","name":"Emmasingel","ref:IFOPT":"NL:Q:68600160","_quaycode":"NL:Q:68600160","_town":"Weert","_status":"available","_mode":"bus","_direction":237,"_visuallyAccessible":false,"_disabledAccessible":false,"geojson_lng":5.708118386694877,"geojson_lat":51.25158025832982},"geometry":{"type":"Point","coordinates":[5.708118386694877,51.25158025832982]}},{"type":"Feature","properties":{"highway":"bus_stop","public_transport":"platform","name":"St. Luciastraat","ref:IFOPT":"NL:Q:68620350","_quaycode":"NL:Q:68620350","_town":"Weert","_status":"available","_mode":"bus","_direction":307,"_visuallyAccessible":false,"_disabledAccessible":false,"geojson_lng":5.688548342908461,"geojson_lat":51.25966862410538},"geometry":{"type":"Point","coordinates":[5.688548342908461,51.25966862410538]}},{"type":"Feature","properties":{"highway":"bus_stop","public_transport":"platform","name":"Tobbersdijk","ref:IFOPT":"NL:Q:68620370","_quaycode":"NL:Q:68620370","_town":"Weert","_status":"available","_mode":"bus","_direction":72,"_visuallyAccessible":false,"_disabledAccessible":false,"geojson_lng":5.682365373404286,"geojson_lat":51.260583364163736},"geometry":{"type":"Point","coordinates":[5.682365373404286,51.260583364163736]}},{"type":"Feature","properties":{"highway":"bus_stop","public_transport":"platform","name":"Schoutlaan","ref:IFOPT":"NL:Q:68620330","_quaycode":"NL:Q:68620330","_town":"Weert","_status":"available","_mode":"bus","_direction":89,"_visuallyAccessible":false,"_disabledAccessible":false,"geojson_lng":5.6997770311786775,"geojson_lat":51.25923448546002},"geometry":{"type":"Point","coordinates":[5.6997770311786775,51.25923448546002]}},{"type":"Feature","properties":{"highway":"bus_stop","public_transport":"platform","name":"Gouverneurlaan","ref:IFOPT":"NL:Q:68620210","_quaycode":"NL:Q:68620210","_town":"Weert","_status":"available","_mode":"bus","_direction":333,"_visuallyAccessible":false,"_disabledAccessible":false,"geojson_lng":5.696292549237287,"geojson_lat":51.258749415385836},"geometry":{"type":"Point","coordinates":[5.696292549237287,51.258749415385836]}},{"type":"Feature","properties":{"highway":"bus_stop","public_transport":"platform","name":"Station","ref:IFOPT":"NL:Q:68600600","_quaycode":"NL:Q:68600600","_town":"Weert","_status":"available","_mode":"bus","_direction":268,"_visuallyAccessible":true,"_disabledAccessible":true,"geojson_lng":5.705164884604327,"geojson_lat":51.24910745936123},"geometry":{"type":"Point","coordinates":[5.705164884604327,51.24910745936123]}},{"type":"Feature","properties":{"highway":"bus_stop","public_transport":"platform","name":"Gouverneurlaan","ref:IFOPT":"NL:Q:68620200","_quaycode":"NL:Q:68620200","_town":"Weert","_status":"available","_mode":"bus","_direction":166,"_visuallyAccessible":false,"_disabledAccessible":false,"geojson_lng":5.695950433603972,"geojson_lat":51.25900201100871},"geometry":{"type":"Point","coordinates":[5.695950433603972,51.25900201100871]}},{"type":"Feature","properties":{"highway":"bus_stop","public_transport":"platform","name":"De Burcht","ref:IFOPT":"NL:Q:68620180","_quaycode":"NL:Q:68620180","_town":"Weert","_status":"available","_mode":"bus","_direction":231,"_visuallyAccessible":false,"_disabledAccessible":true,"geojson_lng":5.690902550983825,"geojson_lat":51.26038160386238},"geometry":{"type":"Point","coordinates":[5.690902550983825,51.26038160386238]}},{"type":"Feature","properties":{"highway":"bus_stop","public_transport":"platform","name":"Schoutlaan","ref:IFOPT":"NL:Q:68620340","_quaycode":"NL:Q:68620340","_town":"Weert","_status":"available","_mode":"bus","_direction":263,"_visuallyAccessible":false,"_disabledAccessible":false,"geojson_lng":5.699691506529292,"geojson_lat":51.25929763701717},"geometry":{"type":"Point","coordinates":[5.699691506529292,51.25929763701717]}},{"type":"Feature","properties":{"highway":"bus_stop","public_transport":"platform","name":"Het College","ref:IFOPT":"NL:Q:68601050","_quaycode":"NL:Q:68601050","_town":"Weert","_status":"available","_mode":"bus","_direction":170,"_visuallyAccessible":false,"_disabledAccessible":false,"geojson_lng":5.694726327977339,"geojson_lat":51.2452523711001},"geometry":{"type":"Point","coordinates":[5.694726327977339,51.2452523711001]}},{"type":"Feature","properties":{"highway":"bus_stop","public_transport":"platform","name":"Geurtsvenweg","ref:IFOPT":"NL:Q:68601120","_quaycode":"NL:Q:68601120","_town":"Weert","_status":"available","_mode":"bus","_direction":140,"_visuallyAccessible":false,"_disabledAccessible":false,"geojson_lng":5.6700989339023335,"geojson_lat":51.24385872332098},"geometry":{"type":"Point","coordinates":[5.6700989339023335,51.24385872332098]}},{"type":"Feature","properties":{"highway":"bus_stop","public_transport":"platform","name":"Station","ref:IFOPT":"NL:Q:68600610","_quaycode":"NL:Q:68600610","_town":"Weert","_status":"available","_mode":"bus","_direction":275,"_visuallyAccessible":true,"_disabledAccessible":true,"geojson_lng":5.705479855073282,"geojson_lat":51.24908861990035},"geometry":{"type":"Point","coordinates":[5.705479855073282,51.24908861990035]}},{"type":"Feature","properties":{"highway":"bus_stop","public_transport":"platform","name":"St. Odastraat","ref:IFOPT":"NL:Q:68620360","_quaycode":"NL:Q:68620360","_town":"Weert","_status":"available","_mode":"bus","_direction":286,"_visuallyAccessible":false,"_disabledAccessible":false,"geojson_lng":5.684981266410821,"geojson_lat":51.25968680264229},"geometry":{"type":"Point","coordinates":[5.684981266410821,51.25968680264229]}},{"type":"Feature","properties":{"highway":"bus_stop","public_transport":"platform","name":"Zuiderstraat","ref:IFOPT":"NL:Q:68600560","_quaycode":"NL:Q:68600560","_town":"Weert","_status":"available","_mode":"bus","_direction":197,"_visuallyAccessible":false,"_disabledAccessible":false,"geojson_lng":5.702353038472185,"geojson_lat":51.240117308600716},"geometry":{"type":"Point","coordinates":[5.702353038472185,51.240117308600716]}},{"type":"Feature","properties":{"highway":"bus_stop","public_transport":"platform","name":"Leekushofstraat","ref:IFOPT":"NL:Q:68620260","_quaycode":"NL:Q:68620260","_town":"Weert","_status":"available","_mode":"bus","_direction":246,"_visuallyAccessible":false,"_disabledAccessible":false,"geojson_lng":5.6805148102144445,"geojson_lat":51.25796331566316},"geometry":{"type":"Point","coordinates":[5.6805148102144445,51.25796331566316]}},{"type":"Feature","properties":{"highway":"bus_stop","public_transport":"platform","name":"Bassin","ref:IFOPT":"NL:Q:68600110","_quaycode":"NL:Q:68600110","_town":"Weert","_status":"available","_mode":"bus","_direction":301,"_visuallyAccessible":false,"_disabledAccessible":false,"geojson_lng":5.70714056174503,"geojson_lat":51.25718298599649},"geometry":{"type":"Point","coordinates":[5.70714056174503,51.25718298599649]}},{"type":"Feature","properties":{"highway":"bus_stop","public_transport":"platform","name":"Schaekenstraat","ref:IFOPT":"NL:Q:68600550","_quaycode":"NL:Q:68600550","_town":"Weert","_status":"available","_mode":"bus","_direction":359,"_visuallyAccessible":false,"_disabledAccessible":false,"geojson_lng":5.701971958703937,"geojson_lat":51.243021732426044},"geometry":{"type":"Point","coordinates":[5.701971958703937,51.243021732426044]}},{"type":"Feature","properties":{"highway":"bus_stop","public_transport":"platform","name":"Ringbaan West","ref:IFOPT":"NL:Q:68601030","_quaycode":"NL:Q:68601030","_town":"Weert","_status":"available","_mode":"bus","_direction":255,"_visuallyAccessible":false,"_disabledAccessible":false,"geojson_lng":5.692981309408311,"geojson_lat":51.247728897912005},"geometry":{"type":"Point","coordinates":[5.692981309408311,51.247728897912005]}}]}