{"type":"FeatureCollection","features":[{"type":"Feature","properties":{"SeqNo":"726933","Type":"S","DHID":"de:03241:7310","Parent":"de:03241:7310","Name":"Landringhausen Am Deichfeld","MunicipalityCode":"03241002","Municipality":"Barsinghausen","DistrictCode":"","District":"","Description":"","Authority":"HannIT","DelfiName":"-","THID":"D90CA9001C8E","LastOperationDate":"2025-06-14T00:00:00","SEV":"nein","longitude":"9,467569","latitude":"52,353265","geojson_lng":9.467569,"geojson_lat":52.353265},"geometry":{"type":"Point","coordinates":[9.467569,52.353265]}},{"type":"Feature","properties":{"SeqNo":"726934","Type":"A","DHID":"de:03241:7310:1","Parent":"de:03241:7310","Name":"Barsingh./Gr.Munz","MunicipalityCode":"00000000","Municipality":"-","DistrictCode":"-","District":"-","Description":"","Authority":"HannIT","DelfiName":"-","THID":"-","LastOperationDate":"","SEV":"nein","longitude":"9,467462","latitude":"52,353237","geojson_lng":9.467462,"geojson_lat":52.353237},"geometry":{"type":"Point","coordinates":[9.467462,52.353237]}},{"type":"Feature","properties":{"SeqNo":"726935","Type":"A","DHID":"de:03241:7310:2","Parent":"de:03241:7310","Name":"Landr./Mitte","MunicipalityCode":"00000000","Municipality":"-","DistrictCode":"-","District":"-","Description":"","Authority":"HannIT","DelfiName":"-","THID":"-","LastOperationDate":"","SEV":"nein","longitude":"9,467704","latitude":"52,353281","geojson_lng":9.467704,"geojson_lat":52.353281},"geometry":{"type":"Point","coordinates":[9.467704,52.353281]}},{"type":"Feature","properties":{"SeqNo":"726936","Type":"Q","DHID":"de:03241:7310:1:7311","Parent":"de:03241:7310:1","Name":"Barsinghausen / Gr. Munzel","MunicipalityCode":"00000000","Municipality":"-","DistrictCode":"-","District":"-","Description":"","Authority":"HannIT","DelfiName":"-","THID":"-","LastOperationDate":"","SEV":"nein","longitude":"9,467515","latitude":"52,353248","geojson_lng":9.467515,"geojson_lat":52.353248},"geometry":{"type":"Point","coordinates":[9.467515,52.353248]}},{"type":"Feature","properties":{"SeqNo":"726937","Type":"Q","DHID":"de:03241:7310:2:7310","Parent":"de:03241:7310:2","Name":"Landringhausen/Mitte","MunicipalityCode":"00000000","Municipality":"-","DistrictCode":"-","District":"-","Description":"","Authority":"HannIT","DelfiName":"-","THID":"-","LastOperationDate":"","SEV":"nein","longitude":"9,467632","latitude":"52,353292","geojson_lng":9.467632,"geojson_lat":52.353292},"geometry":{"type":"Point","coordinates":[9.467632,52.353292]}},{"type":"Feature","properties":{"SeqNo":"726939","Type":"A","DHID":"de:03241:7318:1","Parent":"de:03241:7318","Name":"Landr./Deichfeld","MunicipalityCode":"00000000","Municipality":"-","DistrictCode":"-","District":"-","Description":"","Authority":"HannIT","DelfiName":"-","THID":"-","LastOperationDate":"","SEV":"nein","longitude":"9,46403","latitude":"52,355536","geojson_lng":9.46403,"geojson_lat":52.355536},"geometry":{"type":"Point","coordinates":[9.46403,52.355536]}},{"type":"Feature","properties":{"SeqNo":"726941","Type":"Q","DHID":"de:03241:7318:1:7319","Parent":"de:03241:7318:1","Name":"Landringhausen/Deichfeld","MunicipalityCode":"00000000","Municipality":"-","DistrictCode":"-","District":"-","Description":"","Authority":"HannIT","DelfiName":"-","THID":"-","LastOperationDate":"","SEV":"nein","longitude":"9,464039","latitude":"52,355481","geojson_lng":9.464039,"geojson_lat":52.355481},"geometry":{"type":"Point","coordinates":[9.464039,52.355481]}}]}