{"type":"FeatureCollection","features":[{"type":"Feature","properties":{"SeqNo":"340281","Type":"S","DHID":"de:03255:43636","Parent":"de:03255:43636","Name":"Holzminden Bergblick","MunicipalityCode":"03255023","Municipality":"Holzminden","DistrictCode":"","District":"","Description":"","Authority":"VBN","DelfiName":"-","THID":"D90CB700AA74","LastOperationDate":"2025-06-14T00:00:00","SEV":"nein","longitude":"9,459236","latitude":"51,815954","geojson_lng":9.459236,"geojson_lat":51.815954},"geometry":{"type":"Point","coordinates":[9.459236,51.815954]}},{"type":"Feature","properties":{"SeqNo":"340282","Type":"Q","DHID":"de:03255:43636::1","Parent":"de:03255:43636","Name":"Holzminden Bergblick","MunicipalityCode":"00000000","Municipality":"-","DistrictCode":"-","District":"-","Description":"","Authority":"VBN","DelfiName":"-","THID":"-","LastOperationDate":"","SEV":"nein","longitude":"9,459234","latitude":"51,815954","geojson_lng":9.459234,"geojson_lat":51.815954},"geometry":{"type":"Point","coordinates":[9.459234,51.815954]}},{"type":"Feature","properties":{"SeqNo":"340283","Type":"Q","DHID":"de:03255:43636::2","Parent":"de:03255:43636","Name":"Holzminden Bergblick","MunicipalityCode":"00000000","Municipality":"-","DistrictCode":"-","District":"-","Description":"","Authority":"VBN","DelfiName":"-","THID":"-","LastOperationDate":"","SEV":"nein","longitude":"9,459238","latitude":"51,815953","geojson_lng":9.459238,"geojson_lat":51.815953},"geometry":{"type":"Point","coordinates":[9.459238,51.815953]}},{"type":"Feature","properties":{"SeqNo":"340343","Type":"S","DHID":"de:03255:43658","Parent":"de:03255:43658","Name":"Holzminden Holbeinplatz","MunicipalityCode":"03255023","Municipality":"Holzminden","DistrictCode":"","District":"","Description":"","Authority":"VBN","DelfiName":"-","THID":"D90CB700AA8A","LastOperationDate":"1999-12-31T00:00:00","SEV":"nein","longitude":"9,465055","latitude":"51,820757","geojson_lng":9.465055,"geojson_lat":51.820757},"geometry":{"type":"Point","coordinates":[9.465055,51.820757]}},{"type":"Feature","properties":{"SeqNo":"340344","Type":"Q","DHID":"de:03255:43658::1","Parent":"de:03255:43658","Name":"Holzminden Holbeinplatz","MunicipalityCode":"00000000","Municipality":"-","DistrictCode":"-","District":"-","Description":"","Authority":"VBN","DelfiName":"-","THID":"-","LastOperationDate":"","SEV":"nein","longitude":"9,465055","latitude":"51,820757","geojson_lng":9.465055,"geojson_lat":51.820757},"geometry":{"type":"Point","coordinates":[9.465055,51.820757]}},{"type":"Feature","properties":{"SeqNo":"340373","Type":"S","DHID":"de:03255:43670","Parent":"de:03255:43670","Name":"Holzminden Liethstraße","MunicipalityCode":"03255023","Municipality":"Holzminden","DistrictCode":"","District":"","Description":"","Authority":"VBN","DelfiName":"-","THID":"D90CB700AA96","LastOperationDate":"2025-06-13T00:00:00","SEV":"nein","longitude":"9,465103","latitude":"51,819307","geojson_lng":9.465103,"geojson_lat":51.819307},"geometry":{"type":"Point","coordinates":[9.465103,51.819307]}},{"type":"Feature","properties":{"SeqNo":"340374","Type":"Q","DHID":"de:03255:43670::1","Parent":"de:03255:43670","Name":"Holzminden Liethstraße","MunicipalityCode":"00000000","Municipality":"-","DistrictCode":"-","District":"-","Description":"","Authority":"VBN","DelfiName":"-","THID":"-","LastOperationDate":"","SEV":"nein","longitude":"9,465127","latitude":"51,81931","geojson_lng":9.465127,"geojson_lat":51.81931},"geometry":{"type":"Point","coordinates":[9.465127,51.81931]}},{"type":"Feature","properties":{"SeqNo":"340375","Type":"Q","DHID":"de:03255:43670::2","Parent":"de:03255:43670","Name":"Holzminden Liethstraße","MunicipalityCode":"00000000","Municipality":"-","DistrictCode":"-","District":"-","Description":"","Authority":"VBN","DelfiName":"-","THID":"-","LastOperationDate":"","SEV":"nein","longitude":"9,465105","latitude":"51,81931","geojson_lng":9.465105,"geojson_lat":51.81931},"geometry":{"type":"Point","coordinates":[9.465105,51.81931]}},{"type":"Feature","properties":{"SeqNo":"340376","Type":"Q","DHID":"de:03255:43670::3","Parent":"de:03255:43670","Name":"Holzminden Liethstraße","MunicipalityCode":"00000000","Municipality":"-","DistrictCode":"-","District":"-","Description":"","Authority":"VBN","DelfiName":"-","THID":"-","LastOperationDate":"","SEV":"nein","longitude":"9,465076","latitude":"51,819302","geojson_lng":9.465076,"geojson_lat":51.819302},"geometry":{"type":"Point","coordinates":[9.465076,51.819302]}},{"type":"Feature","properties":{"SeqNo":"340377","Type":"S","DHID":"de:03255:43671","Parent":"de:03255:43671","Name":"Holzminden Liethstraße/BBS","MunicipalityCode":"03255023","Municipality":"Holzminden","DistrictCode":"","District":"","Description":"","Authority":"VBN","DelfiName":"-","THID":"D90CB700AA97","LastOperationDate":"2025-06-13T00:00:00","SEV":"nein","longitude":"9,464918","latitude":"51,816713","geojson_lng":9.464918,"geojson_lat":51.816713},"geometry":{"type":"Point","coordinates":[9.464918,51.816713]}},{"type":"Feature","properties":{"SeqNo":"340378","Type":"Q","DHID":"de:03255:43671::1","Parent":"de:03255:43671","Name":"Holzminden Liethstraße/BBS","MunicipalityCode":"00000000","Municipality":"-","DistrictCode":"-","District":"-","Description":"","Authority":"VBN","DelfiName":"-","THID":"-","LastOperationDate":"","SEV":"nein","longitude":"9,464918","latitude":"51,816713","geojson_lng":9.464918,"geojson_lat":51.816713},"geometry":{"type":"Point","coordinates":[9.464918,51.816713]}},{"type":"Feature","properties":{"SeqNo":"340411","Type":"S","DHID":"de:03255:43683","Parent":"de:03255:43683","Name":"Holzminden Riemenschneiderstraße","MunicipalityCode":"03255023","Municipality":"Holzminden","DistrictCode":"","District":"","Description":"","Authority":"VBN","DelfiName":"-","THID":"D90CB700AAA3","LastOperationDate":"1999-12-31T00:00:00","SEV":"nein","longitude":"9,463062","latitude":"51,82161","geojson_lng":9.463062,"geojson_lat":51.82161},"geometry":{"type":"Point","coordinates":[9.463062,51.82161]}},{"type":"Feature","properties":{"SeqNo":"340412","Type":"Q","DHID":"de:03255:43683::1","Parent":"de:03255:43683","Name":"Holzminden Riemenschneiderstraße","MunicipalityCode":"00000000","Municipality":"-","DistrictCode":"-","District":"-","Description":"","Authority":"VBN","DelfiName":"-","THID":"-","LastOperationDate":"","SEV":"nein","longitude":"9,463062","latitude":"51,82161","geojson_lng":9.463062,"geojson_lat":51.82161},"geometry":{"type":"Point","coordinates":[9.463062,51.82161]}},{"type":"Feature","properties":{"SeqNo":"340421","Type":"S","DHID":"de:03255:43687","Parent":"de:03255:43687","Name":"Holzminden Schlüterstraße","MunicipalityCode":"03255023","Municipality":"Holzminden","DistrictCode":"","District":"","Description":"","Authority":"VBN","DelfiName":"-","THID":"D90CB700AAA7","LastOperationDate":"2025-06-13T00:00:00","SEV":"nein","longitude":"9,462568","latitude":"51,817864","geojson_lng":9.462568,"geojson_lat":51.817864},"geometry":{"type":"Point","coordinates":[9.462568,51.817864]}},{"type":"Feature","properties":{"SeqNo":"340422","Type":"Q","DHID":"de:03255:43687::1","Parent":"de:03255:43687","Name":"Holzminden Schlüterstraße","MunicipalityCode":"00000000","Municipality":"-","DistrictCode":"-","District":"-","Description":"","Authority":"VBN","DelfiName":"-","THID":"-","LastOperationDate":"","SEV":"nein","longitude":"9,462574","latitude":"51,817864","geojson_lng":9.462574,"geojson_lat":51.817864},"geometry":{"type":"Point","coordinates":[9.462574,51.817864]}},{"type":"Feature","properties":{"SeqNo":"340423","Type":"Q","DHID":"de:03255:43687::2","Parent":"de:03255:43687","Name":"Holzminden Schlüterstraße","MunicipalityCode":"00000000","Municipality":"-","DistrictCode":"-","District":"-","Description":"","Authority":"VBN","DelfiName":"-","THID":"-","LastOperationDate":"","SEV":"nein","longitude":"9,462565","latitude":"51,817864","geojson_lng":9.462565,"geojson_lat":51.817864},"geometry":{"type":"Point","coordinates":[9.462565,51.817864]}},{"type":"Feature","properties":{"SeqNo":"340424","Type":"Q","DHID":"de:03255:43687::3","Parent":"de:03255:43687","Name":"Holzminden Schlüterstraße","MunicipalityCode":"00000000","Municipality":"-","DistrictCode":"-","District":"-","Description":"","Authority":"VBN","DelfiName":"-","THID":"-","LastOperationDate":"","SEV":"nein","longitude":"9,462565","latitude":"51,817864","geojson_lng":9.462565,"geojson_lat":51.817864},"geometry":{"type":"Point","coordinates":[9.462565,51.817864]}},{"type":"Feature","properties":{"SeqNo":"340450","Type":"S","DHID":"de:03255:43696","Parent":"de:03255:43696","Name":"Holzminden Von-Langen-Allee","MunicipalityCode":"03255023","Municipality":"Holzminden","DistrictCode":"","District":"","Description":"","Authority":"VBN","DelfiName":"-","THID":"D90CB700AAB0","LastOperationDate":"2025-06-13T00:00:00","SEV":"nein","longitude":"9,462612","latitude":"51,81977","geojson_lng":9.462612,"geojson_lat":51.81977},"geometry":{"type":"Point","coordinates":[9.462612,51.81977]}},{"type":"Feature","properties":{"SeqNo":"340451","Type":"Q","DHID":"de:03255:43696::1","Parent":"de:03255:43696","Name":"Holzminden Von-Langen-Allee","MunicipalityCode":"00000000","Municipality":"-","DistrictCode":"-","District":"-","Description":"","Authority":"VBN","DelfiName":"-","THID":"-","LastOperationDate":"","SEV":"nein","longitude":"9,462608","latitude":"51,819697","geojson_lng":9.462608,"geojson_lat":51.819697},"geometry":{"type":"Point","coordinates":[9.462608,51.819697]}},{"type":"Feature","properties":{"SeqNo":"340452","Type":"Q","DHID":"de:03255:43696::2","Parent":"de:03255:43696","Name":"Holzminden Von-Langen-Allee","MunicipalityCode":"00000000","Municipality":"-","DistrictCode":"-","District":"-","Description":"","Authority":"VBN","DelfiName":"-","THID":"-","LastOperationDate":"","SEV":"nein","longitude":"9,462615","latitude":"51,819842","geojson_lng":9.462615,"geojson_lat":51.819842},"geometry":{"type":"Point","coordinates":[9.462615,51.819842]}}]}