{"type":"FeatureCollection","features":[{"type":"Feature","properties":{"SeqNo":"882248","Type":"S","DHID":"de:06611:200271","Parent":"de:06611:200271","Name":"Kassel Naumburger Straße","MunicipalityCode":"06611000","Municipality":"Kassel","DistrictCode":"","District":"","Description":"","Authority":"NVV","DelfiName":"-","THID":"D919D3030E4F","LastOperationDate":"2025-06-14T00:00:00","SEV":"nein","longitude":"9,470219","latitude":"51,324953","geojson_lng":9.470219,"geojson_lat":51.324953},"geometry":{"type":"Point","coordinates":[9.470219,51.324953]}},{"type":"Feature","properties":{"SeqNo":"882249","Type":"Q","DHID":"de:06611:200271::A","Parent":"de:06611:200271","Name":"Kassel Naumburger Straße, Steig A","MunicipalityCode":"00000000","Municipality":"-","DistrictCode":"-","District":"-","Description":"","Authority":"NVV","DelfiName":"-","THID":"-","LastOperationDate":"","SEV":"nein","longitude":"9,470219","latitude":"51,324953","geojson_lng":9.470219,"geojson_lat":51.324953},"geometry":{"type":"Point","coordinates":[9.470219,51.324953]}},{"type":"Feature","properties":{"SeqNo":"882250","Type":"Q","DHID":"de:06611:200271::AST","Parent":"de:06611:200271","Name":"Kassel Naumburger Straße, AST","MunicipalityCode":"00000000","Municipality":"-","DistrictCode":"-","District":"-","Description":"","Authority":"NVV","DelfiName":"-","THID":"-","LastOperationDate":"","SEV":"nein","longitude":"9,470219","latitude":"51,324953","geojson_lng":9.470219,"geojson_lat":51.324953},"geometry":{"type":"Point","coordinates":[9.470219,51.324953]}},{"type":"Feature","properties":{"SeqNo":"882251","Type":"Q","DHID":"de:06611:200271::B","Parent":"de:06611:200271","Name":"Kassel Naumburger Straße, Steig B","MunicipalityCode":"00000000","Municipality":"-","DistrictCode":"-","District":"-","Description":"","Authority":"NVV","DelfiName":"-","THID":"-","LastOperationDate":"","SEV":"nein","longitude":"9,470219","latitude":"51,324953","geojson_lng":9.470219,"geojson_lat":51.324953},"geometry":{"type":"Point","coordinates":[9.470219,51.324953]}},{"type":"Feature","properties":{"SeqNo":"882252","Type":"S","DHID":"de:06611:200272","Parent":"de:06611:200272","Name":"Kassel Frasenweg","MunicipalityCode":"06611000","Municipality":"Kassel","DistrictCode":"","District":"","Description":"","Authority":"NVV","DelfiName":"-","THID":"D919D3030E50","LastOperationDate":"2025-06-14T00:00:00","SEV":"nein","longitude":"9,461715","latitude":"51,326045","geojson_lng":9.461715,"geojson_lat":51.326045},"geometry":{"type":"Point","coordinates":[9.461715,51.326045]}},{"type":"Feature","properties":{"SeqNo":"882253","Type":"Q","DHID":"de:06611:200272::A","Parent":"de:06611:200272","Name":"Kassel Frasenweg, Steig A","MunicipalityCode":"00000000","Municipality":"-","DistrictCode":"-","District":"-","Description":"","Authority":"NVV","DelfiName":"-","THID":"-","LastOperationDate":"","SEV":"nein","longitude":"9,46207","latitude":"51,326116","geojson_lng":9.46207,"geojson_lat":51.326116},"geometry":{"type":"Point","coordinates":[9.46207,51.326116]}},{"type":"Feature","properties":{"SeqNo":"882254","Type":"Q","DHID":"de:06611:200272::AST","Parent":"de:06611:200272","Name":"Kassel Frasenweg, AST","MunicipalityCode":"00000000","Municipality":"-","DistrictCode":"-","District":"-","Description":"","Authority":"NVV","DelfiName":"-","THID":"-","LastOperationDate":"","SEV":"nein","longitude":"9,462354","latitude":"51,32609","geojson_lng":9.462354,"geojson_lat":51.32609},"geometry":{"type":"Point","coordinates":[9.462354,51.32609]}},{"type":"Feature","properties":{"SeqNo":"882255","Type":"Q","DHID":"de:06611:200272::B","Parent":"de:06611:200272","Name":"Kassel Frasenweg, Steig B","MunicipalityCode":"00000000","Municipality":"-","DistrictCode":"-","District":"-","Description":"","Authority":"NVV","DelfiName":"-","THID":"-","LastOperationDate":"","SEV":"nein","longitude":"9,461263","latitude":"51,32682","geojson_lng":9.461263,"geojson_lat":51.32682},"geometry":{"type":"Point","coordinates":[9.461263,51.32682]}},{"type":"Feature","properties":{"SeqNo":"882256","Type":"Q","DHID":"de:06611:200272::C","Parent":"de:06611:200272","Name":"Kassel Frasenweg, Steig C","MunicipalityCode":"00000000","Municipality":"-","DistrictCode":"-","District":"-","Description":"","Authority":"NVV","DelfiName":"-","THID":"-","LastOperationDate":"","SEV":"nein","longitude":"9,462002","latitude":"51,32577","geojson_lng":9.462002,"geojson_lat":51.32577},"geometry":{"type":"Point","coordinates":[9.462002,51.32577]}},{"type":"Feature","properties":{"SeqNo":"882257","Type":"Q","DHID":"de:06611:200272::D","Parent":"de:06611:200272","Name":"Kassel Frasenweg, Steig D","MunicipalityCode":"00000000","Municipality":"-","DistrictCode":"-","District":"-","Description":"","Authority":"NVV","DelfiName":"-","THID":"-","LastOperationDate":"","SEV":"nein","longitude":"9,461526","latitude":"51,325472","geojson_lng":9.461526,"geojson_lat":51.325472},"geometry":{"type":"Point","coordinates":[9.461526,51.325472]}},{"type":"Feature","properties":{"SeqNo":"882488","Type":"S","DHID":"de:06611:200333","Parent":"de:06611:200333","Name":"Kassel Fohlenäckerweg","MunicipalityCode":"06611000","Municipality":"Kassel","DistrictCode":"","District":"","Description":"","Authority":"NVV","DelfiName":"-","THID":"D919D3030E8D","LastOperationDate":"2025-06-14T00:00:00","SEV":"nein","longitude":"9,459534","latitude":"51,328151","geojson_lng":9.459534,"geojson_lat":51.328151},"geometry":{"type":"Point","coordinates":[9.459534,51.328151]}},{"type":"Feature","properties":{"SeqNo":"882489","Type":"Q","DHID":"de:06611:200333::A","Parent":"de:06611:200333","Name":"Kassel Fohlenäckerweg, Steig A","MunicipalityCode":"00000000","Municipality":"-","DistrictCode":"-","District":"-","Description":"","Authority":"NVV","DelfiName":"-","THID":"-","LastOperationDate":"","SEV":"nein","longitude":"9,459534","latitude":"51,328151","geojson_lng":9.459534,"geojson_lat":51.328151},"geometry":{"type":"Point","coordinates":[9.459534,51.328151]}},{"type":"Feature","properties":{"SeqNo":"882490","Type":"Q","DHID":"de:06611:200333::AST","Parent":"de:06611:200333","Name":"Kassel Fohlenäckerweg, AST","MunicipalityCode":"00000000","Municipality":"-","DistrictCode":"-","District":"-","Description":"","Authority":"NVV","DelfiName":"-","THID":"-","LastOperationDate":"","SEV":"nein","longitude":"9,459534","latitude":"51,328151","geojson_lng":9.459534,"geojson_lat":51.328151},"geometry":{"type":"Point","coordinates":[9.459534,51.328151]}},{"type":"Feature","properties":{"SeqNo":"882491","Type":"Q","DHID":"de:06611:200333::B","Parent":"de:06611:200333","Name":"Kassel Fohlenäckerweg, Steig B","MunicipalityCode":"00000000","Municipality":"-","DistrictCode":"-","District":"-","Description":"","Authority":"NVV","DelfiName":"-","THID":"-","LastOperationDate":"","SEV":"nein","longitude":"9,459534","latitude":"51,328151","geojson_lng":9.459534,"geojson_lat":51.328151},"geometry":{"type":"Point","coordinates":[9.459534,51.328151]}},{"type":"Feature","properties":{"SeqNo":"882724","Type":"S","DHID":"de:06611:200484","Parent":"de:06611:200484","Name":"Kassel Drei Brücken","MunicipalityCode":"06611000","Municipality":"Kassel","DistrictCode":"","District":"","Description":"","Authority":"NVV","DelfiName":"-","THID":"D919D3030F24","LastOperationDate":"2025-06-14T00:00:00","SEV":"nein","longitude":"9,466902","latitude":"51,324706","geojson_lng":9.466902,"geojson_lat":51.324706},"geometry":{"type":"Point","coordinates":[9.466902,51.324706]}},{"type":"Feature","properties":{"SeqNo":"882725","Type":"Q","DHID":"de:06611:200484::A","Parent":"de:06611:200484","Name":"Kassel Drei Brücken, Steig A","MunicipalityCode":"00000000","Municipality":"-","DistrictCode":"-","District":"-","Description":"","Authority":"NVV","DelfiName":"-","THID":"-","LastOperationDate":"","SEV":"nein","longitude":"9,466902","latitude":"51,324706","geojson_lng":9.466902,"geojson_lat":51.324706},"geometry":{"type":"Point","coordinates":[9.466902,51.324706]}},{"type":"Feature","properties":{"SeqNo":"882726","Type":"Q","DHID":"de:06611:200484::AST","Parent":"de:06611:200484","Name":"Kassel Drei Brücken, AST","MunicipalityCode":"00000000","Municipality":"-","DistrictCode":"-","District":"-","Description":"","Authority":"NVV","DelfiName":"-","THID":"-","LastOperationDate":"","SEV":"nein","longitude":"9,466902","latitude":"51,324706","geojson_lng":9.466902,"geojson_lat":51.324706},"geometry":{"type":"Point","coordinates":[9.466902,51.324706]}},{"type":"Feature","properties":{"SeqNo":"882727","Type":"Q","DHID":"de:06611:200484::B","Parent":"de:06611:200484","Name":"Kassel Drei Brücken, Steig B","MunicipalityCode":"00000000","Municipality":"-","DistrictCode":"-","District":"-","Description":"","Authority":"NVV","DelfiName":"-","THID":"-","LastOperationDate":"","SEV":"nein","longitude":"9,466902","latitude":"51,324706","geojson_lng":9.466902,"geojson_lat":51.324706},"geometry":{"type":"Point","coordinates":[9.466902,51.324706]}}]}