{"type":"FeatureCollection","features":[{"type":"Feature","properties":{"SeqNo":"242004","Type":"S","DHID":"de:09761:403","Parent":"de:09761:403","Name":"Augsburg, Bärenwirt/DRvS","MunicipalityCode":"09761000","Municipality":"Augsburg","DistrictCode":"","District":"","Description":"","Authority":"BEG","DelfiName":"-","THID":"D92621000193","LastOperationDate":"2025-06-14T00:00:00","SEV":"nein","longitude":"10,880709","latitude":"48,385878","geojson_lng":10.880709,"geojson_lat":48.385878},"geometry":{"type":"Point","coordinates":[10.880709,48.385878]}},{"type":"Feature","properties":{"SeqNo":"242005","Type":"A","DHID":"de:09761:403:31","Parent":"de:09761:403","Name":"Donauwörther Str","MunicipalityCode":"00000000","Municipality":"-","DistrictCode":"-","District":"-","Description":"","Authority":"BEG","DelfiName":"-","THID":"-","LastOperationDate":"","SEV":"nein","longitude":"10,880664","latitude":"48,385407","geojson_lng":10.880664,"geojson_lat":48.385407},"geometry":{"type":"Point","coordinates":[10.880664,48.385407]}},{"type":"Feature","properties":{"SeqNo":"242006","Type":"A","DHID":"de:09761:403:32","Parent":"de:09761:403","Name":"Kaltenhoferstraße","MunicipalityCode":"00000000","Municipality":"-","DistrictCode":"-","District":"-","Description":"","Authority":"BEG","DelfiName":"-","THID":"-","LastOperationDate":"","SEV":"nein","longitude":"10,880143","latitude":"48,385735","geojson_lng":10.880143,"geojson_lat":48.385735},"geometry":{"type":"Point","coordinates":[10.880143,48.385735]}},{"type":"Feature","properties":{"SeqNo":"242007","Type":"A","DHID":"de:09761:403:33","Parent":"de:09761:403","Name":"Dieselstraße","MunicipalityCode":"00000000","Municipality":"-","DistrictCode":"-","District":"-","Description":"","Authority":"BEG","DelfiName":"-","THID":"-","LastOperationDate":"","SEV":"nein","longitude":"10,881643","latitude":"48,385711","geojson_lng":10.881643,"geojson_lat":48.385711},"geometry":{"type":"Point","coordinates":[10.881643,48.385711]}},{"type":"Feature","properties":{"SeqNo":"242010","Type":"Q","DHID":"de:09761:403:31:E","Parent":"de:09761:403:31","Name":"Steig E - Donauw.Str.BussteigLinie 21+27","MunicipalityCode":"00000000","Municipality":"-","DistrictCode":"-","District":"-","Description":"","Authority":"BEG","DelfiName":"-","THID":"-","LastOperationDate":"","SEV":"nein","longitude":"10,880682","latitude":"48,385353","geojson_lng":10.880682,"geojson_lat":48.385353},"geometry":{"type":"Point","coordinates":[10.880682,48.385353]}},{"type":"Feature","properties":{"SeqNo":"242011","Type":"Q","DHID":"de:09761:403:31:Za1","Parent":"de:09761:403:31","Name":"Zugangssteig ein","MunicipalityCode":"00000000","Municipality":"-","DistrictCode":"-","District":"-","Description":"","Authority":"BEG","DelfiName":"-","THID":"-","LastOperationDate":"","SEV":"nein","longitude":"10,880907","latitude":"48,385508","geojson_lng":10.880907,"geojson_lat":48.385508},"geometry":{"type":"Point","coordinates":[10.880907,48.385508]}},{"type":"Feature","properties":{"SeqNo":"242012","Type":"Q","DHID":"de:09761:403:31:Ze1","Parent":"de:09761:403:31","Name":"Zugangssteig ein","MunicipalityCode":"00000000","Municipality":"-","DistrictCode":"-","District":"-","Description":"","Authority":"BEG","DelfiName":"-","THID":"-","LastOperationDate":"","SEV":"nein","longitude":"10,880529","latitude":"48,385508","geojson_lng":10.880529,"geojson_lat":48.385508},"geometry":{"type":"Point","coordinates":[10.880529,48.385508]}},{"type":"Feature","properties":{"SeqNo":"242013","Type":"Q","DHID":"de:09761:403:32:C","Parent":"de:09761:403:32","Name":"Steig C - Kaltenh.Str.Ri.Oberhausen","MunicipalityCode":"00000000","Municipality":"-","DistrictCode":"-","District":"-","Description":"","Authority":"BEG","DelfiName":"-","THID":"-","LastOperationDate":"","SEV":"nein","longitude":"10,879973","latitude":"48,385723","geojson_lng":10.879973,"geojson_lat":48.385723},"geometry":{"type":"Point","coordinates":[10.879973,48.385723]}},{"type":"Feature","properties":{"SeqNo":"242014","Type":"Q","DHID":"de:09761:403:32:D","Parent":"de:09761:403:32","Name":"Steig D - Kaltenhoferstr.Ri.Wertachbr.","MunicipalityCode":"00000000","Municipality":"-","DistrictCode":"-","District":"-","Description":"","Authority":"BEG","DelfiName":"-","THID":"-","LastOperationDate":"","SEV":"nein","longitude":"10,879919","latitude":"48,385723","geojson_lng":10.879919,"geojson_lat":48.385723},"geometry":{"type":"Point","coordinates":[10.879919,48.385723]}},{"type":"Feature","properties":{"SeqNo":"242015","Type":"Q","DHID":"de:09761:403:32:Za2","Parent":"de:09761:403:32","Name":"Zugangssteig aus","MunicipalityCode":"00000000","Municipality":"-","DistrictCode":"-","District":"-","Description":"","Authority":"BEG","DelfiName":"-","THID":"-","LastOperationDate":"","SEV":"nein","longitude":"10,880305","latitude":"48,385908","geojson_lng":10.880305,"geojson_lat":48.385908},"geometry":{"type":"Point","coordinates":[10.880305,48.385908]}},{"type":"Feature","properties":{"SeqNo":"242016","Type":"Q","DHID":"de:09761:403:32:Ze2","Parent":"de:09761:403:32","Name":"Zugangssteig ein","MunicipalityCode":"00000000","Municipality":"-","DistrictCode":"-","District":"-","Description":"","Authority":"BEG","DelfiName":"-","THID":"-","LastOperationDate":"","SEV":"nein","longitude":"10,880296","latitude":"48,38561","geojson_lng":10.880296,"geojson_lat":48.38561},"geometry":{"type":"Point","coordinates":[10.880296,48.38561]}},{"type":"Feature","properties":{"SeqNo":"242017","Type":"Q","DHID":"de:09761:403:33:F","Parent":"de:09761:403:33","Name":"Steig F - Dieselstr.Ri.MAN","MunicipalityCode":"00000000","Municipality":"-","DistrictCode":"-","District":"-","Description":"","Authority":"BEG","DelfiName":"-","THID":"-","LastOperationDate":"","SEV":"nein","longitude":"10,881643","latitude":"48,385687","geojson_lng":10.881643,"geojson_lat":48.385687},"geometry":{"type":"Point","coordinates":[10.881643,48.385687]}},{"type":"Feature","properties":{"SeqNo":"242018","Type":"Q","DHID":"de:09761:403:33:G","Parent":"de:09761:403:33","Name":"Steig G - Dieselstraße Nordseite","MunicipalityCode":"00000000","Municipality":"-","DistrictCode":"-","District":"-","Description":"","Authority":"BEG","DelfiName":"-","THID":"-","LastOperationDate":"","SEV":"nein","longitude":"10,881643","latitude":"48,385759","geojson_lng":10.881643,"geojson_lat":48.385759},"geometry":{"type":"Point","coordinates":[10.881643,48.385759]}},{"type":"Feature","properties":{"SeqNo":"242096","Type":"S","DHID":"de:09761:421","Parent":"de:09761:421","Name":"Augsburg, Zollernstraße","MunicipalityCode":"09761000","Municipality":"Augsburg","DistrictCode":"","District":"","Description":"","Authority":"BEG","DelfiName":"-","THID":"D926210001A5","LastOperationDate":"2025-06-14T00:00:00","SEV":"nein","longitude":"10,881356","latitude":"48,388509","geojson_lng":10.881356,"geojson_lat":48.388509},"geometry":{"type":"Point","coordinates":[10.881356,48.388509]}},{"type":"Feature","properties":{"SeqNo":"242097","Type":"Q","DHID":"de:09761:421:0:a","Parent":"de:09761:421","Name":"stadtaus","MunicipalityCode":"00000000","Municipality":"-","DistrictCode":"-","District":"-","Description":"","Authority":"BEG","DelfiName":"-","THID":"-","LastOperationDate":"","SEV":"nein","longitude":"10,88132","latitude":"48,388259","geojson_lng":10.88132,"geojson_lat":48.388259},"geometry":{"type":"Point","coordinates":[10.88132,48.388259]}},{"type":"Feature","properties":{"SeqNo":"242098","Type":"Q","DHID":"de:09761:421:0:e","Parent":"de:09761:421","Name":"stadtein","MunicipalityCode":"00000000","Municipality":"-","DistrictCode":"-","District":"-","Description":"","Authority":"BEG","DelfiName":"-","THID":"-","LastOperationDate":"","SEV":"nein","longitude":"10,881428","latitude":"48,388825","geojson_lng":10.881428,"geojson_lat":48.388825},"geometry":{"type":"Point","coordinates":[10.881428,48.388825]}},{"type":"Feature","properties":{"SeqNo":"242099","Type":"Q","DHID":"de:09761:421:0:E","Parent":"de:09761:421","Name":"Steig E - Ersatz","MunicipalityCode":"00000000","Municipality":"-","DistrictCode":"-","District":"-","Description":"","Authority":"BEG","DelfiName":"-","THID":"-","LastOperationDate":"","SEV":"nein","longitude":"10,880871","latitude":"48,388396","geojson_lng":10.880871,"geojson_lat":48.388396},"geometry":{"type":"Point","coordinates":[10.880871,48.388396]}},{"type":"Feature","properties":{"SeqNo":"242100","Type":"Q","DHID":"de:09761:421:0:Za1","Parent":"de:09761:421","Name":"Zugangssteig_aus1","MunicipalityCode":"00000000","Municipality":"-","DistrictCode":"-","District":"-","Description":"","Authority":"BEG","DelfiName":"-","THID":"-","LastOperationDate":"","SEV":"nein","longitude":"10,881167","latitude":"48,3883","geojson_lng":10.881167,"geojson_lat":48.3883},"geometry":{"type":"Point","coordinates":[10.881167,48.3883]}},{"type":"Feature","properties":{"SeqNo":"242101","Type":"Q","DHID":"de:09761:421:0:Za2","Parent":"de:09761:421","Name":"Zugangssteig_aus2","MunicipalityCode":"00000000","Municipality":"-","DistrictCode":"-","District":"-","Description":"","Authority":"BEG","DelfiName":"-","THID":"-","LastOperationDate":"","SEV":"nein","longitude":"10,881589","latitude":"48,388312","geojson_lng":10.881589,"geojson_lat":48.388312},"geometry":{"type":"Point","coordinates":[10.881589,48.388312]}},{"type":"Feature","properties":{"SeqNo":"242102","Type":"Q","DHID":"de:09761:421:0:Ze1","Parent":"de:09761:421","Name":"Zugangssteig_ein1","MunicipalityCode":"00000000","Municipality":"-","DistrictCode":"-","District":"-","Description":"","Authority":"BEG","DelfiName":"-","THID":"-","LastOperationDate":"","SEV":"nein","longitude":"10,881185","latitude":"48,388748","geojson_lng":10.881185,"geojson_lat":48.388748},"geometry":{"type":"Point","coordinates":[10.881185,48.388748]}},{"type":"Feature","properties":{"SeqNo":"242103","Type":"Q","DHID":"de:09761:421:0:Ze2","Parent":"de:09761:421","Name":"Zugangssteig_ein2","MunicipalityCode":"00000000","Municipality":"-","DistrictCode":"-","District":"-","Description":"","Authority":"BEG","DelfiName":"-","THID":"-","LastOperationDate":"","SEV":"nein","longitude":"10,881554","latitude":"48,388688","geojson_lng":10.881554,"geojson_lat":48.388688},"geometry":{"type":"Point","coordinates":[10.881554,48.388688]}},{"type":"Feature","properties":{"SeqNo":"242138","Type":"S","DHID":"de:09761:502","Parent":"de:09761:502","Name":"Augsburg, Ahornerstraße","MunicipalityCode":"09761000","Municipality":"Augsburg","DistrictCode":"-","District":"-","Description":"","Authority":"BEG","DelfiName":"-","THID":"D926210001F6","LastOperationDate":"1999-12-31T00:00:00","SEV":"nein","longitude":"10,883332","latitude":"48,391205","geojson_lng":10.883332,"geojson_lat":48.391205},"geometry":{"type":"Point","coordinates":[10.883332,48.391205]}},{"type":"Feature","properties":{"SeqNo":"242219","Type":"S","DHID":"de:09761:529","Parent":"de:09761:529","Name":"Augsburg, Bleicherbreite","MunicipalityCode":"09761000","Municipality":"Augsburg","DistrictCode":"-","District":"-","Description":"","Authority":"BEG","DelfiName":"-","THID":"D92621000211","LastOperationDate":"1999-12-31T00:00:00","SEV":"nein","longitude":"10,880934","latitude":"48,392703","geojson_lng":10.880934,"geojson_lat":48.392703},"geometry":{"type":"Point","coordinates":[10.880934,48.392703]}},{"type":"Feature","properties":{"SeqNo":"242478","Type":"S","DHID":"de:09761:624","Parent":"de:09761:624","Name":"Augsburg, Josefinum","MunicipalityCode":"09761000","Municipality":"Augsburg","DistrictCode":"-","District":"-","Description":"","Authority":"BEG","DelfiName":"-","THID":"D92621000270","LastOperationDate":"2025-06-14T00:00:00","SEV":"nein","longitude":"10,876487","latitude":"48,38561","geojson_lng":10.876487,"geojson_lat":48.38561},"geometry":{"type":"Point","coordinates":[10.876487,48.38561]}},{"type":"Feature","properties":{"SeqNo":"242479","Type":"Q","DHID":"de:09761:624:0:A","Parent":"de:09761:624","Name":"Steig A - Mennwarthstr. Ri. Kaltenhofers","MunicipalityCode":"00000000","Municipality":"-","DistrictCode":"-","District":"-","Description":"Steig A - Mennwarthstr. Ri. Kaltenhofers","Authority":"BEG","DelfiName":"-","THID":"-","LastOperationDate":"","SEV":"nein","longitude":"10,87726","latitude":"48,385663","geojson_lng":10.87726,"geojson_lat":48.385663},"geometry":{"type":"Point","coordinates":[10.87726,48.385663]}},{"type":"Feature","properties":{"SeqNo":"242532","Type":"S","DHID":"de:09761:644","Parent":"de:09761:644","Name":"Augsburg, Sanderstift","MunicipalityCode":"09761000","Municipality":"Augsburg","DistrictCode":"-","District":"-","Description":"","Authority":"BEG","DelfiName":"-","THID":"D92621000284","LastOperationDate":"1999-12-31T00:00:00","SEV":"nein","longitude":"10,881167","latitude":"48,387889","geojson_lng":10.881167,"geojson_lat":48.387889},"geometry":{"type":"Point","coordinates":[10.881167,48.387889]}},{"type":"Feature","properties":{"SeqNo":"242629","Type":"S","DHID":"de:09761:686","Parent":"de:09761:686","Name":"Augsburg, Oberhausen Nord","MunicipalityCode":"09761000","Municipality":"Augsburg","DistrictCode":"-","District":"-","Description":"","Authority":"BEG","DelfiName":"-","THID":"D926210002AE","LastOperationDate":"1999-12-31T00:00:00","SEV":"nein","longitude":"10,878508","latitude":"48,392744","geojson_lng":10.878508,"geojson_lat":48.392744},"geometry":{"type":"Point","coordinates":[10.878508,48.392744]}}]}