{"type":"FeatureCollection","features":[{"type":"Feature","properties":{"SeqNo":"241301","Type":"S","DHID":"de:09761:100","Parent":"de:09761:100","Name":"Augsburg Hbf","MunicipalityCode":"09761000","Municipality":"Augsburg","DistrictCode":"","District":"","Description":"","Authority":"BEG","DelfiName":"-","THID":"D92621000064","LastOperationDate":"2025-01-31T00:00:00","SEV":"nein","longitude":"10,885569","latitude":"48,365441","geojson_lng":10.885569,"geojson_lat":48.365441},"geometry":{"type":"Point","coordinates":[10.885569,48.365441]}},{"type":"Feature","properties":{"SeqNo":"241302","Type":"A","DHID":"de:09761:100:1","Parent":"de:09761:100","Name":"Eingang Süd","MunicipalityCode":"00000000","Municipality":"-","DistrictCode":"-","District":"-","Description":"","Authority":"BEG","DelfiName":"-","THID":"-","LastOperationDate":"","SEV":"nein","longitude":"10,886934","latitude":"48,365179","geojson_lng":10.886934,"geojson_lat":48.365179},"geometry":{"type":"Point","coordinates":[10.886934,48.365179]}},{"type":"Feature","properties":{"SeqNo":"241303","Type":"A","DHID":"de:09761:100:11","Parent":"de:09761:100","Name":"Zug Gl1&101","MunicipalityCode":"00000000","Municipality":"-","DistrictCode":"-","District":"-","Description":"","Authority":"BEG","DelfiName":"-","THID":"-","LastOperationDate":"","SEV":"nein","longitude":"10,885937","latitude":"48,365596","geojson_lng":10.885937,"geojson_lat":48.365596},"geometry":{"type":"Point","coordinates":[10.885937,48.365596]}},{"type":"Feature","properties":{"SeqNo":"241304","Type":"A","DHID":"de:09761:100:12","Parent":"de:09761:100","Name":"Zug Gl2&3","MunicipalityCode":"00000000","Municipality":"-","DistrictCode":"-","District":"-","Description":"","Authority":"BEG","DelfiName":"-","THID":"-","LastOperationDate":"","SEV":"nein","longitude":"10,885722","latitude":"48,365525","geojson_lng":10.885722,"geojson_lat":48.365525},"geometry":{"type":"Point","coordinates":[10.885722,48.365525]}},{"type":"Feature","properties":{"SeqNo":"241305","Type":"A","DHID":"de:09761:100:13","Parent":"de:09761:100","Name":"Zug Gl4&5&501","MunicipalityCode":"00000000","Municipality":"-","DistrictCode":"-","District":"-","Description":"","Authority":"BEG","DelfiName":"-","THID":"-","LastOperationDate":"","SEV":"nein","longitude":"10,88556","latitude":"48,365477","geojson_lng":10.88556,"geojson_lat":48.365477},"geometry":{"type":"Point","coordinates":[10.88556,48.365477]}},{"type":"Feature","properties":{"SeqNo":"241306","Type":"A","DHID":"de:09761:100:14","Parent":"de:09761:100","Name":"Zug Gl6&7","MunicipalityCode":"00000000","Municipality":"-","DistrictCode":"-","District":"-","Description":"","Authority":"BEG","DelfiName":"-","THID":"-","LastOperationDate":"","SEV":"nein","longitude":"10,885335","latitude":"48,365411","geojson_lng":10.885335,"geojson_lat":48.365411},"geometry":{"type":"Point","coordinates":[10.885335,48.365411]}},{"type":"Feature","properties":{"SeqNo":"241307","Type":"A","DHID":"de:09761:100:15","Parent":"de:09761:100","Name":"Zug Gl8&9","MunicipalityCode":"00000000","Municipality":"-","DistrictCode":"-","District":"-","Description":"","Authority":"BEG","DelfiName":"-","THID":"-","LastOperationDate":"","SEV":"nein","longitude":"10,885282","latitude":"48,365358","geojson_lng":10.885282,"geojson_lat":48.365358},"geometry":{"type":"Point","coordinates":[10.885282,48.365358]}},{"type":"Feature","properties":{"SeqNo":"241308","Type":"A","DHID":"de:09761:100:16","Parent":"de:09761:100","Name":"Zug Gl10&12","MunicipalityCode":"00000000","Municipality":"-","DistrictCode":"-","District":"-","Description":"","Authority":"BEG","DelfiName":"-","THID":"-","LastOperationDate":"","SEV":"nein","longitude":"10,885111","latitude":"48,365322","geojson_lng":10.885111,"geojson_lat":48.365322},"geometry":{"type":"Point","coordinates":[10.885111,48.365322]}},{"type":"Feature","properties":{"SeqNo":"241309","Type":"A","DHID":"de:09761:100:2","Parent":"de:09761:100","Name":"Eingang Mitte","MunicipalityCode":"00000000","Municipality":"-","DistrictCode":"-","District":"-","Description":"","Authority":"BEG","DelfiName":"-","THID":"-","LastOperationDate":"","SEV":"nein","longitude":"10,886431","latitude":"48,365614","geojson_lng":10.886431,"geojson_lat":48.365614},"geometry":{"type":"Point","coordinates":[10.886431,48.365614]}},{"type":"Feature","properties":{"SeqNo":"241310","Type":"A","DHID":"de:09761:100:21","Parent":"de:09761:100","Name":"Unterführung Nord","MunicipalityCode":"00000000","Municipality":"-","DistrictCode":"-","District":"-","Description":"","Authority":"BEG","DelfiName":"-","THID":"-","LastOperationDate":"","SEV":"nein","longitude":"10,885749","latitude":"48,365352","geojson_lng":10.885749,"geojson_lat":48.365352},"geometry":{"type":"Point","coordinates":[10.885749,48.365352]}},{"type":"Feature","properties":{"SeqNo":"241311","Type":"A","DHID":"de:09761:100:22","Parent":"de:09761:100","Name":"Unterführung Süd","MunicipalityCode":"00000000","Municipality":"-","DistrictCode":"-","District":"-","Description":"","Authority":"BEG","DelfiName":"-","THID":"-","LastOperationDate":"","SEV":"nein","longitude":"10,886288","latitude":"48,364755","geojson_lng":10.886288,"geojson_lat":48.364755},"geometry":{"type":"Point","coordinates":[10.886288,48.364755]}},{"type":"Feature","properties":{"SeqNo":"241312","Type":"A","DHID":"de:09761:100:3","Parent":"de:09761:100","Name":"Eingang Nord","MunicipalityCode":"00000000","Municipality":"-","DistrictCode":"-","District":"-","Description":"","Authority":"BEG","DelfiName":"-","THID":"-","LastOperationDate":"","SEV":"nein","longitude":"10,88618","latitude":"48,365943","geojson_lng":10.88618,"geojson_lat":48.365943},"geometry":{"type":"Point","coordinates":[10.88618,48.365943]}},{"type":"Feature","properties":{"SeqNo":"241313","Type":"A","DHID":"de:09761:100:31","Parent":"de:09761:100","Name":"Busbahnhof","MunicipalityCode":"00000000","Municipality":"-","DistrictCode":"-","District":"-","Description":"","Authority":"BEG","DelfiName":"-","THID":"-","LastOperationDate":"","SEV":"nein","longitude":"10,88715","latitude":"48,365537","geojson_lng":10.88715,"geojson_lat":48.365537},"geometry":{"type":"Point","coordinates":[10.88715,48.365537]}},{"type":"Feature","properties":{"SeqNo":"241317","Type":"A","DHID":"de:09761:100:35","Parent":"de:09761:100","Name":"Bus Nord","MunicipalityCode":"00000000","Municipality":"-","DistrictCode":"-","District":"-","Description":"","Authority":"BEG","DelfiName":"-","THID":"-","LastOperationDate":"","SEV":"nein","longitude":"10,886719","latitude":"48,366832","geojson_lng":10.886719,"geojson_lat":48.366832},"geometry":{"type":"Point","coordinates":[10.886719,48.366832]}},{"type":"Feature","properties":{"SeqNo":"241319","Type":"Q","DHID":"de:09761:100:11:1","Parent":"de:09761:100:11","Name":"Gleis 1","MunicipalityCode":"00000000","Municipality":"-","DistrictCode":"-","District":"-","Description":"","Authority":"BEG","DelfiName":"-","THID":"-","LastOperationDate":"","SEV":"nein","longitude":"10,885892","latitude":"48,365674","geojson_lng":10.885892,"geojson_lat":48.365674},"geometry":{"type":"Point","coordinates":[10.885892,48.365674]}},{"type":"Feature","properties":{"SeqNo":"241320","Type":"Q","DHID":"de:09761:100:11:101","Parent":"de:09761:100:11","Name":"Gleis 101","MunicipalityCode":"00000000","Municipality":"-","DistrictCode":"-","District":"-","Description":"","Authority":"BEG","DelfiName":"-","THID":"-","LastOperationDate":"","SEV":"nein","longitude":"10,887204","latitude":"48,364343","geojson_lng":10.887204,"geojson_lat":48.364343},"geometry":{"type":"Point","coordinates":[10.887204,48.364343]}},{"type":"Feature","properties":{"SeqNo":"241321","Type":"Q","DHID":"de:09761:100:12:2","Parent":"de:09761:100:12","Name":"Gleis 2","MunicipalityCode":"00000000","Municipality":"-","DistrictCode":"-","District":"-","Description":"","Authority":"BEG","DelfiName":"-","THID":"-","LastOperationDate":"","SEV":"nein","longitude":"10,885839","latitude":"48,365656","geojson_lng":10.885839,"geojson_lat":48.365656},"geometry":{"type":"Point","coordinates":[10.885839,48.365656]}},{"type":"Feature","properties":{"SeqNo":"241322","Type":"Q","DHID":"de:09761:100:12:3","Parent":"de:09761:100:12","Name":"Gleis 3","MunicipalityCode":"00000000","Municipality":"-","DistrictCode":"-","District":"-","Description":"","Authority":"BEG","DelfiName":"-","THID":"-","LastOperationDate":"","SEV":"nein","longitude":"10,885713","latitude":"48,365602","geojson_lng":10.885713,"geojson_lat":48.365602},"geometry":{"type":"Point","coordinates":[10.885713,48.365602]}},{"type":"Feature","properties":{"SeqNo":"241323","Type":"Q","DHID":"de:09761:100:13:4","Parent":"de:09761:100:13","Name":"Gleis 4","MunicipalityCode":"00000000","Municipality":"-","DistrictCode":"-","District":"-","Description":"","Authority":"BEG","DelfiName":"-","THID":"-","LastOperationDate":"","SEV":"nein","longitude":"10,885659","latitude":"48,365578","geojson_lng":10.885659,"geojson_lat":48.365578},"geometry":{"type":"Point","coordinates":[10.885659,48.365578]}},{"type":"Feature","properties":{"SeqNo":"241324","Type":"Q","DHID":"de:09761:100:13:5","Parent":"de:09761:100:13","Name":"Gleis 5","MunicipalityCode":"00000000","Municipality":"-","DistrictCode":"-","District":"-","Description":"","Authority":"BEG","DelfiName":"-","THID":"-","LastOperationDate":"","SEV":"nein","longitude":"10,885533","latitude":"48,365531","geojson_lng":10.885533,"geojson_lat":48.365531},"geometry":{"type":"Point","coordinates":[10.885533,48.365531]}},{"type":"Feature","properties":{"SeqNo":"241325","Type":"Q","DHID":"de:09761:100:13:501","Parent":"de:09761:100:13","Name":"Gleis 501","MunicipalityCode":"00000000","Municipality":"-","DistrictCode":"-","District":"-","Description":"","Authority":"BEG","DelfiName":"-","THID":"-","LastOperationDate":"","SEV":"nein","longitude":"10,886827","latitude":"48,364182","geojson_lng":10.886827,"geojson_lat":48.364182},"geometry":{"type":"Point","coordinates":[10.886827,48.364182]}},{"type":"Feature","properties":{"SeqNo":"241326","Type":"Q","DHID":"de:09761:100:14:6","Parent":"de:09761:100:14","Name":"Gleis 6","MunicipalityCode":"00000000","Municipality":"-","DistrictCode":"-","District":"-","Description":"","Authority":"BEG","DelfiName":"-","THID":"-","LastOperationDate":"","SEV":"nein","longitude":"10,885479","latitude":"48,365519","geojson_lng":10.885479,"geojson_lat":48.365519},"geometry":{"type":"Point","coordinates":[10.885479,48.365519]}},{"type":"Feature","properties":{"SeqNo":"241327","Type":"Q","DHID":"de:09761:100:14:7","Parent":"de:09761:100:14","Name":"Gleis 7","MunicipalityCode":"00000000","Municipality":"-","DistrictCode":"-","District":"-","Description":"","Authority":"BEG","DelfiName":"-","THID":"-","LastOperationDate":"","SEV":"nein","longitude":"10,885353","latitude":"48,365459","geojson_lng":10.885353,"geojson_lat":48.365459},"geometry":{"type":"Point","coordinates":[10.885353,48.365459]}},{"type":"Feature","properties":{"SeqNo":"241328","Type":"Q","DHID":"de:09761:100:15:8","Parent":"de:09761:100:15","Name":"Gleis 8","MunicipalityCode":"00000000","Municipality":"-","DistrictCode":"-","District":"-","Description":"","Authority":"BEG","DelfiName":"-","THID":"-","LastOperationDate":"","SEV":"nein","longitude":"10,885291","latitude":"48,365435","geojson_lng":10.885291,"geojson_lat":48.365435},"geometry":{"type":"Point","coordinates":[10.885291,48.365435]}},{"type":"Feature","properties":{"SeqNo":"241329","Type":"Q","DHID":"de:09761:100:15:801","Parent":"de:09761:100:15","Name":"Gleis 801","MunicipalityCode":"00000000","Municipality":"-","DistrictCode":"-","District":"-","Description":"","Authority":"BEG","DelfiName":"-","THID":"-","LastOperationDate":"","SEV":"nein","longitude":"10,884302","latitude":"48,366462","geojson_lng":10.884302,"geojson_lat":48.366462},"geometry":{"type":"Point","coordinates":[10.884302,48.366462]}},{"type":"Feature","properties":{"SeqNo":"241330","Type":"Q","DHID":"de:09761:100:15:9","Parent":"de:09761:100:15","Name":"Gleis 9","MunicipalityCode":"00000000","Municipality":"-","DistrictCode":"-","District":"-","Description":"","Authority":"BEG","DelfiName":"-","THID":"-","LastOperationDate":"","SEV":"nein","longitude":"10,885479","latitude":"48,365035","geojson_lng":10.885479,"geojson_lat":48.365035},"geometry":{"type":"Point","coordinates":[10.885479,48.365035]}},{"type":"Feature","properties":{"SeqNo":"241331","Type":"Q","DHID":"de:09761:100:15:901","Parent":"de:09761:100:15","Name":"Gleis 901","MunicipalityCode":"00000000","Municipality":"-","DistrictCode":"-","District":"-","Description":"","Authority":"BEG","DelfiName":"-","THID":"-","LastOperationDate":"","SEV":"nein","longitude":"10,886467","latitude":"48,364039","geojson_lng":10.886467,"geojson_lat":48.364039},"geometry":{"type":"Point","coordinates":[10.886467,48.364039]}},{"type":"Feature","properties":{"SeqNo":"241332","Type":"Q","DHID":"de:09761:100:16:10","Parent":"de:09761:100:16","Name":"Gleis 10","MunicipalityCode":"00000000","Municipality":"-","DistrictCode":"-","District":"-","Description":"","Authority":"BEG","DelfiName":"-","THID":"-","LastOperationDate":"","SEV":"nein","longitude":"10,885138","latitude":"48,365376","geojson_lng":10.885138,"geojson_lat":48.365376},"geometry":{"type":"Point","coordinates":[10.885138,48.365376]}},{"type":"Feature","properties":{"SeqNo":"241333","Type":"Q","DHID":"de:09761:100:16:12","Parent":"de:09761:100:16","Name":"Gleis 12","MunicipalityCode":"00000000","Municipality":"-","DistrictCode":"-","District":"-","Description":"","Authority":"BEG","DelfiName":"-","THID":"-","LastOperationDate":"","SEV":"nein","longitude":"10,885003","latitude":"48,365322","geojson_lng":10.885003,"geojson_lat":48.365322},"geometry":{"type":"Point","coordinates":[10.885003,48.365322]}},{"type":"Feature","properties":{"SeqNo":"241334","Type":"Q","DHID":"de:09761:100:31:A","Parent":"de:09761:100:31","Name":"Bus A","MunicipalityCode":"00000000","Municipality":"-","DistrictCode":"-","District":"-","Description":"","Authority":"BEG","DelfiName":"-","THID":"-","LastOperationDate":"","SEV":"nein","longitude":"10,887357","latitude":"48,365495","geojson_lng":10.887357,"geojson_lat":48.365495},"geometry":{"type":"Point","coordinates":[10.887357,48.365495]}},{"type":"Feature","properties":{"SeqNo":"241335","Type":"Q","DHID":"de:09761:100:31:B","Parent":"de:09761:100:31","Name":"Bus B","MunicipalityCode":"00000000","Municipality":"-","DistrictCode":"-","District":"-","Description":"","Authority":"BEG","DelfiName":"-","THID":"-","LastOperationDate":"","SEV":"nein","longitude":"10,887222","latitude":"48,365519","geojson_lng":10.887222,"geojson_lat":48.365519},"geometry":{"type":"Point","coordinates":[10.887222,48.365519]}},{"type":"Feature","properties":{"SeqNo":"241336","Type":"Q","DHID":"de:09761:100:31:C","Parent":"de:09761:100:31","Name":"Bus C","MunicipalityCode":"00000000","Municipality":"-","DistrictCode":"-","District":"-","Description":"","Authority":"BEG","DelfiName":"-","THID":"-","LastOperationDate":"","SEV":"nein","longitude":"10,887114","latitude":"48,365549","geojson_lng":10.887114,"geojson_lat":48.365549},"geometry":{"type":"Point","coordinates":[10.887114,48.365549]}},{"type":"Feature","properties":{"SeqNo":"241337","Type":"Q","DHID":"de:09761:100:31:D","Parent":"de:09761:100:31","Name":"Bus D","MunicipalityCode":"00000000","Municipality":"-","DistrictCode":"-","District":"-","Description":"","Authority":"BEG","DelfiName":"-","THID":"-","LastOperationDate":"","SEV":"nein","longitude":"10,886988","latitude":"48,365573","geojson_lng":10.886988,"geojson_lat":48.365573},"geometry":{"type":"Point","coordinates":[10.886988,48.365573]}},{"type":"Feature","properties":{"SeqNo":"241338","Type":"Q","DHID":"de:09761:100:31:E","Parent":"de:09761:100:31","Name":"Bus E","MunicipalityCode":"00000000","Municipality":"-","DistrictCode":"-","District":"-","Description":"","Authority":"BEG","DelfiName":"-","THID":"-","LastOperationDate":"","SEV":"nein","longitude":"10,886863","latitude":"48,365578","geojson_lng":10.886863,"geojson_lat":48.365578},"geometry":{"type":"Point","coordinates":[10.886863,48.365578]}},{"type":"Feature","properties":{"SeqNo":"241339","Type":"Q","DHID":"de:09761:100:31:F","Parent":"de:09761:100:31","Name":"Bus F","MunicipalityCode":"00000000","Municipality":"-","DistrictCode":"-","District":"-","Description":"","Authority":"BEG","DelfiName":"-","THID":"-","LastOperationDate":"","SEV":"nein","longitude":"10,88689","latitude":"48,365304","geojson_lng":10.88689,"geojson_lat":48.365304},"geometry":{"type":"Point","coordinates":[10.88689,48.365304]}},{"type":"Feature","properties":{"SeqNo":"241349","Type":"Q","DHID":"de:09761:100:35:N","Parent":"de:09761:100:35","Name":"Nord","MunicipalityCode":"00000000","Municipality":"-","DistrictCode":"-","District":"-","Description":"","Authority":"BEG","DelfiName":"-","THID":"-","LastOperationDate":"","SEV":"nein","longitude":"10,886378","latitude":"48,366909","geojson_lng":10.886378,"geojson_lat":48.366909},"geometry":{"type":"Point","coordinates":[10.886378,48.366909]}},{"type":"Feature","properties":{"SeqNo":"241350","Type":"Q","DHID":"de:09761:100:35:O","Parent":"de:09761:100:35","Name":"Ost","MunicipalityCode":"00000000","Municipality":"-","DistrictCode":"-","District":"-","Description":"","Authority":"BEG","DelfiName":"-","THID":"-","LastOperationDate":"","SEV":"nein","longitude":"10,887078","latitude":"48,366921","geojson_lng":10.887078,"geojson_lat":48.366921},"geometry":{"type":"Point","coordinates":[10.887078,48.366921]}},{"type":"Feature","properties":{"SeqNo":"241351","Type":"Q","DHID":"de:09761:100:35:R","Parent":"de:09761:100:35","Name":"Steig R - Tram","MunicipalityCode":"00000000","Municipality":"-","DistrictCode":"-","District":"-","Description":"","Authority":"BEG","DelfiName":"-","THID":"-","LastOperationDate":"","SEV":"nein","longitude":"10,887015","latitude":"48,366384","geojson_lng":10.887015,"geojson_lat":48.366384},"geometry":{"type":"Point","coordinates":[10.887015,48.366384]}},{"type":"Feature","properties":{"SeqNo":"241352","Type":"Q","DHID":"de:09761:100:35:S","Parent":"de:09761:100:35","Name":"Süd","MunicipalityCode":"00000000","Municipality":"-","DistrictCode":"-","District":"-","Description":"","Authority":"BEG","DelfiName":"-","THID":"-","LastOperationDate":"","SEV":"nein","longitude":"10,887258","latitude":"48,366981","geojson_lng":10.887258,"geojson_lat":48.366981},"geometry":{"type":"Point","coordinates":[10.887258,48.366981]}},{"type":"Feature","properties":{"SeqNo":"241823","Type":"S","DHID":"de:09761:23","Parent":"de:09761:23","Name":"Augsburg, Hessenbachstraße","MunicipalityCode":"09761000","Municipality":"Augsburg","DistrictCode":"-","District":"-","Description":"","Authority":"BEG","DelfiName":"-","THID":"D92621000017","LastOperationDate":"2025-06-14T00:00:00","SEV":"nein","longitude":"10,876316","latitude":"48,367476","geojson_lng":10.876316,"geojson_lat":48.367476},"geometry":{"type":"Point","coordinates":[10.876316,48.367476]}},{"type":"Feature","properties":{"SeqNo":"241824","Type":"Q","DHID":"de:09761:23:0:a","Parent":"de:09761:23","Name":"","MunicipalityCode":"00000000","Municipality":"-","DistrictCode":"-","District":"-","Description":"","Authority":"BEG","DelfiName":"-","THID":"-","LastOperationDate":"","SEV":"nein","longitude":"10,876604","latitude":"48,36747","geojson_lng":10.876604,"geojson_lat":48.36747},"geometry":{"type":"Point","coordinates":[10.876604,48.36747]}},{"type":"Feature","properties":{"SeqNo":"241878","Type":"S","DHID":"de:09761:248","Parent":"de:09761:248","Name":"Augsburg, Luitpoldbr.","MunicipalityCode":"09761000","Municipality":"Augsburg","DistrictCode":"-","District":"-","Description":"","Authority":"BEG","DelfiName":"-","THID":"D926210000F8","LastOperationDate":"2025-06-14T00:00:00","SEV":"nein","longitude":"10,878652","latitude":"48,365053","geojson_lng":10.878652,"geojson_lat":48.365053},"geometry":{"type":"Point","coordinates":[10.878652,48.365053]}},{"type":"Feature","properties":{"SeqNo":"241879","Type":"A","DHID":"de:09761:248:1","Parent":"de:09761:248","Name":"Trasse","MunicipalityCode":"00000000","Municipality":"-","DistrictCode":"-","District":"-","Description":"Trasse","Authority":"BEG","DelfiName":"-","THID":"-","LastOperationDate":"","SEV":"nein","longitude":"10,878796","latitude":"48,364964","geojson_lng":10.878796,"geojson_lat":48.364964},"geometry":{"type":"Point","coordinates":[10.878796,48.364964]}},{"type":"Feature","properties":{"SeqNo":"241880","Type":"Q","DHID":"de:09761:248:1:a","Parent":"de:09761:248:1","Name":"stadtaus","MunicipalityCode":"00000000","Municipality":"-","DistrictCode":"-","District":"-","Description":"stadtaus","Authority":"BEG","DelfiName":"-","THID":"-","LastOperationDate":"","SEV":"nein","longitude":"10,878454","latitude":"48,365095","geojson_lng":10.878454,"geojson_lat":48.365095},"geometry":{"type":"Point","coordinates":[10.878454,48.365095]}},{"type":"Feature","properties":{"SeqNo":"241881","Type":"Q","DHID":"de:09761:248:1:e","Parent":"de:09761:248:1","Name":"stadtein","MunicipalityCode":"00000000","Municipality":"-","DistrictCode":"-","District":"-","Description":"stadtein","Authority":"BEG","DelfiName":"-","THID":"-","LastOperationDate":"","SEV":"nein","longitude":"10,878643","latitude":"48,364868","geojson_lng":10.878643,"geojson_lat":48.364868},"geometry":{"type":"Point","coordinates":[10.878643,48.364868]}},{"type":"Feature","properties":{"SeqNo":"242126","Type":"S","DHID":"de:09761:428","Parent":"de:09761:428","Name":"Augsburg, Lutzstr. (E)","MunicipalityCode":"09761000","Municipality":"Augsburg","DistrictCode":"","District":"","Description":"","Authority":"BEG","DelfiName":"-","THID":"D926210001AC","LastOperationDate":"1999-12-31T00:00:00","SEV":"nein","longitude":"10,877772","latitude":"48,363519","geojson_lng":10.877772,"geojson_lat":48.363519},"geometry":{"type":"Point","coordinates":[10.877772,48.363519]}},{"type":"Feature","properties":{"SeqNo":"242508","Type":"Q","DHID":"de:09761:634:0:b","Parent":"de:09761:634","Name":"b","MunicipalityCode":"00000000","Municipality":"-","DistrictCode":"-","District":"-","Description":"b","Authority":"BEG","DelfiName":"-","THID":"-","LastOperationDate":"","SEV":"nein","longitude":"10,887527","latitude":"48,367118","geojson_lng":10.887527,"geojson_lat":48.367118},"geometry":{"type":"Point","coordinates":[10.887527,48.367118]}},{"type":"Feature","properties":{"SeqNo":"242525","Type":"S","DHID":"de:09761:642","Parent":"de:09761:642","Name":"Augsburg, Rosenaustraße","MunicipalityCode":"09761000","Municipality":"Augsburg","DistrictCode":"-","District":"-","Description":"","Authority":"BEG","DelfiName":"-","THID":"D92621000282","LastOperationDate":"2025-06-14T00:00:00","SEV":"nein","longitude":"10,881679","latitude":"48,365793","geojson_lng":10.881679,"geojson_lat":48.365793},"geometry":{"type":"Point","coordinates":[10.881679,48.365793]}},{"type":"Feature","properties":{"SeqNo":"242526","Type":"Q","DHID":"de:09761:642:0:a","Parent":"de:09761:642","Name":"stadtaus","MunicipalityCode":"00000000","Municipality":"-","DistrictCode":"-","District":"-","Description":"stadtaus","Authority":"BEG","DelfiName":"-","THID":"-","LastOperationDate":"","SEV":"nein","longitude":"10,881967","latitude":"48,365931","geojson_lng":10.881967,"geojson_lat":48.365931},"geometry":{"type":"Point","coordinates":[10.881967,48.365931]}},{"type":"Feature","properties":{"SeqNo":"242527","Type":"Q","DHID":"de:09761:642:0:e","Parent":"de:09761:642","Name":"stadtein","MunicipalityCode":"00000000","Municipality":"-","DistrictCode":"-","District":"-","Description":"stadtein","Authority":"BEG","DelfiName":"-","THID":"-","LastOperationDate":"","SEV":"nein","longitude":"10,881329","latitude":"48,365686","geojson_lng":10.881329,"geojson_lat":48.365686},"geometry":{"type":"Point","coordinates":[10.881329,48.365686]}},{"type":"Feature","properties":{"SeqNo":"242528","Type":"Q","DHID":"de:09761:642:0:Z","Parent":"de:09761:642","Name":"Steig Z - Ersatzhaltestelle","MunicipalityCode":"00000000","Municipality":"-","DistrictCode":"-","District":"-","Description":"Steig Z - Ersatzhaltestelle","Authority":"BEG","DelfiName":"-","THID":"-","LastOperationDate":"","SEV":"nein","longitude":"10,881158","latitude":"48,366187","geojson_lng":10.881158,"geojson_lat":48.366187},"geometry":{"type":"Point","coordinates":[10.881158,48.366187]}}]}