{"type":"FeatureCollection","features":[{"type":"Feature","properties":{"SeqNo":"248270","Type":"S","DHID":"de:09761:100","Parent":"de:09761:100","Name":"Augsburg Hbf","Latitude":"48,365441","Longitude":"10,885569","MunicipalityCode":"09761000","Municipality":"Augsburg","DistrictCode":"","District":"","Description":"","Authority":"BEG","DelfiName":"-","THID":"D92621000064","TariffProvider":"-","LastOperationDate":"2025-12-13T00:00:00","SEV":"nein","geojson_lng":10.885569,"geojson_lat":48.365441},"geometry":{"type":"Point","coordinates":[10.885569,48.365441]}},{"type":"Feature","properties":{"SeqNo":"248271","Type":"A","DHID":"de:09761:100:1","Parent":"de:09761:100","Name":"Eingang Süd","Latitude":"48,365179","Longitude":"10,886934","MunicipalityCode":"00000000","Municipality":"-","DistrictCode":"-","District":"-","Description":"","Authority":"BEG","DelfiName":"-","THID":"-","TariffProvider":"-","LastOperationDate":"","SEV":"nein","geojson_lng":10.886934,"geojson_lat":48.365179},"geometry":{"type":"Point","coordinates":[10.886934,48.365179]}},{"type":"Feature","properties":{"SeqNo":"248272","Type":"A","DHID":"de:09761:100:11","Parent":"de:09761:100","Name":"Zug Gl1&101","Latitude":"48,365596","Longitude":"10,885937","MunicipalityCode":"00000000","Municipality":"-","DistrictCode":"-","District":"-","Description":"","Authority":"BEG","DelfiName":"-","THID":"-","TariffProvider":"-","LastOperationDate":"","SEV":"nein","geojson_lng":10.885937,"geojson_lat":48.365596},"geometry":{"type":"Point","coordinates":[10.885937,48.365596]}},{"type":"Feature","properties":{"SeqNo":"248273","Type":"A","DHID":"de:09761:100:12","Parent":"de:09761:100","Name":"Zug Gl2&3","Latitude":"48,365525","Longitude":"10,885722","MunicipalityCode":"00000000","Municipality":"-","DistrictCode":"-","District":"-","Description":"","Authority":"BEG","DelfiName":"-","THID":"-","TariffProvider":"-","LastOperationDate":"","SEV":"nein","geojson_lng":10.885722,"geojson_lat":48.365525},"geometry":{"type":"Point","coordinates":[10.885722,48.365525]}},{"type":"Feature","properties":{"SeqNo":"248274","Type":"A","DHID":"de:09761:100:13","Parent":"de:09761:100","Name":"Zug Gl4&5&501","Latitude":"48,365477","Longitude":"10,88556","MunicipalityCode":"00000000","Municipality":"-","DistrictCode":"-","District":"-","Description":"","Authority":"BEG","DelfiName":"-","THID":"-","TariffProvider":"-","LastOperationDate":"","SEV":"nein","geojson_lng":10.88556,"geojson_lat":48.365477},"geometry":{"type":"Point","coordinates":[10.88556,48.365477]}},{"type":"Feature","properties":{"SeqNo":"248275","Type":"A","DHID":"de:09761:100:14","Parent":"de:09761:100","Name":"Zug Gl6&7","Latitude":"48,365411","Longitude":"10,885335","MunicipalityCode":"00000000","Municipality":"-","DistrictCode":"-","District":"-","Description":"","Authority":"BEG","DelfiName":"-","THID":"-","TariffProvider":"-","LastOperationDate":"","SEV":"nein","geojson_lng":10.885335,"geojson_lat":48.365411},"geometry":{"type":"Point","coordinates":[10.885335,48.365411]}},{"type":"Feature","properties":{"SeqNo":"248276","Type":"A","DHID":"de:09761:100:15","Parent":"de:09761:100","Name":"Zug Gl8&9","Latitude":"48,365358","Longitude":"10,885282","MunicipalityCode":"00000000","Municipality":"-","DistrictCode":"-","District":"-","Description":"","Authority":"BEG","DelfiName":"-","THID":"-","TariffProvider":"-","LastOperationDate":"","SEV":"nein","geojson_lng":10.885282,"geojson_lat":48.365358},"geometry":{"type":"Point","coordinates":[10.885282,48.365358]}},{"type":"Feature","properties":{"SeqNo":"248277","Type":"A","DHID":"de:09761:100:16","Parent":"de:09761:100","Name":"Zug Gl10&12","Latitude":"48,365322","Longitude":"10,885111","MunicipalityCode":"00000000","Municipality":"-","DistrictCode":"-","District":"-","Description":"","Authority":"BEG","DelfiName":"-","THID":"-","TariffProvider":"-","LastOperationDate":"","SEV":"nein","geojson_lng":10.885111,"geojson_lat":48.365322},"geometry":{"type":"Point","coordinates":[10.885111,48.365322]}},{"type":"Feature","properties":{"SeqNo":"248278","Type":"A","DHID":"de:09761:100:2","Parent":"de:09761:100","Name":"Eingang Mitte","Latitude":"48,365614","Longitude":"10,886431","MunicipalityCode":"00000000","Municipality":"-","DistrictCode":"-","District":"-","Description":"","Authority":"BEG","DelfiName":"-","THID":"-","TariffProvider":"-","LastOperationDate":"","SEV":"nein","geojson_lng":10.886431,"geojson_lat":48.365614},"geometry":{"type":"Point","coordinates":[10.886431,48.365614]}},{"type":"Feature","properties":{"SeqNo":"248279","Type":"A","DHID":"de:09761:100:21","Parent":"de:09761:100","Name":"Unterführung Nord","Latitude":"48,365352","Longitude":"10,885749","MunicipalityCode":"00000000","Municipality":"-","DistrictCode":"-","District":"-","Description":"","Authority":"BEG","DelfiName":"-","THID":"-","TariffProvider":"-","LastOperationDate":"","SEV":"nein","geojson_lng":10.885749,"geojson_lat":48.365352},"geometry":{"type":"Point","coordinates":[10.885749,48.365352]}},{"type":"Feature","properties":{"SeqNo":"248280","Type":"A","DHID":"de:09761:100:22","Parent":"de:09761:100","Name":"Unterführung Süd","Latitude":"48,364755","Longitude":"10,886288","MunicipalityCode":"00000000","Municipality":"-","DistrictCode":"-","District":"-","Description":"","Authority":"BEG","DelfiName":"-","THID":"-","TariffProvider":"-","LastOperationDate":"","SEV":"nein","geojson_lng":10.886288,"geojson_lat":48.364755},"geometry":{"type":"Point","coordinates":[10.886288,48.364755]}},{"type":"Feature","properties":{"SeqNo":"248281","Type":"A","DHID":"de:09761:100:3","Parent":"de:09761:100","Name":"Eingang Nord","Latitude":"48,365943","Longitude":"10,88618","MunicipalityCode":"00000000","Municipality":"-","DistrictCode":"-","District":"-","Description":"","Authority":"BEG","DelfiName":"-","THID":"-","TariffProvider":"-","LastOperationDate":"","SEV":"nein","geojson_lng":10.88618,"geojson_lat":48.365943},"geometry":{"type":"Point","coordinates":[10.88618,48.365943]}},{"type":"Feature","properties":{"SeqNo":"248282","Type":"A","DHID":"de:09761:100:31","Parent":"de:09761:100","Name":"Busbahnhof","Latitude":"48,365537","Longitude":"10,88715","MunicipalityCode":"00000000","Municipality":"-","DistrictCode":"-","District":"-","Description":"","Authority":"BEG","DelfiName":"-","THID":"-","TariffProvider":"-","LastOperationDate":"","SEV":"nein","geojson_lng":10.88715,"geojson_lat":48.365537},"geometry":{"type":"Point","coordinates":[10.88715,48.365537]}},{"type":"Feature","properties":{"SeqNo":"248286","Type":"A","DHID":"de:09761:100:35","Parent":"de:09761:100","Name":"Bus Nord","Latitude":"48,366832","Longitude":"10,886719","MunicipalityCode":"00000000","Municipality":"-","DistrictCode":"-","District":"-","Description":"","Authority":"BEG","DelfiName":"-","THID":"-","TariffProvider":"-","LastOperationDate":"","SEV":"nein","geojson_lng":10.886719,"geojson_lat":48.366832},"geometry":{"type":"Point","coordinates":[10.886719,48.366832]}},{"type":"Feature","properties":{"SeqNo":"248288","Type":"Q","DHID":"de:09761:100:11:1","Parent":"de:09761:100:11","Name":"Gleis 1","Latitude":"48,365674","Longitude":"10,885892","MunicipalityCode":"00000000","Municipality":"-","DistrictCode":"-","District":"-","Description":"","Authority":"BEG","DelfiName":"-","THID":"-","TariffProvider":"-","LastOperationDate":"","SEV":"nein","geojson_lng":10.885892,"geojson_lat":48.365674},"geometry":{"type":"Point","coordinates":[10.885892,48.365674]}},{"type":"Feature","properties":{"SeqNo":"248289","Type":"Q","DHID":"de:09761:100:11:101","Parent":"de:09761:100:11","Name":"Gleis 101","Latitude":"48,364343","Longitude":"10,887204","MunicipalityCode":"00000000","Municipality":"-","DistrictCode":"-","District":"-","Description":"","Authority":"BEG","DelfiName":"-","THID":"-","TariffProvider":"-","LastOperationDate":"","SEV":"nein","geojson_lng":10.887204,"geojson_lat":48.364343},"geometry":{"type":"Point","coordinates":[10.887204,48.364343]}},{"type":"Feature","properties":{"SeqNo":"248290","Type":"Q","DHID":"de:09761:100:12:2","Parent":"de:09761:100:12","Name":"Gleis 2","Latitude":"48,365656","Longitude":"10,885839","MunicipalityCode":"00000000","Municipality":"-","DistrictCode":"-","District":"-","Description":"","Authority":"BEG","DelfiName":"-","THID":"-","TariffProvider":"-","LastOperationDate":"","SEV":"nein","geojson_lng":10.885839,"geojson_lat":48.365656},"geometry":{"type":"Point","coordinates":[10.885839,48.365656]}},{"type":"Feature","properties":{"SeqNo":"248291","Type":"Q","DHID":"de:09761:100:12:3","Parent":"de:09761:100:12","Name":"Gleis 3","Latitude":"48,365602","Longitude":"10,885713","MunicipalityCode":"00000000","Municipality":"-","DistrictCode":"-","District":"-","Description":"","Authority":"BEG","DelfiName":"-","THID":"-","TariffProvider":"-","LastOperationDate":"","SEV":"nein","geojson_lng":10.885713,"geojson_lat":48.365602},"geometry":{"type":"Point","coordinates":[10.885713,48.365602]}},{"type":"Feature","properties":{"SeqNo":"248292","Type":"Q","DHID":"de:09761:100:13:4","Parent":"de:09761:100:13","Name":"Gleis 4","Latitude":"48,365578","Longitude":"10,885659","MunicipalityCode":"00000000","Municipality":"-","DistrictCode":"-","District":"-","Description":"","Authority":"BEG","DelfiName":"-","THID":"-","TariffProvider":"-","LastOperationDate":"","SEV":"nein","geojson_lng":10.885659,"geojson_lat":48.365578},"geometry":{"type":"Point","coordinates":[10.885659,48.365578]}},{"type":"Feature","properties":{"SeqNo":"248293","Type":"Q","DHID":"de:09761:100:13:5","Parent":"de:09761:100:13","Name":"Gleis 5","Latitude":"48,365531","Longitude":"10,885533","MunicipalityCode":"00000000","Municipality":"-","DistrictCode":"-","District":"-","Description":"","Authority":"BEG","DelfiName":"-","THID":"-","TariffProvider":"-","LastOperationDate":"","SEV":"nein","geojson_lng":10.885533,"geojson_lat":48.365531},"geometry":{"type":"Point","coordinates":[10.885533,48.365531]}},{"type":"Feature","properties":{"SeqNo":"248294","Type":"Q","DHID":"de:09761:100:13:501","Parent":"de:09761:100:13","Name":"Gleis 501","Latitude":"48,364182","Longitude":"10,886827","MunicipalityCode":"00000000","Municipality":"-","DistrictCode":"-","District":"-","Description":"","Authority":"BEG","DelfiName":"-","THID":"-","TariffProvider":"-","LastOperationDate":"","SEV":"nein","geojson_lng":10.886827,"geojson_lat":48.364182},"geometry":{"type":"Point","coordinates":[10.886827,48.364182]}},{"type":"Feature","properties":{"SeqNo":"248295","Type":"Q","DHID":"de:09761:100:14:6","Parent":"de:09761:100:14","Name":"Gleis 6","Latitude":"48,365519","Longitude":"10,885479","MunicipalityCode":"00000000","Municipality":"-","DistrictCode":"-","District":"-","Description":"","Authority":"BEG","DelfiName":"-","THID":"-","TariffProvider":"-","LastOperationDate":"","SEV":"nein","geojson_lng":10.885479,"geojson_lat":48.365519},"geometry":{"type":"Point","coordinates":[10.885479,48.365519]}},{"type":"Feature","properties":{"SeqNo":"248296","Type":"Q","DHID":"de:09761:100:14:7","Parent":"de:09761:100:14","Name":"Gleis 7","Latitude":"48,365459","Longitude":"10,885353","MunicipalityCode":"00000000","Municipality":"-","DistrictCode":"-","District":"-","Description":"","Authority":"BEG","DelfiName":"-","THID":"-","TariffProvider":"-","LastOperationDate":"","SEV":"nein","geojson_lng":10.885353,"geojson_lat":48.365459},"geometry":{"type":"Point","coordinates":[10.885353,48.365459]}},{"type":"Feature","properties":{"SeqNo":"248297","Type":"Q","DHID":"de:09761:100:15:8","Parent":"de:09761:100:15","Name":"Gleis 8","Latitude":"48,365435","Longitude":"10,885291","MunicipalityCode":"00000000","Municipality":"-","DistrictCode":"-","District":"-","Description":"","Authority":"BEG","DelfiName":"-","THID":"-","TariffProvider":"-","LastOperationDate":"","SEV":"nein","geojson_lng":10.885291,"geojson_lat":48.365435},"geometry":{"type":"Point","coordinates":[10.885291,48.365435]}},{"type":"Feature","properties":{"SeqNo":"248298","Type":"Q","DHID":"de:09761:100:15:801","Parent":"de:09761:100:15","Name":"Gleis 801","Latitude":"48,366462","Longitude":"10,884302","MunicipalityCode":"00000000","Municipality":"-","DistrictCode":"-","District":"-","Description":"","Authority":"BEG","DelfiName":"-","THID":"-","TariffProvider":"-","LastOperationDate":"","SEV":"nein","geojson_lng":10.884302,"geojson_lat":48.366462},"geometry":{"type":"Point","coordinates":[10.884302,48.366462]}},{"type":"Feature","properties":{"SeqNo":"248299","Type":"Q","DHID":"de:09761:100:15:9","Parent":"de:09761:100:15","Name":"Gleis 9","Latitude":"48,365035","Longitude":"10,885479","MunicipalityCode":"00000000","Municipality":"-","DistrictCode":"-","District":"-","Description":"","Authority":"BEG","DelfiName":"-","THID":"-","TariffProvider":"-","LastOperationDate":"","SEV":"nein","geojson_lng":10.885479,"geojson_lat":48.365035},"geometry":{"type":"Point","coordinates":[10.885479,48.365035]}},{"type":"Feature","properties":{"SeqNo":"248300","Type":"Q","DHID":"de:09761:100:15:901","Parent":"de:09761:100:15","Name":"Gleis 901","Latitude":"48,364039","Longitude":"10,886467","MunicipalityCode":"00000000","Municipality":"-","DistrictCode":"-","District":"-","Description":"","Authority":"BEG","DelfiName":"-","THID":"-","TariffProvider":"-","LastOperationDate":"","SEV":"nein","geojson_lng":10.886467,"geojson_lat":48.364039},"geometry":{"type":"Point","coordinates":[10.886467,48.364039]}},{"type":"Feature","properties":{"SeqNo":"248301","Type":"Q","DHID":"de:09761:100:16:10","Parent":"de:09761:100:16","Name":"Gleis 10","Latitude":"48,365376","Longitude":"10,885138","MunicipalityCode":"00000000","Municipality":"-","DistrictCode":"-","District":"-","Description":"","Authority":"BEG","DelfiName":"-","THID":"-","TariffProvider":"-","LastOperationDate":"","SEV":"nein","geojson_lng":10.885138,"geojson_lat":48.365376},"geometry":{"type":"Point","coordinates":[10.885138,48.365376]}},{"type":"Feature","properties":{"SeqNo":"248302","Type":"Q","DHID":"de:09761:100:16:12","Parent":"de:09761:100:16","Name":"Gleis 12","Latitude":"48,365322","Longitude":"10,885003","MunicipalityCode":"00000000","Municipality":"-","DistrictCode":"-","District":"-","Description":"","Authority":"BEG","DelfiName":"-","THID":"-","TariffProvider":"-","LastOperationDate":"","SEV":"nein","geojson_lng":10.885003,"geojson_lat":48.365322},"geometry":{"type":"Point","coordinates":[10.885003,48.365322]}},{"type":"Feature","properties":{"SeqNo":"248303","Type":"Q","DHID":"de:09761:100:31:A","Parent":"de:09761:100:31","Name":"Bus A","Latitude":"48,365495","Longitude":"10,887357","MunicipalityCode":"00000000","Municipality":"-","DistrictCode":"-","District":"-","Description":"","Authority":"BEG","DelfiName":"-","THID":"-","TariffProvider":"-","LastOperationDate":"","SEV":"nein","geojson_lng":10.887357,"geojson_lat":48.365495},"geometry":{"type":"Point","coordinates":[10.887357,48.365495]}},{"type":"Feature","properties":{"SeqNo":"248304","Type":"Q","DHID":"de:09761:100:31:B","Parent":"de:09761:100:31","Name":"Bus B","Latitude":"48,365519","Longitude":"10,887222","MunicipalityCode":"00000000","Municipality":"-","DistrictCode":"-","District":"-","Description":"","Authority":"BEG","DelfiName":"-","THID":"-","TariffProvider":"-","LastOperationDate":"","SEV":"nein","geojson_lng":10.887222,"geojson_lat":48.365519},"geometry":{"type":"Point","coordinates":[10.887222,48.365519]}},{"type":"Feature","properties":{"SeqNo":"248305","Type":"Q","DHID":"de:09761:100:31:C","Parent":"de:09761:100:31","Name":"Bus C","Latitude":"48,365549","Longitude":"10,887114","MunicipalityCode":"00000000","Municipality":"-","DistrictCode":"-","District":"-","Description":"","Authority":"BEG","DelfiName":"-","THID":"-","TariffProvider":"-","LastOperationDate":"","SEV":"nein","geojson_lng":10.887114,"geojson_lat":48.365549},"geometry":{"type":"Point","coordinates":[10.887114,48.365549]}},{"type":"Feature","properties":{"SeqNo":"248306","Type":"Q","DHID":"de:09761:100:31:D","Parent":"de:09761:100:31","Name":"Bus D","Latitude":"48,365573","Longitude":"10,886988","MunicipalityCode":"00000000","Municipality":"-","DistrictCode":"-","District":"-","Description":"","Authority":"BEG","DelfiName":"-","THID":"-","TariffProvider":"-","LastOperationDate":"","SEV":"nein","geojson_lng":10.886988,"geojson_lat":48.365573},"geometry":{"type":"Point","coordinates":[10.886988,48.365573]}},{"type":"Feature","properties":{"SeqNo":"248307","Type":"Q","DHID":"de:09761:100:31:E","Parent":"de:09761:100:31","Name":"Bus E","Latitude":"48,365578","Longitude":"10,886863","MunicipalityCode":"00000000","Municipality":"-","DistrictCode":"-","District":"-","Description":"","Authority":"BEG","DelfiName":"-","THID":"-","TariffProvider":"-","LastOperationDate":"","SEV":"nein","geojson_lng":10.886863,"geojson_lat":48.365578},"geometry":{"type":"Point","coordinates":[10.886863,48.365578]}},{"type":"Feature","properties":{"SeqNo":"248308","Type":"Q","DHID":"de:09761:100:31:F","Parent":"de:09761:100:31","Name":"Bus F","Latitude":"48,365304","Longitude":"10,88689","MunicipalityCode":"00000000","Municipality":"-","DistrictCode":"-","District":"-","Description":"","Authority":"BEG","DelfiName":"-","THID":"-","TariffProvider":"-","LastOperationDate":"","SEV":"nein","geojson_lng":10.88689,"geojson_lat":48.365304},"geometry":{"type":"Point","coordinates":[10.88689,48.365304]}},{"type":"Feature","properties":{"SeqNo":"248318","Type":"Q","DHID":"de:09761:100:35:N","Parent":"de:09761:100:35","Name":"Nord","Latitude":"48,366909","Longitude":"10,886378","MunicipalityCode":"00000000","Municipality":"-","DistrictCode":"-","District":"-","Description":"","Authority":"BEG","DelfiName":"-","THID":"-","TariffProvider":"-","LastOperationDate":"","SEV":"nein","geojson_lng":10.886378,"geojson_lat":48.366909},"geometry":{"type":"Point","coordinates":[10.886378,48.366909]}},{"type":"Feature","properties":{"SeqNo":"248319","Type":"Q","DHID":"de:09761:100:35:O","Parent":"de:09761:100:35","Name":"Ost","Latitude":"48,366921","Longitude":"10,887078","MunicipalityCode":"00000000","Municipality":"-","DistrictCode":"-","District":"-","Description":"","Authority":"BEG","DelfiName":"-","THID":"-","TariffProvider":"-","LastOperationDate":"","SEV":"nein","geojson_lng":10.887078,"geojson_lat":48.366921},"geometry":{"type":"Point","coordinates":[10.887078,48.366921]}},{"type":"Feature","properties":{"SeqNo":"248320","Type":"Q","DHID":"de:09761:100:35:R","Parent":"de:09761:100:35","Name":"Steig R - Tram","Latitude":"48,366384","Longitude":"10,887015","MunicipalityCode":"00000000","Municipality":"-","DistrictCode":"-","District":"-","Description":"","Authority":"BEG","DelfiName":"-","THID":"-","TariffProvider":"-","LastOperationDate":"","SEV":"nein","geojson_lng":10.887015,"geojson_lat":48.366384},"geometry":{"type":"Point","coordinates":[10.887015,48.366384]}},{"type":"Feature","properties":{"SeqNo":"248321","Type":"Q","DHID":"de:09761:100:35:S","Parent":"de:09761:100:35","Name":"Süd","Latitude":"48,366981","Longitude":"10,887258","MunicipalityCode":"00000000","Municipality":"-","DistrictCode":"-","District":"-","Description":"","Authority":"BEG","DelfiName":"-","THID":"-","TariffProvider":"-","LastOperationDate":"","SEV":"nein","geojson_lng":10.887258,"geojson_lat":48.366981},"geometry":{"type":"Point","coordinates":[10.887258,48.366981]}},{"type":"Feature","properties":{"SeqNo":"248792","Type":"S","DHID":"de:09761:23","Parent":"de:09761:23","Name":"Augsburg, Hessenbachstraße","Latitude":"48,367476","Longitude":"10,876316","MunicipalityCode":"09761000","Municipality":"Augsburg","DistrictCode":"-","District":"-","Description":"","Authority":"BEG","DelfiName":"-","THID":"D92621000017","TariffProvider":"-","LastOperationDate":"2025-12-13T00:00:00","SEV":"nein","geojson_lng":10.876316,"geojson_lat":48.367476},"geometry":{"type":"Point","coordinates":[10.876316,48.367476]}},{"type":"Feature","properties":{"SeqNo":"248793","Type":"Q","DHID":"de:09761:23:0:a","Parent":"de:09761:23","Name":"-","Latitude":"48,36747","Longitude":"10,876604","MunicipalityCode":"00000000","Municipality":"-","DistrictCode":"-","District":"-","Description":"","Authority":"BEG","DelfiName":"-","THID":"-","TariffProvider":"-","LastOperationDate":"","SEV":"nein","geojson_lng":10.876604,"geojson_lat":48.36747},"geometry":{"type":"Point","coordinates":[10.876604,48.36747]}},{"type":"Feature","properties":{"SeqNo":"248848","Type":"S","DHID":"de:09761:248","Parent":"de:09761:248","Name":"Augsburg, Luitpoldbr.","Latitude":"48,365053","Longitude":"10,878652","MunicipalityCode":"09761000","Municipality":"Augsburg","DistrictCode":"-","District":"-","Description":"","Authority":"BEG","DelfiName":"-","THID":"D926210000F8","TariffProvider":"-","LastOperationDate":"2025-12-13T00:00:00","SEV":"nein","geojson_lng":10.878652,"geojson_lat":48.365053},"geometry":{"type":"Point","coordinates":[10.878652,48.365053]}},{"type":"Feature","properties":{"SeqNo":"248849","Type":"A","DHID":"de:09761:248:1","Parent":"de:09761:248","Name":"Trasse","Latitude":"48,364964","Longitude":"10,878796","MunicipalityCode":"00000000","Municipality":"-","DistrictCode":"-","District":"-","Description":"Trasse","Authority":"BEG","DelfiName":"-","THID":"-","TariffProvider":"-","LastOperationDate":"","SEV":"nein","geojson_lng":10.878796,"geojson_lat":48.364964},"geometry":{"type":"Point","coordinates":[10.878796,48.364964]}},{"type":"Feature","properties":{"SeqNo":"248850","Type":"Q","DHID":"de:09761:248:1:a","Parent":"de:09761:248:1","Name":"stadtaus","Latitude":"48,365095","Longitude":"10,878454","MunicipalityCode":"00000000","Municipality":"-","DistrictCode":"-","District":"-","Description":"stadtaus","Authority":"BEG","DelfiName":"-","THID":"-","TariffProvider":"-","LastOperationDate":"","SEV":"nein","geojson_lng":10.878454,"geojson_lat":48.365095},"geometry":{"type":"Point","coordinates":[10.878454,48.365095]}},{"type":"Feature","properties":{"SeqNo":"248851","Type":"Q","DHID":"de:09761:248:1:e","Parent":"de:09761:248:1","Name":"stadtein","Latitude":"48,364868","Longitude":"10,878643","MunicipalityCode":"00000000","Municipality":"-","DistrictCode":"-","District":"-","Description":"stadtein","Authority":"BEG","DelfiName":"-","THID":"-","TariffProvider":"-","LastOperationDate":"","SEV":"nein","geojson_lng":10.878643,"geojson_lat":48.364868},"geometry":{"type":"Point","coordinates":[10.878643,48.364868]}},{"type":"Feature","properties":{"SeqNo":"249102","Type":"S","DHID":"de:09761:428","Parent":"de:09761:428","Name":"Augsburg, Lutzstr. (E)","Latitude":"48,363519","Longitude":"10,877772","MunicipalityCode":"09761000","Municipality":"Augsburg","DistrictCode":"","District":"","Description":"","Authority":"BEG","DelfiName":"-","THID":"D926210001AC","TariffProvider":"-","LastOperationDate":"1999-12-31T00:00:00","SEV":"nein","geojson_lng":10.877772,"geojson_lat":48.363519},"geometry":{"type":"Point","coordinates":[10.877772,48.363519]}},{"type":"Feature","properties":{"SeqNo":"249489","Type":"Q","DHID":"de:09761:634:0:b","Parent":"de:09761:634","Name":"b","Latitude":"48,367118","Longitude":"10,887527","MunicipalityCode":"00000000","Municipality":"-","DistrictCode":"-","District":"-","Description":"b","Authority":"BEG","DelfiName":"-","THID":"-","TariffProvider":"-","LastOperationDate":"","SEV":"nein","geojson_lng":10.887527,"geojson_lat":48.367118},"geometry":{"type":"Point","coordinates":[10.887527,48.367118]}},{"type":"Feature","properties":{"SeqNo":"249506","Type":"S","DHID":"de:09761:642","Parent":"de:09761:642","Name":"Augsburg, Rosenaustraße","Latitude":"48,365793","Longitude":"10,881679","MunicipalityCode":"09761000","Municipality":"Augsburg","DistrictCode":"-","District":"-","Description":"","Authority":"BEG","DelfiName":"-","THID":"D92621000282","TariffProvider":"-","LastOperationDate":"2025-12-13T00:00:00","SEV":"nein","geojson_lng":10.881679,"geojson_lat":48.365793},"geometry":{"type":"Point","coordinates":[10.881679,48.365793]}},{"type":"Feature","properties":{"SeqNo":"249507","Type":"Q","DHID":"de:09761:642:0:a","Parent":"de:09761:642","Name":"stadtaus","Latitude":"48,365931","Longitude":"10,881967","MunicipalityCode":"00000000","Municipality":"-","DistrictCode":"-","District":"-","Description":"stadtaus","Authority":"BEG","DelfiName":"-","THID":"-","TariffProvider":"-","LastOperationDate":"","SEV":"nein","geojson_lng":10.881967,"geojson_lat":48.365931},"geometry":{"type":"Point","coordinates":[10.881967,48.365931]}},{"type":"Feature","properties":{"SeqNo":"249508","Type":"Q","DHID":"de:09761:642:0:e","Parent":"de:09761:642","Name":"stadtein","Latitude":"48,365686","Longitude":"10,881329","MunicipalityCode":"00000000","Municipality":"-","DistrictCode":"-","District":"-","Description":"stadtein","Authority":"BEG","DelfiName":"-","THID":"-","TariffProvider":"-","LastOperationDate":"","SEV":"nein","geojson_lng":10.881329,"geojson_lat":48.365686},"geometry":{"type":"Point","coordinates":[10.881329,48.365686]}},{"type":"Feature","properties":{"SeqNo":"249509","Type":"Q","DHID":"de:09761:642:0:Z","Parent":"de:09761:642","Name":"Steig Z - Ersatzhaltestelle","Latitude":"48,366187","Longitude":"10,881158","MunicipalityCode":"00000000","Municipality":"-","DistrictCode":"-","District":"-","Description":"Steig Z - Ersatzhaltestelle","Authority":"BEG","DelfiName":"-","THID":"-","TariffProvider":"-","LastOperationDate":"","SEV":"nein","geojson_lng":10.881158,"geojson_lat":48.366187},"geometry":{"type":"Point","coordinates":[10.881158,48.366187]}}]}