{"type":"FeatureCollection","features":[{"type":"Feature","properties":{"highway":"bus_stop","public_transport":"platform","name":"P+R Zuiderval","ref:IFOPT":"NL:Q:43001850","_quaycode":"NL:Q:43001850","_town":"Enschede","_status":"available","_mode":"bus","_direction":175,"_visuallyAccessible":false,"_disabledAccessible":true,"geojson_lng":6.890325726822965,"geojson_lat":52.20366236796514},"geometry":{"type":"Point","coordinates":[6.890325726822965,52.20366236796514]}},{"type":"Feature","properties":{"highway":"bus_stop","public_transport":"platform","name":"Gelderlandstraat","ref:IFOPT":"NL:Q:43001460","_quaycode":"NL:Q:43001460","_town":"Enschede","_status":"available","_mode":"bus","_direction":95,"_visuallyAccessible":false,"_disabledAccessible":true,"geojson_lng":6.881674962346217,"geojson_lat":52.206594832744024},"geometry":{"type":"Point","coordinates":[6.881674962346217,52.206594832744024]}},{"type":"Feature","properties":{"highway":"bus_stop","public_transport":"platform","name":"Tiemeister","ref:IFOPT":"NL:Q:43003540","_quaycode":"NL:Q:43003540","_town":"Enschede","_status":"available","_mode":"bus","_direction":33,"_visuallyAccessible":false,"_disabledAccessible":true,"geojson_lng":6.895056418221841,"geojson_lat":52.203377291292654},"geometry":{"type":"Point","coordinates":[6.895056418221841,52.203377291292654]}},{"type":"Feature","properties":{"highway":"bus_stop","public_transport":"platform","name":"Gelderlandstraat","ref:IFOPT":"NL:Q:43001450","_quaycode":"NL:Q:43001450","_town":"Enschede","_status":"available","_mode":"bus","_direction":276,"_visuallyAccessible":false,"_disabledAccessible":true,"geojson_lng":6.881635004730868,"geojson_lat":52.206712198030104},"geometry":{"type":"Point","coordinates":[6.881635004730868,52.206712198030104]}},{"type":"Feature","properties":{"highway":"bus_stop","public_transport":"platform","name":"Rabobank","ref:IFOPT":"NL:Q:43001830","_quaycode":"NL:Q:43001830","_town":"Enschede","_status":"available","_mode":"bus","_direction":175,"_visuallyAccessible":false,"_disabledAccessible":false,"geojson_lng":6.889491006344288,"geojson_lat":52.20971373426845},"geometry":{"type":"Point","coordinates":[6.889491006344288,52.20971373426845]}},{"type":"Feature","properties":{"highway":"bus_stop","public_transport":"platform","name":"Bankastraat","ref:IFOPT":"NL:Q:43002530","_quaycode":"NL:Q:43002530","_town":"Enschede","_status":"available","_mode":"bus","_direction":204,"_visuallyAccessible":false,"_disabledAccessible":true,"geojson_lng":6.895625801398473,"geojson_lat":52.21192533057355},"geometry":{"type":"Point","coordinates":[6.895625801398473,52.21192533057355]}},{"type":"Feature","properties":{"highway":"bus_stop","public_transport":"platform","name":"Spinnerplein","ref:IFOPT":"NL:Q:43000140","_quaycode":"NL:Q:43000140","_town":"Enschede","_status":"available","_mode":"bus","_direction":65,"_visuallyAccessible":false,"_disabledAccessible":true,"geojson_lng":6.877848171913983,"geojson_lat":52.21029283005201},"geometry":{"type":"Point","coordinates":[6.877848171913983,52.21029283005201]}},{"type":"Feature","properties":{"highway":"bus_stop","public_transport":"platform","name":"Aquadrome","ref:IFOPT":"NL:Q:43002601","_quaycode":"NL:Q:43002601","_town":"Enschede","_status":"available","_mode":"bus","_direction":159,"_visuallyAccessible":false,"_disabledAccessible":true,"geojson_lng":6.895165337671081,"geojson_lat":52.20829740053542},"geometry":{"type":"Point","coordinates":[6.895165337671081,52.20829740053542]}},{"type":"Feature","properties":{"highway":"bus_stop","public_transport":"platform","name":"Aquadrome","ref:IFOPT":"NL:Q:43002600","_quaycode":"NL:Q:43002600","_town":"Enschede","_status":"available","_mode":"bus","_direction":338,"_visuallyAccessible":false,"_disabledAccessible":true,"geojson_lng":6.895412150393617,"geojson_lat":52.20808908338006},"geometry":{"type":"Point","coordinates":[6.895412150393617,52.20808908338006]}},{"type":"Feature","properties":{"highway":"bus_stop","public_transport":"platform","name":"Tiemeister","ref:IFOPT":"NL:Q:43003530","_quaycode":"NL:Q:43003530","_town":"Enschede","_status":"available","_mode":"bus","_direction":212,"_visuallyAccessible":false,"_disabledAccessible":true,"geojson_lng":6.894208889131744,"geojson_lat":52.20254313115282},"geometry":{"type":"Point","coordinates":[6.894208889131744,52.20254313115282]}},{"type":"Feature","properties":{"highway":"bus_stop","public_transport":"platform","name":"Zuid Hollandlaan","ref:IFOPT":"NL:Q:43001490","_quaycode":"NL:Q:43001490","_town":"Enschede","_status":"available","_mode":"bus","_direction":194,"_visuallyAccessible":false,"_disabledAccessible":true,"geojson_lng":6.879911066660388,"geojson_lat":52.20285967776075},"geometry":{"type":"Point","coordinates":[6.879911066660388,52.20285967776075]}},{"type":"Feature","properties":{"highway":"bus_stop","public_transport":"platform","name":"Rabobank","ref:IFOPT":"NL:Q:43001840","_quaycode":"NL:Q:43001840","_town":"Enschede","_status":"available","_mode":"bus","_direction":0,"_visuallyAccessible":false,"_disabledAccessible":true,"geojson_lng":6.889461895266184,"geojson_lat":52.21058605602567},"geometry":{"type":"Point","coordinates":[6.889461895266184,52.21058605602567]}},{"type":"Feature","properties":{"highway":"bus_stop","public_transport":"platform","name":"Wkc Boswinkel","ref:IFOPT":"NL:Q:43001560","_quaycode":"NL:Q:43001560","_town":"Enschede","_status":"available","_mode":"bus","_direction":14,"_visuallyAccessible":false,"_disabledAccessible":true,"geojson_lng":6.880354666398646,"geojson_lat":52.2051822641334},"geometry":{"type":"Point","coordinates":[6.880354666398646,52.2051822641334]}},{"type":"Feature","properties":{"highway":"bus_stop","public_transport":"platform","name":"Utrechtlaan","ref:IFOPT":"NL:Q:43001470","_quaycode":"NL:Q:43001470","_town":"Enschede","_status":"available","_mode":"bus","_direction":272,"_visuallyAccessible":true,"_disabledAccessible":true,"geojson_lng":6.887246925731434,"geojson_lat":52.20651515744256},"geometry":{"type":"Point","coordinates":[6.887246925731434,52.20651515744256]}},{"type":"Feature","properties":{"highway":"bus_stop","public_transport":"platform","name":"Wkc Boswinkel","ref:IFOPT":"NL:Q:43001550","_quaycode":"NL:Q:43001550","_town":"Enschede","_status":"available","_mode":"bus","_direction":189,"_visuallyAccessible":false,"_disabledAccessible":true,"geojson_lng":6.880178393824696,"geojson_lat":52.205597996341886},"geometry":{"type":"Point","coordinates":[6.880178393824696,52.205597996341886]}},{"type":"Feature","properties":{"highway":"bus_stop","public_transport":"platform","name":"Zuid Hollandlaan","ref:IFOPT":"NL:Q:43001500","_quaycode":"NL:Q:43001500","_town":"Enschede","_status":"available","_mode":"bus","_direction":0,"_visuallyAccessible":false,"_disabledAccessible":true,"geojson_lng":6.880109482323131,"geojson_lat":52.20266839515102},"geometry":{"type":"Point","coordinates":[6.880109482323131,52.20266839515102]}},{"type":"Feature","properties":{"highway":"bus_stop","public_transport":"platform","name":"Utrechtlaan","ref:IFOPT":"NL:Q:43001480","_quaycode":"NL:Q:43001480","_town":"Enschede","_status":"available","_mode":"bus","_direction":92,"_visuallyAccessible":true,"_disabledAccessible":true,"geojson_lng":6.887257012649574,"geojson_lat":52.2063801913936},"geometry":{"type":"Point","coordinates":[6.887257012649574,52.2063801913936]}},{"type":"Feature","properties":{"highway":"bus_stop","public_transport":"platform","name":"P+R Zuiderval","ref:IFOPT":"NL:Q:43001860","_quaycode":"NL:Q:43001860","_town":"Enschede","_status":"available","_mode":"bus","_direction":354,"_visuallyAccessible":false,"_disabledAccessible":true,"geojson_lng":6.890466346884792,"geojson_lat":52.20375268856382},"geometry":{"type":"Point","coordinates":[6.890466346884792,52.20375268856382]}},{"type":"Feature","properties":{"highway":"bus_stop","public_transport":"platform","name":"Bankastraat","ref:IFOPT":"NL:Q:43002540","_quaycode":"NL:Q:43002540","_town":"Enschede","_status":"available","_mode":"bus","_direction":25,"_visuallyAccessible":false,"_disabledAccessible":true,"geojson_lng":6.895957243344345,"geojson_lat":52.212496927347615},"geometry":{"type":"Point","coordinates":[6.895957243344345,52.212496927347615]}},{"type":"Feature","properties":{"highway":"bus_stop","public_transport":"platform","name":"Veldkampstraat","ref:IFOPT":"NL:Q:43006980","_quaycode":"NL:Q:43006980","_town":"Enschede","_status":"available","_mode":"bus","_direction":252,"_visuallyAccessible":true,"_disabledAccessible":true,"geojson_lng":6.885007567966441,"geojson_lat":52.21345627725087},"geometry":{"type":"Point","coordinates":[6.885007567966441,52.21345627725087]}},{"type":"Feature","properties":{"highway":"bus_stop","public_transport":"platform","name":"Veldkampstraat","ref:IFOPT":"NL:Q:43006990","_quaycode":"NL:Q:43006990","_town":"Enschede","_status":"available","_mode":"bus","_direction":74,"_visuallyAccessible":true,"_disabledAccessible":true,"geojson_lng":6.885589082487256,"geojson_lat":52.21360753113119},"geometry":{"type":"Point","coordinates":[6.885589082487256,52.21360753113119]}}]}