{"type":"FeatureCollection","features":[{"type":"Feature","properties":{"SeqNo":"823000","Type":"S","DHID":"de:14521:40405","Parent":"de:14521:40405","Name":"Lichtenau, Abzweig","MunicipalityCode":"14521600","Municipality":"Stützengrün","DistrictCode":"-","District":"-","Description":"","Authority":"VVO","DelfiName":"-","THID":"D938B9009DD5","LastOperationDate":"2025-02-28T00:00:00","SEV":"nein","longitude":"12,53404","latitude":"50,540891","geojson_lng":12.53404,"geojson_lat":50.540891},"geometry":{"type":"Point","coordinates":[12.53404,50.540891]}},{"type":"Feature","properties":{"SeqNo":"823001","Type":"Q","DHID":"de:14521:40405:0:BN","Parent":"de:14521:40405","Name":"Bus Nord","MunicipalityCode":"00000000","Municipality":"-","DistrictCode":"-","District":"-","Description":"Bus Nord","Authority":"VVO","DelfiName":"-","THID":"-","LastOperationDate":"","SEV":"nein","longitude":"12,534283","latitude":"50,540943","geojson_lng":12.534283,"geojson_lat":50.540943},"geometry":{"type":"Point","coordinates":[12.534283,50.540943]}},{"type":"Feature","properties":{"SeqNo":"823002","Type":"Q","DHID":"de:14521:40405:0:BS","Parent":"de:14521:40405","Name":"Bus Süd","MunicipalityCode":"00000000","Municipality":"-","DistrictCode":"-","District":"-","Description":"Bus Süd","Authority":"VVO","DelfiName":"-","THID":"-","LastOperationDate":"","SEV":"nein","longitude":"12,533744","latitude":"50,540828","geojson_lng":12.533744,"geojson_lat":50.540828},"geometry":{"type":"Point","coordinates":[12.533744,50.540828]}},{"type":"Feature","properties":{"SeqNo":"823933","Type":"S","DHID":"de:14521:40752","Parent":"de:14521:40752","Name":"Stützengrün, Gh Goldener Löwe","MunicipalityCode":"14521600","Municipality":"Stützengrün","DistrictCode":"","District":"","Description":"","Authority":"VVO","DelfiName":"-","THID":"D938B9009F30","LastOperationDate":"2025-02-28T00:00:00","SEV":"nein","longitude":"12,524608","latitude":"50,534776","geojson_lng":12.524608,"geojson_lat":50.534776},"geometry":{"type":"Point","coordinates":[12.524608,50.534776]}},{"type":"Feature","properties":{"SeqNo":"823934","Type":"Q","DHID":"de:14521:40752:0:BNSB","Parent":"de:14521:40752","Name":"Bus Nord Schulbus","MunicipalityCode":"00000000","Municipality":"-","DistrictCode":"-","District":"-","Description":"","Authority":"VVO","DelfiName":"-","THID":"-","LastOperationDate":"","SEV":"nein","longitude":"12,525039","latitude":"50,534462","geojson_lng":12.525039,"geojson_lat":50.534462},"geometry":{"type":"Point","coordinates":[12.525039,50.534462]}},{"type":"Feature","properties":{"SeqNo":"823935","Type":"Q","DHID":"de:14521:40752:0:BO","Parent":"de:14521:40752","Name":"Bus Ost","MunicipalityCode":"00000000","Municipality":"-","DistrictCode":"-","District":"-","Description":"","Authority":"VVO","DelfiName":"-","THID":"-","LastOperationDate":"","SEV":"nein","longitude":"12,524554","latitude":"50,534708","geojson_lng":12.524554,"geojson_lat":50.534708},"geometry":{"type":"Point","coordinates":[12.524554,50.534708]}},{"type":"Feature","properties":{"SeqNo":"823936","Type":"Q","DHID":"de:14521:40752:0:BW","Parent":"de:14521:40752","Name":"Bus West","MunicipalityCode":"00000000","Municipality":"-","DistrictCode":"-","District":"-","Description":"","Authority":"VVO","DelfiName":"-","THID":"-","LastOperationDate":"","SEV":"nein","longitude":"12,524635","latitude":"50,534811","geojson_lng":12.524635,"geojson_lat":50.534811},"geometry":{"type":"Point","coordinates":[12.524635,50.534811]}},{"type":"Feature","properties":{"SeqNo":"823939","Type":"S","DHID":"de:14521:40755","Parent":"de:14521:40755","Name":"Stützengrün, Gewerbegebiet","MunicipalityCode":"14521600","Municipality":"Stützengrün","DistrictCode":"-","District":"-","Description":"","Authority":"VVO","DelfiName":"-","THID":"D938B9009F33","LastOperationDate":"2025-02-28T00:00:00","SEV":"nein","longitude":"12,52972","latitude":"50,536227","geojson_lng":12.52972,"geojson_lat":50.536227},"geometry":{"type":"Point","coordinates":[12.52972,50.536227]}},{"type":"Feature","properties":{"SeqNo":"823940","Type":"Q","DHID":"de:14521:40755:0:BO","Parent":"de:14521:40755","Name":"Bus Ost","MunicipalityCode":"00000000","Municipality":"-","DistrictCode":"-","District":"-","Description":"Bus Ost","Authority":"VVO","DelfiName":"-","THID":"-","LastOperationDate":"","SEV":"nein","longitude":"12,529684","latitude":"50,536192","geojson_lng":12.529684,"geojson_lat":50.536192},"geometry":{"type":"Point","coordinates":[12.529684,50.536192]}},{"type":"Feature","properties":{"SeqNo":"823941","Type":"Q","DHID":"de:14521:40755:0:BW","Parent":"de:14521:40755","Name":"Bus West","MunicipalityCode":"00000000","Municipality":"-","DistrictCode":"-","District":"-","Description":"Bus West","Authority":"VVO","DelfiName":"-","THID":"-","LastOperationDate":"","SEV":"nein","longitude":"12,529773","latitude":"50,536301","geojson_lng":12.529773,"geojson_lat":50.536301},"geometry":{"type":"Point","coordinates":[12.529773,50.536301]}}]}