{"type":"FeatureCollection","features":[{"type":"Feature","properties":{"SeqNo":"777231","Type":"S","DHID":"de:08222:2258","Parent":"de:08222:2258","Name":"Mannheim, Fahrlach","MunicipalityCode":"08222000","Municipality":"Mannheim","DistrictCode":"","District":"","Description":"","Authority":"VRN","DelfiName":"-","THID":"D9201E0008D2","LastOperationDate":"2025-06-14T00:00:00","SEV":"nein","longitude":"8,498593","latitude":"49,473373","geojson_lng":8.498593,"geojson_lat":49.473373},"geometry":{"type":"Point","coordinates":[8.498593,49.473373]}},{"type":"Feature","properties":{"SeqNo":"777232","Type":"A","DHID":"de:08222:2258:1","Parent":"de:08222:2258","Name":"Bus","MunicipalityCode":"00000000","Municipality":"-","DistrictCode":"-","District":"-","Description":"","Authority":"VRN","DelfiName":"-","THID":"-","LastOperationDate":"","SEV":"nein","longitude":"8,498611","latitude":"49,473537","geojson_lng":8.498611,"geojson_lat":49.473537},"geometry":{"type":"Point","coordinates":[8.498611,49.473537]}},{"type":"Feature","properties":{"SeqNo":"777233","Type":"A","DHID":"de:08222:2258:2","Parent":"de:08222:2258","Name":"TrRi Neuhermsheim","MunicipalityCode":"00000000","Municipality":"-","DistrictCode":"-","District":"-","Description":"","Authority":"VRN","DelfiName":"-","THID":"-","LastOperationDate":"","SEV":"nein","longitude":"8,498772","latitude":"49,473268","geojson_lng":8.498772,"geojson_lat":49.473268},"geometry":{"type":"Point","coordinates":[8.498772,49.473268]}},{"type":"Feature","properties":{"SeqNo":"777234","Type":"A","DHID":"de:08222:2258:3","Parent":"de:08222:2258","Name":"TrRiTechnoseum","MunicipalityCode":"00000000","Municipality":"-","DistrictCode":"-","District":"-","Description":"","Authority":"VRN","DelfiName":"-","THID":"-","LastOperationDate":"","SEV":"nein","longitude":"8,498377","latitude":"49,47349","geojson_lng":8.498377,"geojson_lat":49.47349},"geometry":{"type":"Point","coordinates":[8.498377,49.47349]}},{"type":"Feature","properties":{"SeqNo":"777235","Type":"Q","DHID":"de:08222:2258:1:BusO","Parent":"de:08222:2258:1","Name":"BusRiO Feudenheim","MunicipalityCode":"00000000","Municipality":"-","DistrictCode":"-","District":"-","Description":"","Authority":"VRN","DelfiName":"-","THID":"-","LastOperationDate":"","SEV":"nein","longitude":"8,498871","latitude":"49,473432","geojson_lng":8.498871,"geojson_lat":49.473432},"geometry":{"type":"Point","coordinates":[8.498871,49.473432]}},{"type":"Feature","properties":{"SeqNo":"777236","Type":"Q","DHID":"de:08222:2258:1:BusW","Parent":"de:08222:2258:1","Name":"BusRiW Technoseum","MunicipalityCode":"00000000","Municipality":"-","DistrictCode":"-","District":"-","Description":"","Authority":"VRN","DelfiName":"-","THID":"-","LastOperationDate":"","SEV":"nein","longitude":"8,49835","latitude":"49,473636","geojson_lng":8.49835,"geojson_lat":49.473636},"geometry":{"type":"Point","coordinates":[8.49835,49.473636]}},{"type":"Feature","properties":{"SeqNo":"777237","Type":"Q","DHID":"de:08222:2258:2:TrRiO","Parent":"de:08222:2258:2","Name":"TrRiO Neuhermsheim","MunicipalityCode":"00000000","Municipality":"-","DistrictCode":"-","District":"-","Description":"","Authority":"VRN","DelfiName":"-","THID":"-","LastOperationDate":"","SEV":"nein","longitude":"8,49879","latitude":"49,473274","geojson_lng":8.49879,"geojson_lat":49.473274},"geometry":{"type":"Point","coordinates":[8.49879,49.473274]}},{"type":"Feature","properties":{"SeqNo":"777238","Type":"Q","DHID":"de:08222:2258:3:TrRiW","Parent":"de:08222:2258:3","Name":"TrRiW Technoseum","MunicipalityCode":"00000000","Municipality":"-","DistrictCode":"-","District":"-","Description":"","Authority":"VRN","DelfiName":"-","THID":"-","LastOperationDate":"","SEV":"nein","longitude":"8,498386","latitude":"49,473484","geojson_lng":8.498386,"geojson_lat":49.473484},"geometry":{"type":"Point","coordinates":[8.498386,49.473484]}},{"type":"Feature","properties":{"SeqNo":"778190","Type":"S","DHID":"de:08222:2511","Parent":"de:08222:2511","Name":"Neuhermsheim, Lochgärten","MunicipalityCode":"08222000","Municipality":"Mannheim","DistrictCode":"-","District":"-","Description":"","Authority":"VRN","DelfiName":"-","THID":"D9201E0009CF","LastOperationDate":"2025-06-13T00:00:00","SEV":"nein","longitude":"8,499626","latitude":"49,470104","geojson_lng":8.499626,"geojson_lat":49.470104},"geometry":{"type":"Point","coordinates":[8.499626,49.470104]}},{"type":"Feature","properties":{"SeqNo":"778191","Type":"Q","DHID":"de:08222:2511:0:11","Parent":"de:08222:2511","Name":"A Ri Teufelsloch","MunicipalityCode":"00000000","Municipality":"-","DistrictCode":"-","District":"-","Description":"","Authority":"VRN","DelfiName":"-","THID":"-","LastOperationDate":"","SEV":"nein","longitude":"8,499662","latitude":"49,47018","geojson_lng":8.499662,"geojson_lat":49.47018},"geometry":{"type":"Point","coordinates":[8.499662,49.47018]}},{"type":"Feature","properties":{"SeqNo":"778192","Type":"Q","DHID":"de:08222:2511:0:12","Parent":"de:08222:2511","Name":"B Ri Husarenweg","MunicipalityCode":"00000000","Municipality":"-","DistrictCode":"-","District":"-","Description":"","Authority":"VRN","DelfiName":"-","THID":"-","LastOperationDate":"","SEV":"nein","longitude":"8,49959","latitude":"49,470017","geojson_lng":8.49959,"geojson_lat":49.470017},"geometry":{"type":"Point","coordinates":[8.49959,49.470017]}},{"type":"Feature","properties":{"SeqNo":"778193","Type":"S","DHID":"de:08222:2513","Parent":"de:08222:2513","Name":"Neuhermsheim, Teufelsloch","MunicipalityCode":"08222000","Municipality":"Mannheim","DistrictCode":"-","District":"-","Description":"","Authority":"VRN","DelfiName":"-","THID":"D9201E0009D1","LastOperationDate":"2025-06-13T00:00:00","SEV":"nein","longitude":"8,501332","latitude":"49,472819","geojson_lng":8.501332,"geojson_lat":49.472819},"geometry":{"type":"Point","coordinates":[8.501332,49.472819]}},{"type":"Feature","properties":{"SeqNo":"778194","Type":"Q","DHID":"de:08222:2513:0:11","Parent":"de:08222:2513","Name":"A Ri Am Schäferstock","MunicipalityCode":"00000000","Municipality":"-","DistrictCode":"-","District":"-","Description":"","Authority":"VRN","DelfiName":"-","THID":"-","LastOperationDate":"","SEV":"nein","longitude":"8,50135","latitude":"49,472842","geojson_lng":8.50135,"geojson_lat":49.472842},"geometry":{"type":"Point","coordinates":[8.50135,49.472842]}},{"type":"Feature","properties":{"SeqNo":"778195","Type":"Q","DHID":"de:08222:2513:0:12","Parent":"de:08222:2513","Name":"B Ri Lochgärten","MunicipalityCode":"00000000","Municipality":"-","DistrictCode":"-","District":"-","Description":"","Authority":"VRN","DelfiName":"-","THID":"-","LastOperationDate":"","SEV":"nein","longitude":"8,501306","latitude":"49,472772","geojson_lng":8.501306,"geojson_lat":49.472772},"geometry":{"type":"Point","coordinates":[8.501306,49.472772]}},{"type":"Feature","properties":{"SeqNo":"778198","Type":"Q","DHID":"de:08222:2514:0:RiW","Parent":"de:08222:2514","Name":"B RiTeufelsloch","MunicipalityCode":"00000000","Municipality":"-","DistrictCode":"-","District":"-","Description":"RiW Teufelsloch","Authority":"VRN","DelfiName":"-","THID":"-","LastOperationDate":"","SEV":"nein","longitude":"8,503255","latitude":"49,47506","geojson_lng":8.503255,"geojson_lat":49.47506},"geometry":{"type":"Point","coordinates":[8.503255,49.47506]}},{"type":"Feature","properties":{"SeqNo":"778873","Type":"S","DHID":"de:08222:3024","Parent":"de:08222:3024","Name":"Neuhermsheim, Husarenweg","MunicipalityCode":"08222000","Municipality":"Mannheim","DistrictCode":"-","District":"-","Description":"","Authority":"VRN","DelfiName":"-","THID":"D9201E000BD0","LastOperationDate":"2025-06-14T00:00:00","SEV":"nein","longitude":"8,502348","latitude":"49,469316","geojson_lng":8.502348,"geojson_lat":49.469316},"geometry":{"type":"Point","coordinates":[8.502348,49.469316]}},{"type":"Feature","properties":{"SeqNo":"778874","Type":"A","DHID":"de:08222:3024:1","Parent":"de:08222:3024","Name":"Tram","MunicipalityCode":"00000000","Municipality":"-","DistrictCode":"-","District":"-","Description":"Tram","Authority":"VRN","DelfiName":"-","THID":"-","LastOperationDate":"","SEV":"nein","longitude":"8,502779","latitude":"49,469194","geojson_lng":8.502779,"geojson_lat":49.469194},"geometry":{"type":"Point","coordinates":[8.502779,49.469194]}},{"type":"Feature","properties":{"SeqNo":"778875","Type":"A","DHID":"de:08222:3024:2","Parent":"de:08222:3024","Name":"Bus","MunicipalityCode":"00000000","Municipality":"-","DistrictCode":"-","District":"-","Description":"Bus","Authority":"VRN","DelfiName":"-","THID":"-","LastOperationDate":"","SEV":"nein","longitude":"8,500066","latitude":"49,468843","geojson_lng":8.500066,"geojson_lat":49.468843},"geometry":{"type":"Point","coordinates":[8.500066,49.468843]}},{"type":"Feature","properties":{"SeqNo":"778876","Type":"Q","DHID":"de:08222:3024:1:Fuß","Parent":"de:08222:3024:1","Name":"Fußgänger","MunicipalityCode":"00000000","Municipality":"-","DistrictCode":"-","District":"-","Description":"Fußgänger","Authority":"VRN","DelfiName":"-","THID":"-","LastOperationDate":"","SEV":"nein","longitude":"8,502482","latitude":"49,46938","geojson_lng":8.502482,"geojson_lat":49.46938},"geometry":{"type":"Point","coordinates":[8.502482,49.46938]}},{"type":"Feature","properties":{"SeqNo":"778877","Type":"Q","DHID":"de:08222:3024:1:TrRiO","Parent":"de:08222:3024:1","Name":"B Ri Ulanenweg","MunicipalityCode":"00000000","Municipality":"-","DistrictCode":"-","District":"-","Description":"TrRiO Ulanenweg","Authority":"VRN","DelfiName":"-","THID":"-","LastOperationDate":"","SEV":"nein","longitude":"8,502896","latitude":"49,469106","geojson_lng":8.502896,"geojson_lat":49.469106},"geometry":{"type":"Point","coordinates":[8.502896,49.469106]}},{"type":"Feature","properties":{"SeqNo":"778878","Type":"Q","DHID":"de:08222:3024:1:TrRiW","Parent":"de:08222:3024:1","Name":"A Ri Fahrlach","MunicipalityCode":"00000000","Municipality":"-","DistrictCode":"-","District":"-","Description":"TrRiW Fahrlach","Authority":"VRN","DelfiName":"-","THID":"-","LastOperationDate":"","SEV":"nein","longitude":"8,502644","latitude":"49,469281","geojson_lng":8.502644,"geojson_lat":49.469281},"geometry":{"type":"Point","coordinates":[8.502644,49.469281]}},{"type":"Feature","properties":{"SeqNo":"778879","Type":"Q","DHID":"de:08222:3024:2:Bus","Parent":"de:08222:3024:2","Name":"C Ri Lochgärten","MunicipalityCode":"00000000","Municipality":"-","DistrictCode":"-","District":"-","Description":"Bus","Authority":"VRN","DelfiName":"-","THID":"-","LastOperationDate":"","SEV":"nein","longitude":"8,500075","latitude":"49,468878","geojson_lng":8.500075,"geojson_lat":49.468878},"geometry":{"type":"Point","coordinates":[8.500075,49.468878]}},{"type":"Feature","properties":{"SeqNo":"778880","Type":"Q","DHID":"de:08222:3024:2:D","Parent":"de:08222:3024:2","Name":"D Ri Ulanenweg","MunicipalityCode":"00000000","Municipality":"-","DistrictCode":"-","District":"-","Description":"","Authority":"VRN","DelfiName":"-","THID":"-","LastOperationDate":"","SEV":"nein","longitude":"8,500066","latitude":"49,468832","geojson_lng":8.500066,"geojson_lat":49.468832},"geometry":{"type":"Point","coordinates":[8.500066,49.468832]}},{"type":"Feature","properties":{"SeqNo":"779061","Type":"S","DHID":"de:08222:5552","Parent":"de:08222:5552","Name":"Mannheim, Fahrlachstraße","MunicipalityCode":"08222000","Municipality":"Mannheim","DistrictCode":"08222","District":"","Description":"","Authority":"VRN","DelfiName":"-","THID":"D9201E0015B0","LastOperationDate":"1999-12-31T00:00:00","SEV":"nein","longitude":"8,49287","latitude":"49,470437","geojson_lng":8.49287,"geojson_lat":49.470437},"geometry":{"type":"Point","coordinates":[8.49287,49.470437]}}]}