{"type":"FeatureCollection","features":[{"type":"Feature","properties":{"SeqNo":"22050","Type":"S","DHID":"de:08125:1565","Parent":"de:08125:1565","Name":"Wieslensdorf","MunicipalityCode":"08125110","Municipality":"Obersulm","DistrictCode":"","District":"","Description":"","Authority":"NVBW","DelfiName":"-","THID":"D91FBD00061D","LastOperationDate":"2025-06-14T00:00:00","SEV":"nein","longitude":"9,423085","latitude":"49,14989","geojson_lng":9.423085,"geojson_lat":49.14989},"geometry":{"type":"Point","coordinates":[9.423085,49.14989]}},{"type":"Feature","properties":{"SeqNo":"22051","Type":"A","DHID":"de:08125:1565:1","Parent":"de:08125:1565","Name":"Bahnsteig Ri. TWG","MunicipalityCode":"00000000","Municipality":"-","DistrictCode":"-","District":"-","Description":"","Authority":"NVBW","DelfiName":"-","THID":"-","LastOperationDate":"","SEV":"nein","longitude":"9,422699","latitude":"49,149949","geojson_lng":9.422699,"geojson_lat":49.149949},"geometry":{"type":"Point","coordinates":[9.422699,49.149949]}},{"type":"Feature","properties":{"SeqNo":"22052","Type":"A","DHID":"de:08125:1565:2","Parent":"de:08125:1565","Name":"Bahnsteig Ri. TH","MunicipalityCode":"00000000","Municipality":"-","DistrictCode":"-","District":"-","Description":"","Authority":"NVBW","DelfiName":"-","THID":"-","LastOperationDate":"","SEV":"nein","longitude":"9,422878","latitude":"49,150025","geojson_lng":9.422878,"geojson_lat":49.150025},"geometry":{"type":"Point","coordinates":[9.422878,49.150025]}},{"type":"Feature","properties":{"SeqNo":"22053","Type":"A","DHID":"de:08125:1565:3","Parent":"de:08125:1565","Name":"Bus","MunicipalityCode":"00000000","Municipality":"-","DistrictCode":"-","District":"-","Description":"","Authority":"NVBW","DelfiName":"-","THID":"-","LastOperationDate":"","SEV":"nein","longitude":"9,422609","latitude":"49,149273","geojson_lng":9.422609,"geojson_lat":49.149273},"geometry":{"type":"Point","coordinates":[9.422609,49.149273]}},{"type":"Feature","properties":{"SeqNo":"22054","Type":"Q","DHID":"de:08125:1565:1:1","Parent":"de:08125:1565:1","Name":"Ri. TWG","MunicipalityCode":"00000000","Municipality":"-","DistrictCode":"-","District":"-","Description":"","Authority":"NVBW","DelfiName":"-","THID":"-","LastOperationDate":"","SEV":"nein","longitude":"9,42304","latitude":"49,150043","geojson_lng":9.42304,"geojson_lat":49.150043},"geometry":{"type":"Point","coordinates":[9.42304,49.150043]}},{"type":"Feature","properties":{"SeqNo":"22055","Type":"Q","DHID":"de:08125:1565:2:2","Parent":"de:08125:1565:2","Name":"Ri. TH","MunicipalityCode":"00000000","Municipality":"-","DistrictCode":"-","District":"-","Description":"","Authority":"NVBW","DelfiName":"-","THID":"-","LastOperationDate":"","SEV":"nein","longitude":"9,423112","latitude":"49,150061","geojson_lng":9.423112,"geojson_lat":49.150061},"geometry":{"type":"Point","coordinates":[9.423112,49.150061]}}]}