{"type":"FeatureCollection","features":[{"type":"Feature","properties":{"SeqNo":"537606","Type":"S","DHID":"de:05154:40024","Parent":"de:05154:40024","Name":"Rees Empel Bf","MunicipalityCode":"05154044","Municipality":"Rees","DistrictCode":"","District":"","Description":"","Authority":"VRR","DelfiName":"-","THID":"D91422009C58","LastOperationDate":"2025-06-14T00:00:00","SEV":"nein","longitude":"6,418184","latitude":"51,797476","geojson_lng":6.418184,"geojson_lat":51.797476},"geometry":{"type":"Point","coordinates":[6.418184,51.797476]}},{"type":"Feature","properties":{"SeqNo":"537607","Type":"A","DHID":"de:05154:40024:1","Parent":"de:05154:40024","Name":"Zugang Süd","MunicipalityCode":"00000000","Municipality":"-","DistrictCode":"-","District":"-","Description":"","Authority":"VRR","DelfiName":"-","THID":"-","LastOperationDate":"","SEV":"nein","longitude":"6,417214","latitude":"51,797815","geojson_lng":6.417214,"geojson_lat":51.797815},"geometry":{"type":"Point","coordinates":[6.417214,51.797815]}},{"type":"Feature","properties":{"SeqNo":"537608","Type":"A","DHID":"de:05154:40024:2","Parent":"de:05154:40024","Name":"ÖPNV Bus","MunicipalityCode":"00000000","Municipality":"-","DistrictCode":"-","District":"-","Description":"","Authority":"VRR","DelfiName":"-","THID":"-","LastOperationDate":"","SEV":"nein","longitude":"6,4176","latitude":"51,797559","geojson_lng":6.4176,"geojson_lat":51.797559},"geometry":{"type":"Point","coordinates":[6.4176,51.797559]}},{"type":"Feature","properties":{"SeqNo":"537609","Type":"A","DHID":"de:05154:40024:3","Parent":"de:05154:40024","Name":"Zugang Nord","MunicipalityCode":"00000000","Municipality":"-","DistrictCode":"-","District":"-","Description":"","Authority":"VRR","DelfiName":"-","THID":"-","LastOperationDate":"","SEV":"nein","longitude":"6,416477","latitude":"51,798315","geojson_lng":6.416477,"geojson_lat":51.798315},"geometry":{"type":"Point","coordinates":[6.416477,51.798315]}},{"type":"Feature","properties":{"SeqNo":"537610","Type":"A","DHID":"de:05154:40024:70","Parent":"de:05154:40024","Name":"Unterführung","MunicipalityCode":"00000000","Municipality":"-","DistrictCode":"-","District":"-","Description":"","Authority":"VRR","DelfiName":"-","THID":"-","LastOperationDate":"","SEV":"nein","longitude":"6,416909","latitude":"51,798254","geojson_lng":6.416909,"geojson_lat":51.798254},"geometry":{"type":"Point","coordinates":[6.416909,51.798254]}},{"type":"Feature","properties":{"SeqNo":"537611","Type":"A","DHID":"de:05154:40024:80","Parent":"de:05154:40024","Name":"P+R Nord","MunicipalityCode":"00000000","Municipality":"-","DistrictCode":"-","District":"-","Description":"","Authority":"VRR","DelfiName":"-","THID":"-","LastOperationDate":"","SEV":"nein","longitude":"6,416379","latitude":"51,79822","geojson_lng":6.416379,"geojson_lat":51.79822},"geometry":{"type":"Point","coordinates":[6.416379,51.79822]}},{"type":"Feature","properties":{"SeqNo":"537612","Type":"A","DHID":"de:05154:40024:89","Parent":"de:05154:40024","Name":"Schienenersatz","MunicipalityCode":"00000000","Municipality":"-","DistrictCode":"-","District":"-","Description":"","Authority":"VRR","DelfiName":"-","THID":"-","LastOperationDate":"","SEV":"nein","longitude":"6,418274","latitude":"51,79742","geojson_lng":6.418274,"geojson_lat":51.79742},"geometry":{"type":"Point","coordinates":[6.418274,51.79742]}},{"type":"Feature","properties":{"SeqNo":"537613","Type":"A","DHID":"de:05154:40024:90","Parent":"de:05154:40024","Name":"Gleis 1+2","MunicipalityCode":"00000000","Municipality":"-","DistrictCode":"-","District":"-","Description":"","Authority":"VRR","DelfiName":"-","THID":"-","LastOperationDate":"","SEV":"nein","longitude":"6,417582","latitude":"51,797854","geojson_lng":6.417582,"geojson_lat":51.797854},"geometry":{"type":"Point","coordinates":[6.417582,51.797854]}},{"type":"Feature","properties":{"SeqNo":"537614","Type":"Q","DHID":"de:05154:40024:0:01","Parent":"de:05154:40024:2","Name":"01 > allle Richtungen","MunicipalityCode":"00000000","Municipality":"-","DistrictCode":"-","District":"-","Description":"","Authority":"VRR","DelfiName":"-","THID":"-","LastOperationDate":"","SEV":"nein","longitude":"6,417475","latitude":"51,797631","geojson_lng":6.417475,"geojson_lat":51.797631},"geometry":{"type":"Point","coordinates":[6.417475,51.797631]}},{"type":"Feature","properties":{"SeqNo":"537615","Type":"Q","DHID":"de:05154:40024:0:02","Parent":"de:05154:40024:2","Name":"02 > Hamminkeln","MunicipalityCode":"00000000","Municipality":"-","DistrictCode":"-","District":"-","Description":"","Authority":"VRR","DelfiName":"-","THID":"-","LastOperationDate":"","SEV":"nein","longitude":"6,417286","latitude":"51,797743","geojson_lng":6.417286,"geojson_lat":51.797743},"geometry":{"type":"Point","coordinates":[6.417286,51.797743]}},{"type":"Feature","properties":{"SeqNo":"537616","Type":"Q","DHID":"de:05154:40024:0:03","Parent":"de:05154:40024:90","Name":"Gleis 1 Ri. Ddorf","MunicipalityCode":"00000000","Municipality":"-","DistrictCode":"-","District":"-","Description":"","Authority":"VRR","DelfiName":"-","THID":"-","LastOperationDate":"","SEV":"nein","longitude":"6,416424","latitude":"51,798576","geojson_lng":6.416424,"geojson_lat":51.798576},"geometry":{"type":"Point","coordinates":[6.416424,51.798576]}},{"type":"Feature","properties":{"SeqNo":"537617","Type":"Q","DHID":"de:05154:40024:0:04","Parent":"de:05154:40024:90","Name":"Gleis 2 Ri. Arnhem","MunicipalityCode":"00000000","Municipality":"-","DistrictCode":"-","District":"-","Description":"","Authority":"VRR","DelfiName":"-","THID":"-","LastOperationDate":"","SEV":"nein","longitude":"6,416468","latitude":"51,798604","geojson_lng":6.416468,"geojson_lat":51.798604},"geometry":{"type":"Point","coordinates":[6.416468,51.798604]}}]}