{"type":"FeatureCollection","features":[{"type":"Feature","properties":{"SeqNo":"548672","Type":"S","DHID":"de:05170:36223","Parent":"de:05170:36223","Name":"Xanten Am Bruckend","MunicipalityCode":"05170052","Municipality":"Xanten","DistrictCode":"-","District":"-","Description":"","Authority":"VRR","DelfiName":"-","THID":"D91432008D7F","LastOperationDate":"2025-06-13T00:00:00","SEV":"nein","longitude":"6,421984","latitude":"51,682368","geojson_lng":6.421984,"geojson_lat":51.682368},"geometry":{"type":"Point","coordinates":[6.421984,51.682368]}},{"type":"Feature","properties":{"SeqNo":"548673","Type":"Q","DHID":"de:05170:36223:0:1","Parent":"de:05170:36223","Name":"1","MunicipalityCode":"00000000","Municipality":"-","DistrictCode":"-","District":"-","Description":"Jugenherberge","Authority":"VRR","DelfiName":"-","THID":"-","LastOperationDate":"","SEV":"nein","longitude":"6,421562","latitude":"51,682201","geojson_lng":6.421562,"geojson_lat":51.682201},"geometry":{"type":"Point","coordinates":[6.421562,51.682201]}},{"type":"Feature","properties":{"SeqNo":"548674","Type":"Q","DHID":"de:05170:36223:0:2","Parent":"de:05170:36223","Name":"2","MunicipalityCode":"00000000","Municipality":"-","DistrictCode":"-","District":"-","Description":"Raimannshof","Authority":"VRR","DelfiName":"-","THID":"-","LastOperationDate":"","SEV":"nein","longitude":"6,421526","latitude":"51,682268","geojson_lng":6.421526,"geojson_lat":51.682268},"geometry":{"type":"Point","coordinates":[6.421526,51.682268]}},{"type":"Feature","properties":{"SeqNo":"551952","Type":"S","DHID":"de:05170:40201","Parent":"de:05170:40201","Name":"Xanten Abzweig Wardt","MunicipalityCode":"05170052","Municipality":"Xanten","DistrictCode":"","District":"","Description":"","Authority":"VRR","DelfiName":"-","THID":"D91432009D09","LastOperationDate":"2025-06-14T00:00:00","SEV":"nein","longitude":"6,416433","latitude":"51,679717","geojson_lng":6.416433,"geojson_lat":51.679717},"geometry":{"type":"Point","coordinates":[6.416433,51.679717]}},{"type":"Feature","properties":{"SeqNo":"551953","Type":"A","DHID":"de:05170:40201:0","Parent":"de:05170:40201","Name":"Bus","MunicipalityCode":"00000000","Municipality":"-","DistrictCode":"-","District":"-","Description":"","Authority":"VRR","DelfiName":"-","THID":"-","LastOperationDate":"","SEV":"nein","longitude":"6,416486","latitude":"51,679722","geojson_lng":6.416486,"geojson_lat":51.679722},"geometry":{"type":"Point","coordinates":[6.416486,51.679722]}},{"type":"Feature","properties":{"SeqNo":"551954","Type":"Q","DHID":"de:05170:40201:0:01","Parent":"de:05170:40201:0","Name":"1 Ri Wesel","MunicipalityCode":"00000000","Municipality":"-","DistrictCode":"-","District":"-","Description":"","Authority":"VRR","DelfiName":"-","THID":"-","LastOperationDate":"","SEV":"nein","longitude":"6,417097","latitude":"51,67931","geojson_lng":6.417097,"geojson_lat":51.67931},"geometry":{"type":"Point","coordinates":[6.417097,51.67931]}}]}