{"type":"FeatureCollection","features":[{"type":"Feature","properties":{"SeqNo":"555992","Type":"Q","DHID":"de:05315:12013:1:12","Parent":"de:05315:12013:1","Name":"","MunicipalityCode":"00000000","Municipality":"-","DistrictCode":"-","District":"-","Description":"","Authority":"VRR","DelfiName":"-","THID":"-","LastOperationDate":"","SEV":"nein","longitude":"6,941273","latitude":"50,909806","geojson_lng":6.941273,"geojson_lat":50.909806},"geometry":{"type":"Point","coordinates":[6.941273,50.909806]}},{"type":"Feature","properties":{"SeqNo":"555997","Type":"Q","DHID":"de:05315:12013:2:25","Parent":"de:05315:12013:2","Name":"","MunicipalityCode":"00000000","Municipality":"-","DistrictCode":"-","District":"-","Description":"","Authority":"VRR","DelfiName":"-","THID":"-","LastOperationDate":"","SEV":"nein","longitude":"6,941273","latitude":"50,909806","geojson_lng":6.941273,"geojson_lat":50.909806},"geometry":{"type":"Point","coordinates":[6.941273,50.909806]}},{"type":"Feature","properties":{"SeqNo":"556000","Type":"S","DHID":"de:05315:12015","Parent":"de:05315:12015","Name":"Köln Zollstock Zollstockgürtel","MunicipalityCode":"05315000","Municipality":"Köln","DistrictCode":"","District":"","Description":"","Authority":"VRR","DelfiName":"-","THID":"D914C3002EEF","LastOperationDate":"2025-01-06T00:00:00","SEV":"nein","longitude":"6,942127","latitude":"50,905252","geojson_lng":6.942127,"geojson_lat":50.905252},"geometry":{"type":"Point","coordinates":[6.942127,50.905252]}},{"type":"Feature","properties":{"SeqNo":"556001","Type":"A","DHID":"de:05315:12015:1","Parent":"de:05315:12015","Name":"Zollstockgürtel","MunicipalityCode":"00000000","Municipality":"-","DistrictCode":"-","District":"-","Description":"","Authority":"VRR","DelfiName":"-","THID":"-","LastOperationDate":"","SEV":"nein","longitude":"6,942127","latitude":"50,905241","geojson_lng":6.942127,"geojson_lat":50.905241},"geometry":{"type":"Point","coordinates":[6.942127,50.905241]}},{"type":"Feature","properties":{"SeqNo":"556003","Type":"Q","DHID":"de:05315:12015:1:11","Parent":"de:05315:12015:1","Name":"","MunicipalityCode":"00000000","Municipality":"-","DistrictCode":"-","District":"-","Description":"","Authority":"VRR","DelfiName":"-","THID":"-","LastOperationDate":"","SEV":"nein","longitude":"6,942046","latitude":"50,905762","geojson_lng":6.942046,"geojson_lat":50.905762},"geometry":{"type":"Point","coordinates":[6.942046,50.905762]}},{"type":"Feature","properties":{"SeqNo":"556004","Type":"Q","DHID":"de:05315:12015:1:12","Parent":"de:05315:12015:1","Name":"","MunicipalityCode":"00000000","Municipality":"-","DistrictCode":"-","District":"-","Description":"","Authority":"VRR","DelfiName":"-","THID":"-","LastOperationDate":"","SEV":"nein","longitude":"6,942109","latitude":"50,905252","geojson_lng":6.942109,"geojson_lat":50.905252},"geometry":{"type":"Point","coordinates":[6.942109,50.905252]}},{"type":"Feature","properties":{"SeqNo":"556007","Type":"Q","DHID":"de:05315:12015:2:31","Parent":"de:05315:12015:2","Name":"","MunicipalityCode":"00000000","Municipality":"-","DistrictCode":"-","District":"-","Description":"","Authority":"VRR","DelfiName":"-","THID":"-","LastOperationDate":"","SEV":"nein","longitude":"6,942207","latitude":"50,905037","geojson_lng":6.942207,"geojson_lat":50.905037},"geometry":{"type":"Point","coordinates":[6.942207,50.905037]}},{"type":"Feature","properties":{"SeqNo":"556008","Type":"Q","DHID":"de:05315:12015:2:32","Parent":"de:05315:12015:2","Name":"","MunicipalityCode":"00000000","Municipality":"-","DistrictCode":"-","District":"-","Description":"","Authority":"VRR","DelfiName":"-","THID":"-","LastOperationDate":"","SEV":"nein","longitude":"6,942109","latitude":"50,905252","geojson_lng":6.942109,"geojson_lat":50.905252},"geometry":{"type":"Point","coordinates":[6.942109,50.905252]}},{"type":"Feature","properties":{"SeqNo":"556009","Type":"Q","DHID":"de:05315:12015:2:33","Parent":"de:05315:12015:2","Name":"","MunicipalityCode":"00000000","Municipality":"-","DistrictCode":"-","District":"-","Description":"","Authority":"VRR","DelfiName":"-","THID":"-","LastOperationDate":"","SEV":"nein","longitude":"6,943187","latitude":"50,904929","geojson_lng":6.943187,"geojson_lat":50.904929},"geometry":{"type":"Point","coordinates":[6.943187,50.904929]}},{"type":"Feature","properties":{"SeqNo":"556010","Type":"Q","DHID":"de:05315:12015:2:34","Parent":"de:05315:12015:2","Name":"","MunicipalityCode":"00000000","Municipality":"-","DistrictCode":"-","District":"-","Description":"","Authority":"VRR","DelfiName":"-","THID":"-","LastOperationDate":"","SEV":"nein","longitude":"6,942046","latitude":"50,905762","geojson_lng":6.942046,"geojson_lat":50.905762},"geometry":{"type":"Point","coordinates":[6.942046,50.905762]}},{"type":"Feature","properties":{"SeqNo":"556039","Type":"S","DHID":"de:05315:12055","Parent":"de:05315:12055","Name":"Köln Zollstock Brüggener Str.","MunicipalityCode":"05315000","Municipality":"Köln","DistrictCode":"","District":"","Description":"","Authority":"VRR","DelfiName":"-","THID":"D914C3002F17","LastOperationDate":"2025-01-06T00:00:00","SEV":"nein","longitude":"6,939189","latitude":"50,905139","geojson_lng":6.939189,"geojson_lat":50.905139},"geometry":{"type":"Point","coordinates":[6.939189,50.905139]}},{"type":"Feature","properties":{"SeqNo":"556040","Type":"A","DHID":"de:05315:12055:2","Parent":"de:05315:12055","Name":"Brüggener Str.","MunicipalityCode":"00000000","Municipality":"-","DistrictCode":"-","District":"-","Description":"","Authority":"VRR","DelfiName":"-","THID":"-","LastOperationDate":"","SEV":"nein","longitude":"6,939189","latitude":"50,90515","geojson_lng":6.939189,"geojson_lat":50.90515},"geometry":{"type":"Point","coordinates":[6.939189,50.90515]}},{"type":"Feature","properties":{"SeqNo":"556041","Type":"Q","DHID":"de:05315:12055:2:21","Parent":"de:05315:12055:2","Name":"","MunicipalityCode":"00000000","Municipality":"-","DistrictCode":"-","District":"-","Description":"","Authority":"VRR","DelfiName":"-","THID":"-","LastOperationDate":"","SEV":"nein","longitude":"6,939279","latitude":"50,905218","geojson_lng":6.939279,"geojson_lat":50.905218},"geometry":{"type":"Point","coordinates":[6.939279,50.905218]}},{"type":"Feature","properties":{"SeqNo":"556042","Type":"Q","DHID":"de:05315:12055:2:22","Parent":"de:05315:12055:2","Name":"","MunicipalityCode":"00000000","Municipality":"-","DistrictCode":"-","District":"-","Description":"","Authority":"VRR","DelfiName":"-","THID":"-","LastOperationDate":"","SEV":"nein","longitude":"6,939117","latitude":"50,905122","geojson_lng":6.939117,"geojson_lat":50.905122},"geometry":{"type":"Point","coordinates":[6.939117,50.905122]}},{"type":"Feature","properties":{"SeqNo":"556051","Type":"S","DHID":"de:05315:12061","Parent":"de:05315:12061","Name":"Köln Zollstock Bernkasteler Str.","MunicipalityCode":"05315000","Municipality":"Köln","DistrictCode":"","District":"","Description":"","Authority":"VRR","DelfiName":"-","THID":"D914C3002F1D","LastOperationDate":"2025-01-06T00:00:00","SEV":"nein","longitude":"6,937105","latitude":"50,906515","geojson_lng":6.937105,"geojson_lat":50.906515},"geometry":{"type":"Point","coordinates":[6.937105,50.906515]}},{"type":"Feature","properties":{"SeqNo":"556052","Type":"A","DHID":"de:05315:12061:2","Parent":"de:05315:12061","Name":"Bernkasteler Str.","MunicipalityCode":"00000000","Municipality":"-","DistrictCode":"-","District":"-","Description":"","Authority":"VRR","DelfiName":"-","THID":"-","LastOperationDate":"","SEV":"nein","longitude":"6,937105","latitude":"50,906521","geojson_lng":6.937105,"geojson_lat":50.906521},"geometry":{"type":"Point","coordinates":[6.937105,50.906521]}},{"type":"Feature","properties":{"SeqNo":"556053","Type":"Q","DHID":"de:05315:12061:2:21","Parent":"de:05315:12061:2","Name":"","MunicipalityCode":"00000000","Municipality":"-","DistrictCode":"-","District":"-","Description":"","Authority":"VRR","DelfiName":"-","THID":"-","LastOperationDate":"","SEV":"nein","longitude":"6,93671","latitude":"50,906697","geojson_lng":6.93671,"geojson_lat":50.906697},"geometry":{"type":"Point","coordinates":[6.93671,50.906697]}},{"type":"Feature","properties":{"SeqNo":"556054","Type":"Q","DHID":"de:05315:12061:2:22","Parent":"de:05315:12061:2","Name":"","MunicipalityCode":"00000000","Municipality":"-","DistrictCode":"-","District":"-","Description":"","Authority":"VRR","DelfiName":"-","THID":"-","LastOperationDate":"","SEV":"nein","longitude":"6,937464","latitude":"50,906357","geojson_lng":6.937464,"geojson_lat":50.906357},"geometry":{"type":"Point","coordinates":[6.937464,50.906357]}}]}