{"type":"FeatureCollection","features":[{"type":"Feature","properties":{"SeqNo":"769223","Type":"S","DHID":"de:07336:96134","Parent":"de:07336:96134","Name":"Gries, Gortner","MunicipalityCode":"07336032","Municipality":"Gries","DistrictCode":"07336","District":"","Description":"","Authority":"VRN","DelfiName":"-","THID":"D91CA8017786","LastOperationDate":"1999-12-31T00:00:00","SEV":"nein","longitude":"7,399872","latitude":"49,418916","geojson_lng":7.399872,"geojson_lat":49.418916},"geometry":{"type":"Point","coordinates":[7.399872,49.418916]}},{"type":"Feature","properties":{"SeqNo":"769224","Type":"S","DHID":"de:07336:96135","Parent":"de:07336:96135","Name":"Gries, Göttel","MunicipalityCode":"07336032","Municipality":"Gries","DistrictCode":"07336","District":"","Description":"","Authority":"VRN","DelfiName":"-","THID":"D91CA8017787","LastOperationDate":"1999-12-31T00:00:00","SEV":"nein","longitude":"7,398534","latitude":"49,420833","geojson_lng":7.398534,"geojson_lat":49.420833},"geometry":{"type":"Point","coordinates":[7.398534,49.420833]}},{"type":"Feature","properties":{"SeqNo":"769225","Type":"S","DHID":"de:07336:96136","Parent":"de:07336:96136","Name":"Gries, Müller","MunicipalityCode":"07336032","Municipality":"Gries","DistrictCode":"07336","District":"","Description":"","Authority":"VRN","DelfiName":"-","THID":"D91CA8017788","LastOperationDate":"1999-12-31T00:00:00","SEV":"nein","longitude":"7,400878","latitude":"49,41856","geojson_lng":7.400878,"geojson_lat":49.41856},"geometry":{"type":"Point","coordinates":[7.400878,49.41856]}},{"type":"Feature","properties":{"SeqNo":"769242","Type":"S","DHID":"de:07336:96143","Parent":"de:07336:96143","Name":"Gries, Unterdorf","MunicipalityCode":"07336032","Municipality":"Gries","DistrictCode":"","District":"","Description":"","Authority":"VRN","DelfiName":"-","THID":"D91CA801778F","LastOperationDate":"2025-06-14T00:00:00","SEV":"nein","longitude":"7,399162","latitude":"49,419174","geojson_lng":7.399162,"geojson_lat":49.419174},"geometry":{"type":"Point","coordinates":[7.399162,49.419174]}},{"type":"Feature","properties":{"SeqNo":"769243","Type":"Q","DHID":"de:07336:96143:0:RiO","Parent":"de:07336:96143","Name":"RiO Siedlung/Oberdorf","MunicipalityCode":"00000000","Municipality":"-","DistrictCode":"-","District":"-","Description":"","Authority":"VRN","DelfiName":"-","THID":"-","LastOperationDate":"","SEV":"nein","longitude":"7,399558","latitude":"49,419057","geojson_lng":7.399558,"geojson_lat":49.419057},"geometry":{"type":"Point","coordinates":[7.399558,49.419057]}},{"type":"Feature","properties":{"SeqNo":"769244","Type":"Q","DHID":"de:07336:96143:0:RiW","Parent":"de:07336:96143","Name":"RiW Sand","MunicipalityCode":"00000000","Municipality":"-","DistrictCode":"-","District":"-","Description":"","Authority":"VRN","DelfiName":"-","THID":"-","LastOperationDate":"","SEV":"nein","longitude":"7,399154","latitude":"49,419179","geojson_lng":7.399154,"geojson_lat":49.419179},"geometry":{"type":"Point","coordinates":[7.399154,49.419179]}},{"type":"Feature","properties":{"SeqNo":"769245","Type":"S","DHID":"de:07336:96144","Parent":"de:07336:96144","Name":"Gries, Oberdorf","MunicipalityCode":"07336032","Municipality":"Gries","DistrictCode":"","District":"","Description":"","Authority":"VRN","DelfiName":"-","THID":"D91CA8017790","LastOperationDate":"2025-06-14T00:00:00","SEV":"nein","longitude":"7,398776","latitude":"49,420658","geojson_lng":7.398776,"geojson_lat":49.420658},"geometry":{"type":"Point","coordinates":[7.398776,49.420658]}},{"type":"Feature","properties":{"SeqNo":"769246","Type":"Q","DHID":"de:07336:96144:0:RiN","Parent":"de:07336:96144","Name":"RiN Abzw. Brücken","MunicipalityCode":"00000000","Municipality":"-","DistrictCode":"-","District":"-","Description":"","Authority":"VRN","DelfiName":"-","THID":"-","LastOperationDate":"","SEV":"nein","longitude":"7,398758","latitude":"49,420722","geojson_lng":7.398758,"geojson_lat":49.420722},"geometry":{"type":"Point","coordinates":[7.398758,49.420722]}},{"type":"Feature","properties":{"SeqNo":"769247","Type":"Q","DHID":"de:07336:96144:0:RiS","Parent":"de:07336:96144","Name":"RiS Unterdorf","MunicipalityCode":"00000000","Municipality":"-","DistrictCode":"-","District":"-","Description":"","Authority":"VRN","DelfiName":"-","THID":"-","LastOperationDate":"","SEV":"nein","longitude":"7,398857","latitude":"49,420564","geojson_lng":7.398857,"geojson_lat":49.420564},"geometry":{"type":"Point","coordinates":[7.398857,49.420564]}}]}