{"type":"FeatureCollection","features":[{"type":"Feature","properties":{"SeqNo":"716298","Type":"S","DHID":"de:03157:516","Parent":"de:03157:516","Name":"Wipshausen, Bahnhof","MunicipalityCode":"03157001","Municipality":"Edemissen","DistrictCode":"","District":"","Description":"","Authority":"HannIT","DelfiName":"-","THID":"D90C55000204","LastOperationDate":"2025-02-28T00:00:00","SEV":"nein","longitude":"10,343975","latitude":"52,397598","geojson_lng":10.343975,"geojson_lat":52.397598},"geometry":{"type":"Point","coordinates":[10.343975,52.397598]}},{"type":"Feature","properties":{"SeqNo":"716299","Type":"A","DHID":"de:03157:516:1","Parent":"de:03157:516","Name":"Bus","MunicipalityCode":"00000000","Municipality":"-","DistrictCode":"-","District":"-","Description":"","Authority":"HannIT","DelfiName":"-","THID":"-","LastOperationDate":"","SEV":"nein","longitude":"10,343957","latitude":"52,397609","geojson_lng":10.343957,"geojson_lat":52.397609},"geometry":{"type":"Point","coordinates":[10.343957,52.397609]}},{"type":"Feature","properties":{"SeqNo":"716300","Type":"Q","DHID":"de:03157:516:1:A","Parent":"de:03157:516:1","Name":"Abfahrt","MunicipalityCode":"00000000","Municipality":"-","DistrictCode":"-","District":"-","Description":"","Authority":"HannIT","DelfiName":"-","THID":"-","LastOperationDate":"","SEV":"nein","longitude":"10,343921","latitude":"52,397587","geojson_lng":10.343921,"geojson_lat":52.397587},"geometry":{"type":"Point","coordinates":[10.343921,52.397587]}},{"type":"Feature","properties":{"SeqNo":"716301","Type":"Q","DHID":"de:03157:516:1:B","Parent":"de:03157:516:1","Name":"Ankunft","MunicipalityCode":"00000000","Municipality":"-","DistrictCode":"-","District":"-","Description":"","Authority":"HannIT","DelfiName":"-","THID":"-","LastOperationDate":"","SEV":"nein","longitude":"10,344011","latitude":"52,397609","geojson_lng":10.344011,"geojson_lat":52.397609},"geometry":{"type":"Point","coordinates":[10.344011,52.397609]}},{"type":"Feature","properties":{"SeqNo":"716613","Type":"S","DHID":"de:03157:8013","Parent":"de:03157:8013","Name":"Klein Rietze, Abzweig","MunicipalityCode":"03157001","Municipality":"Edemissen","DistrictCode":"","District":"","Description":"","Authority":"HannIT","DelfiName":"-","THID":"D90C55001F4D","LastOperationDate":"2025-02-28T00:00:00","SEV":"nein","longitude":"10,341549","latitude":"52,401007","geojson_lng":10.341549,"geojson_lat":52.401007},"geometry":{"type":"Point","coordinates":[10.341549,52.401007]}},{"type":"Feature","properties":{"SeqNo":"716614","Type":"Q","DHID":"de:03157:8013:0:A","Parent":"de:03157:8013","Name":"A","MunicipalityCode":"00000000","Municipality":"-","DistrictCode":"-","District":"-","Description":"","Authority":"HannIT","DelfiName":"-","THID":"-","LastOperationDate":"","SEV":"nein","longitude":"10,341549","latitude":"52,401035","geojson_lng":10.341549,"geojson_lat":52.401035},"geometry":{"type":"Point","coordinates":[10.341549,52.401035]}},{"type":"Feature","properties":{"SeqNo":"716615","Type":"Q","DHID":"de:03157:8013:0:B","Parent":"de:03157:8013","Name":"B","MunicipalityCode":"00000000","Municipality":"-","DistrictCode":"-","District":"-","Description":"","Authority":"HannIT","DelfiName":"-","THID":"-","LastOperationDate":"","SEV":"nein","longitude":"10,341522","latitude":"52,400996","geojson_lng":10.341522,"geojson_lat":52.400996},"geometry":{"type":"Point","coordinates":[10.341522,52.400996]}}]}