{"type":"FeatureCollection","features":[{"type":"Feature","properties":{"SeqNo":"726092","Type":"S","DHID":"de:03241:6804","Parent":"de:03241:6804","Name":"Krähenwinkel H.-Hagemann-Allee","MunicipalityCode":"03241010","Municipality":"Langenhagen","DistrictCode":"","District":"","Description":"","Authority":"HannIT","DelfiName":"-","THID":"D90CA9001A94","LastOperationDate":"2025-06-14T00:00:00","SEV":"nein","longitude":"9,734073","latitude":"52,469312","geojson_lng":9.734073,"geojson_lat":52.469312},"geometry":{"type":"Point","coordinates":[9.734073,52.469312]}},{"type":"Feature","properties":{"SeqNo":"726093","Type":"Q","DHID":"de:03241:6804:0:6804","Parent":"de:03241:6804","Name":"Kaltenweide/Bf","MunicipalityCode":"00000000","Municipality":"-","DistrictCode":"-","District":"-","Description":"","Authority":"HannIT","DelfiName":"-","THID":"-","LastOperationDate":"","SEV":"nein","longitude":"9,734037","latitude":"52,469383","geojson_lng":9.734037,"geojson_lat":52.469383},"geometry":{"type":"Point","coordinates":[9.734037,52.469383]}},{"type":"Feature","properties":{"SeqNo":"726095","Type":"S","DHID":"de:03241:6808","Parent":"de:03241:6808","Name":"Kaltenweide Wennebosteler Hof","MunicipalityCode":"03241010","Municipality":"Langenhagen","DistrictCode":"","District":"","Description":"","Authority":"HannIT","DelfiName":"-","THID":"D90CA9001A98","LastOperationDate":"2025-06-14T00:00:00","SEV":"nein","longitude":"9,742166","latitude":"52,474762","geojson_lng":9.742166,"geojson_lat":52.474762},"geometry":{"type":"Point","coordinates":[9.742166,52.474762]}},{"type":"Feature","properties":{"SeqNo":"726096","Type":"Q","DHID":"de:03241:6808:0:6808","Parent":"de:03241:6808","Name":"Kaltenweide/Bf","MunicipalityCode":"00000000","Municipality":"-","DistrictCode":"-","District":"-","Description":"","Authority":"HannIT","DelfiName":"-","THID":"-","LastOperationDate":"","SEV":"nein","longitude":"9,742211","latitude":"52,474806","geojson_lng":9.742211,"geojson_lat":52.474806},"geometry":{"type":"Point","coordinates":[9.742211,52.474806]}},{"type":"Feature","properties":{"SeqNo":"726097","Type":"Q","DHID":"de:03241:6808:0:6809","Parent":"de:03241:6808","Name":"Krähenwinkel","MunicipalityCode":"00000000","Municipality":"-","DistrictCode":"-","District":"-","Description":"","Authority":"HannIT","DelfiName":"-","THID":"-","LastOperationDate":"","SEV":"nein","longitude":"9,742166","latitude":"52,4748","geojson_lng":9.742166,"geojson_lat":52.4748},"geometry":{"type":"Point","coordinates":[9.742166,52.4748]}},{"type":"Feature","properties":{"SeqNo":"726101","Type":"S","DHID":"de:03241:6810","Parent":"de:03241:6810","Name":"Kaltenweide Kananoher Straße","MunicipalityCode":"03241010","Municipality":"Langenhagen","DistrictCode":"","District":"","Description":"","Authority":"HannIT","DelfiName":"-","THID":"D90CA9001A9A","LastOperationDate":"2025-06-14T00:00:00","SEV":"nein","longitude":"9,734297","latitude":"52,475731","geojson_lng":9.734297,"geojson_lat":52.475731},"geometry":{"type":"Point","coordinates":[9.734297,52.475731]}},{"type":"Feature","properties":{"SeqNo":"726102","Type":"A","DHID":"de:03241:6810:1","Parent":"de:03241:6810","Name":"Krähenw./Schmiede","MunicipalityCode":"00000000","Municipality":"-","DistrictCode":"-","District":"-","Description":"","Authority":"HannIT","DelfiName":"-","THID":"-","LastOperationDate":"","SEV":"nein","longitude":"9,734279","latitude":"52,475468","geojson_lng":9.734279,"geojson_lat":52.475468},"geometry":{"type":"Point","coordinates":[9.734279,52.475468]}},{"type":"Feature","properties":{"SeqNo":"726103","Type":"A","DHID":"de:03241:6810:2","Parent":"de:03241:6810","Name":"Scherenbostel","MunicipalityCode":"00000000","Municipality":"-","DistrictCode":"-","District":"-","Description":"","Authority":"HannIT","DelfiName":"-","THID":"-","LastOperationDate":"","SEV":"nein","longitude":"9,734405","latitude":"52,475457","geojson_lng":9.734405,"geojson_lat":52.475457},"geometry":{"type":"Point","coordinates":[9.734405,52.475457]}},{"type":"Feature","properties":{"SeqNo":"726104","Type":"A","DHID":"de:03241:6810:3","Parent":"de:03241:6810","Name":"Kaltenweide/Bf","MunicipalityCode":"00000000","Municipality":"-","DistrictCode":"-","District":"-","Description":"","Authority":"HannIT","DelfiName":"-","THID":"-","LastOperationDate":"","SEV":"nein","longitude":"9,734288","latitude":"52,476015","geojson_lng":9.734288,"geojson_lat":52.476015},"geometry":{"type":"Point","coordinates":[9.734288,52.476015]}},{"type":"Feature","properties":{"SeqNo":"726106","Type":"Q","DHID":"de:03241:6810:1:6811","Parent":"de:03241:6810:1","Name":"Krähenwinkel/Schmiede (610,692)","MunicipalityCode":"00000000","Municipality":"-","DistrictCode":"-","District":"-","Description":"","Authority":"HannIT","DelfiName":"-","THID":"-","LastOperationDate":"","SEV":"nein","longitude":"9,734279","latitude":"52,475484","geojson_lng":9.734279,"geojson_lat":52.475484},"geometry":{"type":"Point","coordinates":[9.734279,52.475484]}},{"type":"Feature","properties":{"SeqNo":"726107","Type":"Q","DHID":"de:03241:6810:2:6810","Parent":"de:03241:6810:2","Name":"Scherenbostel (692)","MunicipalityCode":"00000000","Municipality":"-","DistrictCode":"-","District":"-","Description":"","Authority":"HannIT","DelfiName":"-","THID":"-","LastOperationDate":"","SEV":"nein","longitude":"9,734396","latitude":"52,475484","geojson_lng":9.734396,"geojson_lat":52.475484},"geometry":{"type":"Point","coordinates":[9.734396,52.475484]}},{"type":"Feature","properties":{"SeqNo":"726108","Type":"Q","DHID":"de:03241:6810:3:6817","Parent":"de:03241:6810:3","Name":"Kaltenweide/Bf (610)","MunicipalityCode":"00000000","Municipality":"-","DistrictCode":"-","District":"-","Description":"","Authority":"HannIT","DelfiName":"-","THID":"-","LastOperationDate":"","SEV":"nein","longitude":"9,734288","latitude":"52,476026","geojson_lng":9.734288,"geojson_lat":52.476026},"geometry":{"type":"Point","coordinates":[9.734288,52.476026]}}]}