{"type":"FeatureCollection","features":[{"type":"Feature","properties":{"SeqNo":"17319","Type":"S","DHID":"de:08119:3256","Parent":"de:08119:3256","Name":"Alfdorf Gewerbegebiet","MunicipalityCode":"08119001","Municipality":"Alfdorf","DistrictCode":"","District":"","Description":"","Authority":"NVBW","DelfiName":"-","THID":"D91FB7000CB8","LastOperationDate":"2025-02-28T00:00:00","SEV":"nein","longitude":"9,735896","latitude":"48,84568","geojson_lng":9.735896,"geojson_lat":48.84568},"geometry":{"type":"Point","coordinates":[9.735896,48.84568]}},{"type":"Feature","properties":{"SeqNo":"17320","Type":"Q","DHID":"de:08119:3256:0:1","Parent":"de:08119:3256","Name":"Rtg Adelstetten","MunicipalityCode":"00000000","Municipality":"-","DistrictCode":"-","District":"-","Description":"","Authority":"NVBW","DelfiName":"-","THID":"-","LastOperationDate":"","SEV":"nein","longitude":"9,735896","latitude":"48,845526","geojson_lng":9.735896,"geojson_lat":48.845526},"geometry":{"type":"Point","coordinates":[9.735896,48.845526]}},{"type":"Feature","properties":{"SeqNo":"17321","Type":"Q","DHID":"de:08119:3256:0:2","Parent":"de:08119:3256","Name":"Rtg Schule/Obere Schlossstr.","MunicipalityCode":"00000000","Municipality":"-","DistrictCode":"-","District":"-","Description":"","Authority":"NVBW","DelfiName":"-","THID":"-","LastOperationDate":"","SEV":"nein","longitude":"9,735896","latitude":"48,845822","geojson_lng":9.735896,"geojson_lat":48.845822},"geometry":{"type":"Point","coordinates":[9.735896,48.845822]}},{"type":"Feature","properties":{"SeqNo":"17322","Type":"S","DHID":"de:08119:3257","Parent":"de:08119:3257","Name":"Alfdorf Bonholz","MunicipalityCode":"08119001","Municipality":"Alfdorf","DistrictCode":"","District":"","Description":"","Authority":"NVBW","DelfiName":"-","THID":"D91FB7000CB9","LastOperationDate":"2025-02-28T00:00:00","SEV":"nein","longitude":"9,742337","latitude":"48,844622","geojson_lng":9.742337,"geojson_lat":48.844622},"geometry":{"type":"Point","coordinates":[9.742337,48.844622]}},{"type":"Feature","properties":{"SeqNo":"17323","Type":"Q","DHID":"de:08119:3257:0:1","Parent":"de:08119:3257","Name":"Rtg Adelstetten","MunicipalityCode":"00000000","Municipality":"-","DistrictCode":"-","District":"-","Description":"","Authority":"NVBW","DelfiName":"-","THID":"-","LastOperationDate":"","SEV":"nein","longitude":"9,742283","latitude":"48,844604","geojson_lng":9.742283,"geojson_lat":48.844604},"geometry":{"type":"Point","coordinates":[9.742283,48.844604]}},{"type":"Feature","properties":{"SeqNo":"17324","Type":"Q","DHID":"de:08119:3257:0:2","Parent":"de:08119:3257","Name":"Rtg Gewerbegebiet","MunicipalityCode":"00000000","Municipality":"-","DistrictCode":"-","District":"-","Description":"","Authority":"NVBW","DelfiName":"-","THID":"-","LastOperationDate":"","SEV":"nein","longitude":"9,742355","latitude":"48,844628","geojson_lng":9.742355,"geojson_lat":48.844628},"geometry":{"type":"Point","coordinates":[9.742355,48.844628]}}]}