{"type":"FeatureCollection","features":[{"type":"Feature","properties":{"SeqNo":"770086","Type":"S","DHID":"de:07337:15104","Parent":"de:07337:15104","Name":"Bornheim, Am Steinsteg","MunicipalityCode":"07337014","Municipality":"Bornheim","DistrictCode":"","District":"","Description":"","Authority":"VRN","DelfiName":"-","THID":"D91CA9003B00","LastOperationDate":"2025-06-14T00:00:00","SEV":"nein","longitude":"8,170213","latitude":"49,219633","geojson_lng":8.170213,"geojson_lat":49.219633},"geometry":{"type":"Point","coordinates":[8.170213,49.219633]}},{"type":"Feature","properties":{"SeqNo":"770087","Type":"Q","DHID":"de:07337:15104:0:RiN","Parent":"de:07337:15104","Name":"RiN Kindergarten","MunicipalityCode":"00000000","Municipality":"-","DistrictCode":"-","District":"-","Description":"","Authority":"VRN","DelfiName":"-","THID":"-","LastOperationDate":"","SEV":"nein","longitude":"8,170294","latitude":"49,219633","geojson_lng":8.170294,"geojson_lat":49.219633},"geometry":{"type":"Point","coordinates":[8.170294,49.219633]}},{"type":"Feature","properties":{"SeqNo":"770088","Type":"Q","DHID":"de:07337:15104:0:RiS","Parent":"de:07337:15104","Name":"RiS EKZ","MunicipalityCode":"00000000","Municipality":"-","DistrictCode":"-","District":"-","Description":"","Authority":"VRN","DelfiName":"-","THID":"-","LastOperationDate":"","SEV":"nein","longitude":"8,170106","latitude":"49,219733","geojson_lng":8.170106,"geojson_lat":49.219733},"geometry":{"type":"Point","coordinates":[8.170106,49.219733]}},{"type":"Feature","properties":{"SeqNo":"770589","Type":"S","DHID":"de:07337:4620","Parent":"de:07337:4620","Name":"Bornheim/Ld, Linde","MunicipalityCode":"07337014","Municipality":"Bornheim","DistrictCode":"","District":"","Description":"","Authority":"VRN","DelfiName":"-","THID":"D91CA900120C","LastOperationDate":"2025-06-14T00:00:00","SEV":"nein","longitude":"8,163638","latitude":"49,22242","geojson_lng":8.163638,"geojson_lat":49.22242},"geometry":{"type":"Point","coordinates":[8.163638,49.22242]}},{"type":"Feature","properties":{"SeqNo":"770590","Type":"Q","DHID":"de:07337:4620:0:RiO","Parent":"de:07337:4620","Name":"RiO Kindergarten","MunicipalityCode":"00000000","Municipality":"-","DistrictCode":"-","District":"-","Description":"","Authority":"VRN","DelfiName":"-","THID":"-","LastOperationDate":"","SEV":"nein","longitude":"8,163665","latitude":"49,222361","geojson_lng":8.163665,"geojson_lat":49.222361},"geometry":{"type":"Point","coordinates":[8.163665,49.222361]}},{"type":"Feature","properties":{"SeqNo":"770591","Type":"Q","DHID":"de:07337:4620:0:RiW","Parent":"de:07337:4620","Name":"RiW Essingen/Dammheim","MunicipalityCode":"00000000","Municipality":"-","DistrictCode":"-","District":"-","Description":"","Authority":"VRN","DelfiName":"-","THID":"-","LastOperationDate":"","SEV":"nein","longitude":"8,163557","latitude":"49,222502","geojson_lng":8.163557,"geojson_lat":49.222502},"geometry":{"type":"Point","coordinates":[8.163557,49.222502]}},{"type":"Feature","properties":{"SeqNo":"770676","Type":"S","DHID":"de:07337:5046","Parent":"de:07337:5046","Name":"Bornheim/Ld, Kindergarten","MunicipalityCode":"07337014","Municipality":"Bornheim","DistrictCode":"","District":"","Description":"","Authority":"VRN","DelfiName":"-","THID":"D91CA90013B6","LastOperationDate":"2025-06-14T00:00:00","SEV":"nein","longitude":"8,16821","latitude":"49,221628","geojson_lng":8.16821,"geojson_lat":49.221628},"geometry":{"type":"Point","coordinates":[8.16821,49.221628]}},{"type":"Feature","properties":{"SeqNo":"770677","Type":"Q","DHID":"de:07337:5046:0:RiO","Parent":"de:07337:5046","Name":"RiO Am Steinsteg","MunicipalityCode":"00000000","Municipality":"-","DistrictCode":"-","District":"-","Description":"","Authority":"VRN","DelfiName":"-","THID":"-","LastOperationDate":"","SEV":"nein","longitude":"8,168219","latitude":"49,221563","geojson_lng":8.168219,"geojson_lat":49.221563},"geometry":{"type":"Point","coordinates":[8.168219,49.221563]}},{"type":"Feature","properties":{"SeqNo":"770678","Type":"Q","DHID":"de:07337:5046:0:RiW","Parent":"de:07337:5046","Name":"RiW Linde","MunicipalityCode":"00000000","Municipality":"-","DistrictCode":"-","District":"-","Description":"","Authority":"VRN","DelfiName":"-","THID":"-","LastOperationDate":"","SEV":"nein","longitude":"8,168084","latitude":"49,221663","geojson_lng":8.168084,"geojson_lat":49.221663},"geometry":{"type":"Point","coordinates":[8.168084,49.221663]}},{"type":"Feature","properties":{"SeqNo":"770722","Type":"S","DHID":"de:07337:5594","Parent":"de:07337:5594","Name":"Bornheim, Rathaus","MunicipalityCode":"07337014","Municipality":"Bornheim","DistrictCode":"07337","District":"","Description":"","Authority":"VRN","DelfiName":"-","THID":"D91CA90015DA","LastOperationDate":"1999-12-31T00:00:00","SEV":"nein","longitude":"8,165282","latitude":"49,22249","geojson_lng":8.165282,"geojson_lat":49.22249},"geometry":{"type":"Point","coordinates":[8.165282,49.22249]}}]}