{"type":"FeatureCollection","features":[{"type":"Feature","properties":{"SeqNo":"15187","Type":"S","DHID":"de:08118:5548","Parent":"de:08118:5548","Name":"Hochdorf Wendeplatte","MunicipalityCode":"08118081","Municipality":"Remseck am Neckar","DistrictCode":"-","District":"-","Description":"","Authority":"NVBW","DelfiName":"-","THID":"D91FB60015AC","LastOperationDate":"2025-02-28T00:00:00","SEV":"nein","longitude":"9,29989","latitude":"48,900641","geojson_lng":9.29989,"geojson_lat":48.900641},"geometry":{"type":"Point","coordinates":[9.29989,48.900641]}},{"type":"Feature","properties":{"SeqNo":"15188","Type":"Q","DHID":"de:08118:5548:0:3","Parent":"de:08118:5548","Name":"3","MunicipalityCode":"00000000","Municipality":"-","DistrictCode":"-","District":"-","Description":"eRtg Sonne","Authority":"NVBW","DelfiName":"-","THID":"-","LastOperationDate":"","SEV":"nein","longitude":"9,29989","latitude":"48,900641","geojson_lng":9.29989,"geojson_lat":48.900641},"geometry":{"type":"Point","coordinates":[9.29989,48.900641]}},{"type":"Feature","properties":{"SeqNo":"15337","Type":"S","DHID":"de:08118:5592","Parent":"de:08118:5592","Name":"Hochdorf Sonne","MunicipalityCode":"08118081","Municipality":"Remseck am Neckar","DistrictCode":"","District":"","Description":"","Authority":"NVBW","DelfiName":"-","THID":"D91FB60015D8","LastOperationDate":"2025-02-28T00:00:00","SEV":"nein","longitude":"9,296279","latitude":"48,898887","geojson_lng":9.296279,"geojson_lat":48.898887},"geometry":{"type":"Point","coordinates":[9.296279,48.898887]}},{"type":"Feature","properties":{"SeqNo":"15338","Type":"A","DHID":"de:08118:5592:1","Parent":"de:08118:5592","Name":"Bus","MunicipalityCode":"00000000","Municipality":"-","DistrictCode":"-","District":"-","Description":"","Authority":"NVBW","DelfiName":"-","THID":"-","LastOperationDate":"","SEV":"nein","longitude":"9,296306","latitude":"48,898887","geojson_lng":9.296306,"geojson_lat":48.898887},"geometry":{"type":"Point","coordinates":[9.296306,48.898887]}},{"type":"Feature","properties":{"SeqNo":"15339","Type":"Q","DHID":"de:08118:5592:1:3","Parent":"de:08118:5592:1","Name":"eRtg Wilhelmsplatz","MunicipalityCode":"00000000","Municipality":"-","DistrictCode":"-","District":"-","Description":"eRtg Wilhelmsplatz","Authority":"NVBW","DelfiName":"-","THID":"-","LastOperationDate":"","SEV":"nein","longitude":"9,296288","latitude":"48,898875","geojson_lng":9.296288,"geojson_lat":48.898875},"geometry":{"type":"Point","coordinates":[9.296288,48.898875]}},{"type":"Feature","properties":{"SeqNo":"15340","Type":"Q","DHID":"de:08118:5592:1:4","Parent":"de:08118:5592:1","Name":"Ankunft","MunicipalityCode":"00000000","Municipality":"-","DistrictCode":"-","District":"-","Description":"Ankunft","Authority":"NVBW","DelfiName":"-","THID":"-","LastOperationDate":"","SEV":"nein","longitude":"9,296306","latitude":"48,898887","geojson_lng":9.296306,"geojson_lat":48.898887},"geometry":{"type":"Point","coordinates":[9.296306,48.898887]}},{"type":"Feature","properties":{"SeqNo":"16258","Type":"S","DHID":"de:08118:6821","Parent":"de:08118:6821","Name":"Hochdorf (LB) Wilhelmsplatz","MunicipalityCode":"08118081","Municipality":"Remseck am Neckar","DistrictCode":"-","District":"-","Description":"","Authority":"NVBW","DelfiName":"-","THID":"D91FB6001AA5","LastOperationDate":"2025-02-28T00:00:00","SEV":"nein","longitude":"9,294275","latitude":"48,897901","geojson_lng":9.294275,"geojson_lat":48.897901},"geometry":{"type":"Point","coordinates":[9.294275,48.897901]}},{"type":"Feature","properties":{"SeqNo":"16259","Type":"Q","DHID":"de:08118:6821:0:3","Parent":"de:08118:6821","Name":"3","MunicipalityCode":"00000000","Municipality":"-","DistrictCode":"-","District":"-","Description":"eRtg Poppenweiler Straße","Authority":"NVBW","DelfiName":"-","THID":"-","LastOperationDate":"","SEV":"nein","longitude":"9,294275","latitude":"48,897901","geojson_lng":9.294275,"geojson_lat":48.897901},"geometry":{"type":"Point","coordinates":[9.294275,48.897901]}},{"type":"Feature","properties":{"SeqNo":"16260","Type":"Q","DHID":"de:08118:6821:0:4","Parent":"de:08118:6821","Name":"4","MunicipalityCode":"00000000","Municipality":"-","DistrictCode":"-","District":"-","Description":"eRtg Hochberger Straße","Authority":"NVBW","DelfiName":"-","THID":"-","LastOperationDate":"","SEV":"nein","longitude":"9,294275","latitude":"48,897901","geojson_lng":9.294275,"geojson_lat":48.897901},"geometry":{"type":"Point","coordinates":[9.294275,48.897901]}},{"type":"Feature","properties":{"SeqNo":"16958","Type":"S","DHID":"de:08118:7828","Parent":"de:08118:7828","Name":"Hochdorf Bittenfelder Str.","MunicipalityCode":"08118081","Municipality":"Remseck am Neckar","DistrictCode":"","District":"","Description":"","Authority":"NVBW","DelfiName":"-","THID":"D91FB6001E94","LastOperationDate":"2024-09-07T00:00:00","SEV":"nein","longitude":"9,294671","latitude":"48,896873","geojson_lng":9.294671,"geojson_lat":48.896873},"geometry":{"type":"Point","coordinates":[9.294671,48.896873]}},{"type":"Feature","properties":{"SeqNo":"16959","Type":"Q","DHID":"de:08118:7828:0:1","Parent":"de:08118:7828","Name":"Rtg Hochberg Rotweg","MunicipalityCode":"00000000","Municipality":"-","DistrictCode":"-","District":"-","Description":"","Authority":"NVBW","DelfiName":"-","THID":"-","LastOperationDate":"","SEV":"nein","longitude":"9,29468","latitude":"48,896914","geojson_lng":9.29468,"geojson_lat":48.896914},"geometry":{"type":"Point","coordinates":[9.29468,48.896914]}},{"type":"Feature","properties":{"SeqNo":"16960","Type":"Q","DHID":"de:08118:7828:0:2","Parent":"de:08118:7828","Name":"Rtg","MunicipalityCode":"00000000","Municipality":"-","DistrictCode":"-","District":"-","Description":"","Authority":"NVBW","DelfiName":"-","THID":"-","LastOperationDate":"","SEV":"nein","longitude":"9,294653","latitude":"48,896885","geojson_lng":9.294653,"geojson_lat":48.896885},"geometry":{"type":"Point","coordinates":[9.294653,48.896885]}}]}