{"type":"FeatureCollection","features":[{"type":"Feature","properties":{"highway":"bus_stop","public_transport":"platform","name":"Melkweg","ref:IFOPT":"NL:Q:10663660","_quaycode":"NL:Q:10663660","_town":"Spijk","_status":"available","_mode":"bus","_direction":291,"_visuallyAccessible":false,"_disabledAccessible":false,"geojson_lng":6.838941523787779,"geojson_lat":53.391638446376746},"geometry":{"type":"Point","coordinates":[6.838941523787779,53.391638446376746]}},{"type":"Feature","properties":{"highway":"bus_stop","public_transport":"platform","name":"Nesweg","ref:IFOPT":"NL:Q:10663620","_quaycode":"NL:Q:10663620","_town":"Spijk","_status":"available","_mode":"bus","_direction":68,"_visuallyAccessible":false,"_disabledAccessible":false,"geojson_lng":6.8386076264452464,"geojson_lat":53.388795322197055},"geometry":{"type":"Point","coordinates":[6.8386076264452464,53.388795322197055]}},{"type":"Feature","properties":{"highway":"bus_stop","public_transport":"platform","name":"Hoofdweg Zuid","ref:IFOPT":"NL:Q:10663740","_quaycode":"NL:Q:10663740","_town":"Spijk","_status":"available","_mode":"bus","_direction":176,"_visuallyAccessible":false,"_disabledAccessible":false,"geojson_lng":6.835990620011899,"geojson_lat":53.3872142657428},"geometry":{"type":"Point","coordinates":[6.835990620011899,53.3872142657428]}},{"type":"Feature","properties":{"highway":"bus_stop","public_transport":"platform","name":"Hoofdweg Zuid","ref:IFOPT":"NL:Q:10663710","_quaycode":"NL:Q:10663710","_town":"Spijk","_status":"available","_mode":"bus","_direction":349,"_visuallyAccessible":false,"_disabledAccessible":false,"geojson_lng":6.836083730694225,"geojson_lat":53.387451648739365},"geometry":{"type":"Point","coordinates":[6.836083730694225,53.387451648739365]}},{"type":"Feature","properties":{"highway":"bus_stop","public_transport":"platform","name":"Ubbenasingel","ref:IFOPT":"NL:Q:10663410","_quaycode":"NL:Q:10663410","_town":"Spijk","_status":"available","_mode":"bus","_direction":340,"_visuallyAccessible":false,"_disabledAccessible":false,"geojson_lng":6.842196810638622,"geojson_lat":53.38965808659184},"geometry":{"type":"Point","coordinates":[6.842196810638622,53.38965808659184]}},{"type":"Feature","properties":{"highway":"bus_stop","public_transport":"platform","name":"Melkweg","ref:IFOPT":"NL:Q:10663650","_quaycode":"NL:Q:10663650","_town":"Spijk","_status":"available","_mode":"bus","_direction":108,"_visuallyAccessible":false,"_disabledAccessible":true,"geojson_lng":6.838315244425457,"geojson_lat":53.39178978110098},"geometry":{"type":"Point","coordinates":[6.838315244425457,53.39178978110098]}},{"type":"Feature","properties":{"highway":"bus_stop","public_transport":"platform","name":"Ubbenasingel","ref:IFOPT":"NL:Q:10663420","_quaycode":"NL:Q:10663420","_town":"Spijk","_status":"available","_mode":"bus","_direction":162,"_visuallyAccessible":false,"_disabledAccessible":false,"geojson_lng":6.842185261309582,"geojson_lat":53.38931674623001},"geometry":{"type":"Point","coordinates":[6.842185261309582,53.38931674623001]}},{"type":"Feature","properties":{"highway":"bus_stop","public_transport":"platform","name":"Nesweg","ref:IFOPT":"NL:Q:10663640","_quaycode":"NL:Q:10663640","_town":"Spijk","_status":"available","_mode":"bus","_direction":248,"_visuallyAccessible":false,"_disabledAccessible":false,"geojson_lng":6.838802589513019,"geojson_lat":53.3889232916691},"geometry":{"type":"Point","coordinates":[6.838802589513019,53.3889232916691]}}]}