{"type":"FeatureCollection","features":[{"type":"Feature","properties":{"SeqNo":"231059","Type":"S","DHID":"de:09672:25469","Parent":"de:09672:25469","Name":"Hammelburg Betriebshof KOB","MunicipalityCode":"09672127","Municipality":"Hammelburg","DistrictCode":"","District":"","Description":"","Authority":"BEG","DelfiName":"-","THID":"D925C800637D","LastOperationDate":"2025-02-28T00:00:00","SEV":"nein","longitude":"9,880588","latitude":"50,118734","geojson_lng":9.880588,"geojson_lat":50.118734},"geometry":{"type":"Point","coordinates":[9.880588,50.118734]}},{"type":"Feature","properties":{"SeqNo":"231060","Type":"Q","DHID":"de:09672:25469:0:1","Parent":"de:09672:25469","Name":"Hammelburg Betriebshof KOB, Mast 2","MunicipalityCode":"00000000","Municipality":"-","DistrictCode":"-","District":"-","Description":"","Authority":"BEG","DelfiName":"-","THID":"-","LastOperationDate":"","SEV":"nein","longitude":"9,880588","latitude":"50,118734","geojson_lng":9.880588,"geojson_lat":50.118734},"geometry":{"type":"Point","coordinates":[9.880588,50.118734]}},{"type":"Feature","properties":{"SeqNo":"231772","Type":"S","DHID":"de:09672:28315","Parent":"de:09672:28315","Name":"Hammelburg Museum/Saaletalstr.","MunicipalityCode":"09672127","Municipality":"Hammelburg","DistrictCode":"","District":"","Description":"","Authority":"BEG","DelfiName":"-","THID":"D925C8006E9B","LastOperationDate":"2025-02-28T00:00:00","SEV":"nein","longitude":"9,885627","latitude":"50,118153","geojson_lng":9.885627,"geojson_lat":50.118153},"geometry":{"type":"Point","coordinates":[9.885627,50.118153]}},{"type":"Feature","properties":{"SeqNo":"231773","Type":"Q","DHID":"de:09672:28315:0:1","Parent":"de:09672:28315","Name":"Hammelburg Museum/Saaletalstr., Mast 1","MunicipalityCode":"00000000","Municipality":"-","DistrictCode":"-","District":"-","Description":"","Authority":"BEG","DelfiName":"-","THID":"-","LastOperationDate":"","SEV":"nein","longitude":"9,885627","latitude":"50,118153","geojson_lng":9.885627,"geojson_lat":50.118153},"geometry":{"type":"Point","coordinates":[9.885627,50.118153]}},{"type":"Feature","properties":{"SeqNo":"231774","Type":"Q","DHID":"de:09672:28315:0:2","Parent":"de:09672:28315","Name":"Hammelburg Museum/Saaletalstr., Mast 2","MunicipalityCode":"00000000","Municipality":"-","DistrictCode":"-","District":"-","Description":"","Authority":"BEG","DelfiName":"-","THID":"-","LastOperationDate":"","SEV":"nein","longitude":"9,885627","latitude":"50,118153","geojson_lng":9.885627,"geojson_lat":50.118153},"geometry":{"type":"Point","coordinates":[9.885627,50.118153]}},{"type":"Feature","properties":{"SeqNo":"232005","Type":"S","DHID":"de:09672:29975","Parent":"de:09672:29975","Name":"Hammelburg","MunicipalityCode":"09672127","Municipality":"Hammelburg","DistrictCode":"","District":"","Description":"","Authority":"BEG","DelfiName":"-","THID":"D925C8007517","LastOperationDate":"2025-02-28T00:00:00","SEV":"nein","longitude":"9,882968","latitude":"50,120042","geojson_lng":9.882968,"geojson_lat":50.120042},"geometry":{"type":"Point","coordinates":[9.882968,50.120042]}},{"type":"Feature","properties":{"SeqNo":"232006","Type":"A","DHID":"de:09672:29975:1","Parent":"de:09672:29975","Name":"Zug","MunicipalityCode":"00000000","Municipality":"-","DistrictCode":"-","District":"-","Description":"","Authority":"BEG","DelfiName":"-","THID":"-","LastOperationDate":"","SEV":"nein","longitude":"9,882959","latitude":"50,120042","geojson_lng":9.882959,"geojson_lat":50.120042},"geometry":{"type":"Point","coordinates":[9.882959,50.120042]}},{"type":"Feature","properties":{"SeqNo":"232007","Type":"A","DHID":"de:09672:29975:2","Parent":"de:09672:29975","Name":"Bus","MunicipalityCode":"00000000","Municipality":"-","DistrictCode":"-","District":"-","Description":"","Authority":"BEG","DelfiName":"-","THID":"-","LastOperationDate":"","SEV":"nein","longitude":"9,884927","latitude":"50,119909","geojson_lng":9.884927,"geojson_lat":50.119909},"geometry":{"type":"Point","coordinates":[9.884927,50.119909]}},{"type":"Feature","properties":{"SeqNo":"232008","Type":"A","DHID":"de:09672:29975:80","Parent":"de:09672:29975","Name":"B+R","MunicipalityCode":"00000000","Municipality":"-","DistrictCode":"-","District":"-","Description":"","Authority":"BEG","DelfiName":"-","THID":"-","LastOperationDate":"","SEV":"nein","longitude":"9,882843","latitude":"50,119863","geojson_lng":9.882843,"geojson_lat":50.119863},"geometry":{"type":"Point","coordinates":[9.882843,50.119863]}},{"type":"Feature","properties":{"SeqNo":"232009","Type":"A","DHID":"de:09672:29975:90","Parent":"de:09672:29975","Name":"Eingang Ost","MunicipalityCode":"00000000","Municipality":"-","DistrictCode":"-","District":"-","Description":"","Authority":"BEG","DelfiName":"-","THID":"-","LastOperationDate":"","SEV":"nein","longitude":"9,883382","latitude":"50,1198","geojson_lng":9.883382,"geojson_lat":50.1198},"geometry":{"type":"Point","coordinates":[9.883382,50.1198]}},{"type":"Feature","properties":{"SeqNo":"232010","Type":"A","DHID":"de:09672:29975:91","Parent":"de:09672:29975","Name":"Eingang West","MunicipalityCode":"00000000","Municipality":"-","DistrictCode":"-","District":"-","Description":"","Authority":"BEG","DelfiName":"-","THID":"-","LastOperationDate":"","SEV":"nein","longitude":"9,882825","latitude":"50,119909","geojson_lng":9.882825,"geojson_lat":50.119909},"geometry":{"type":"Point","coordinates":[9.882825,50.119909]}},{"type":"Feature","properties":{"SeqNo":"232011","Type":"Q","DHID":"de:09672:29975:1:1","Parent":"de:09672:29975:1","Name":"Gleis 1","MunicipalityCode":"00000000","Municipality":"-","DistrictCode":"-","District":"-","Description":"","Authority":"BEG","DelfiName":"-","THID":"-","LastOperationDate":"","SEV":"nein","longitude":"9,883157","latitude":"50,119927","geojson_lng":9.883157,"geojson_lat":50.119927},"geometry":{"type":"Point","coordinates":[9.883157,50.119927]}},{"type":"Feature","properties":{"SeqNo":"232012","Type":"Q","DHID":"de:09672:29975:1:2","Parent":"de:09672:29975:1","Name":"Gleis 2","MunicipalityCode":"00000000","Municipality":"-","DistrictCode":"-","District":"-","Description":"","Authority":"BEG","DelfiName":"-","THID":"-","LastOperationDate":"","SEV":"nein","longitude":"9,883175","latitude":"50,119973","geojson_lng":9.883175,"geojson_lat":50.119973},"geometry":{"type":"Point","coordinates":[9.883175,50.119973]}},{"type":"Feature","properties":{"SeqNo":"232013","Type":"Q","DHID":"de:09672:29975:2:1","Parent":"de:09672:29975:2","Name":"Bus 1","MunicipalityCode":"00000000","Municipality":"-","DistrictCode":"-","District":"-","Description":"","Authority":"BEG","DelfiName":"-","THID":"-","LastOperationDate":"","SEV":"nein","longitude":"9,884837","latitude":"50,119927","geojson_lng":9.884837,"geojson_lat":50.119927},"geometry":{"type":"Point","coordinates":[9.884837,50.119927]}},{"type":"Feature","properties":{"SeqNo":"232014","Type":"Q","DHID":"de:09672:29975:2:2","Parent":"de:09672:29975:2","Name":"Bus 2","MunicipalityCode":"00000000","Municipality":"-","DistrictCode":"-","District":"-","Description":"","Authority":"BEG","DelfiName":"-","THID":"-","LastOperationDate":"","SEV":"nein","longitude":"9,884999","latitude":"50,119904","geojson_lng":9.884999,"geojson_lat":50.119904},"geometry":{"type":"Point","coordinates":[9.884999,50.119904]}}]}