{"type":"FeatureCollection","features":[{"type":"Feature","properties":{"SeqNo":"36465","Type":"S","DHID":"de:08136:6400","Parent":"de:08136:6400","Name":"Göggingen Hauptstraße","MunicipalityCode":"08136024","Municipality":"Göggingen","DistrictCode":"","District":"","Description":"","Authority":"NVBW","DelfiName":"-","THID":"D91FC8001900","LastOperationDate":"2025-06-14T00:00:00","SEV":"nein","longitude":"9,886148","latitude":"48,862532","geojson_lng":9.886148,"geojson_lat":48.862532},"geometry":{"type":"Point","coordinates":[9.886148,48.862532]}},{"type":"Feature","properties":{"SeqNo":"36466","Type":"Q","DHID":"de:08136:6400:0:1","Parent":"de:08136:6400","Name":"Ri. Nordost (Eschach)","MunicipalityCode":"00000000","Municipality":"-","DistrictCode":"-","District":"-","Description":"","Authority":"NVBW","DelfiName":"-","THID":"-","LastOperationDate":"","SEV":"nein","longitude":"9,886283","latitude":"48,862484","geojson_lng":9.886283,"geojson_lat":48.862484},"geometry":{"type":"Point","coordinates":[9.886283,48.862484]}},{"type":"Feature","properties":{"SeqNo":"36467","Type":"Q","DHID":"de:08136:6400:0:2","Parent":"de:08136:6400","Name":"Ri. Südwest (Leinzell)","MunicipalityCode":"00000000","Municipality":"-","DistrictCode":"-","District":"-","Description":"","Authority":"NVBW","DelfiName":"-","THID":"-","LastOperationDate":"","SEV":"nein","longitude":"9,886292","latitude":"48,862626","geojson_lng":9.886292,"geojson_lat":48.862626},"geometry":{"type":"Point","coordinates":[9.886292,48.862626]}},{"type":"Feature","properties":{"SeqNo":"36471","Type":"S","DHID":"de:08136:6402","Parent":"de:08136:6402","Name":"Göggingen Rößle","MunicipalityCode":"08136024","Municipality":"Göggingen","DistrictCode":"-","District":"-","Description":"","Authority":"NVBW","DelfiName":"-","THID":"D91FC8001902","LastOperationDate":"2025-06-14T00:00:00","SEV":"nein","longitude":"9,883867","latitude":"48,861072","geojson_lng":9.883867,"geojson_lat":48.861072},"geometry":{"type":"Point","coordinates":[9.883867,48.861072]}},{"type":"Feature","properties":{"SeqNo":"36472","Type":"Q","DHID":"de:08136:6402:0:1","Parent":"de:08136:6402","Name":"Ri Nordost (Eschach)","MunicipalityCode":"00000000","Municipality":"-","DistrictCode":"-","District":"-","Description":"","Authority":"NVBW","DelfiName":"-","THID":"-","LastOperationDate":"","SEV":"nein","longitude":"9,883759","latitude":"48,86106","geojson_lng":9.883759,"geojson_lat":48.86106},"geometry":{"type":"Point","coordinates":[9.883759,48.86106]}},{"type":"Feature","properties":{"SeqNo":"36473","Type":"S","DHID":"de:08136:6403","Parent":"de:08136:6403","Name":"Göggingen Friedhofweg","MunicipalityCode":"08136024","Municipality":"Göggingen","DistrictCode":"","District":"","Description":"","Authority":"NVBW","DelfiName":"-","THID":"D91FC8001903","LastOperationDate":"2025-06-14T00:00:00","SEV":"nein","longitude":"9,882025","latitude":"48,85989","geojson_lng":9.882025,"geojson_lat":48.85989},"geometry":{"type":"Point","coordinates":[9.882025,48.85989]}},{"type":"Feature","properties":{"SeqNo":"36474","Type":"Q","DHID":"de:08136:6403:0:1","Parent":"de:08136:6403","Name":"Bus 1","MunicipalityCode":"00000000","Municipality":"-","DistrictCode":"-","District":"-","Description":"","Authority":"NVBW","DelfiName":"-","THID":"-","LastOperationDate":"","SEV":"nein","longitude":"9,882079","latitude":"48,859784","geojson_lng":9.882079,"geojson_lat":48.859784},"geometry":{"type":"Point","coordinates":[9.882079,48.859784]}},{"type":"Feature","properties":{"SeqNo":"36475","Type":"Q","DHID":"de:08136:6403:0:2","Parent":"de:08136:6403","Name":"Ri Südwest (Leinzell)","MunicipalityCode":"00000000","Municipality":"-","DistrictCode":"-","District":"-","Description":"","Authority":"NVBW","DelfiName":"-","THID":"-","LastOperationDate":"","SEV":"nein","longitude":"9,882178","latitude":"48,859937","geojson_lng":9.882178,"geojson_lat":48.859937},"geometry":{"type":"Point","coordinates":[9.882178,48.859937]}}]}