{"type":"FeatureCollection","features":[{"type":"Feature","properties":{"highway":"bus_stop","public_transport":"platform","name":"Korhoenstraat","ref:IFOPT":"NL:Q:31006355","_quaycode":"NL:Q:31006355","_town":"Maassluis","_status":"available","_mode":"bus","_direction":125,"_visuallyAccessible":false,"_disabledAccessible":false,"geojson_lng":4.228111995802491,"geojson_lat":51.9316869310669},"geometry":{"type":"Point","coordinates":[4.228111995802491,51.9316869310669]}},{"type":"Feature","properties":{"highway":"bus_stop","public_transport":"platform","name":"Industrieweg","ref:IFOPT":"NL:Q:42077302","_quaycode":"NL:Q:42077302","_town":"Maassluis","_status":"available","_mode":"bus","_direction":135,"_visuallyAccessible":false,"_disabledAccessible":false,"geojson_lng":4.242517876258988,"geojson_lat":51.92215591148833},"geometry":{"type":"Point","coordinates":[4.242517876258988,51.92215591148833]}},{"type":"Feature","properties":{"highway":"bus_stop","public_transport":"platform","name":"Mesdaglaan","ref:IFOPT":"NL:Q:31006345","_quaycode":"NL:Q:31006345","_town":"Maassluis","_status":"available","_mode":"bus","_direction":63,"_visuallyAccessible":false,"_disabledAccessible":false,"geojson_lng":4.260940662514465,"geojson_lat":51.91970910016795},"geometry":{"type":"Point","coordinates":[4.260940662514465,51.91970910016795]}},{"type":"Feature","properties":{"highway":"bus_stop","public_transport":"platform","name":"Maassluis Centrum","ref:IFOPT":"NL:Q:31007206","_quaycode":"NL:Q:31007206","_town":"Maassluis","_status":"available","_mode":"bus","_direction":65,"_visuallyAccessible":false,"_disabledAccessible":false,"geojson_lng":4.253032929304126,"geojson_lat":51.917385803987486},"geometry":{"type":"Point","coordinates":[4.253032929304126,51.917385803987486]}},{"type":"Feature","properties":{"highway":"bus_stop","public_transport":"platform","name":"Stellingmolen","ref:IFOPT":"NL:Q:42038602","_quaycode":"NL:Q:42038602","_town":"Maassluis","_status":"available","_mode":"bus","_direction":40,"_visuallyAccessible":false,"_disabledAccessible":false,"geojson_lng":4.228573331215734,"geojson_lat":51.9431165268319},"geometry":{"type":"Point","coordinates":[4.228573331215734,51.9431165268319]}},{"type":"Feature","properties":{"highway":"bus_stop","public_transport":"platform","name":"Westeinde","ref:IFOPT":"NL:Q:42076801","_quaycode":"NL:Q:42076801","_town":"Maassluis","_status":"available","_mode":"bus","_direction":50,"_visuallyAccessible":false,"_disabledAccessible":true,"geojson_lng":4.228284665134214,"geojson_lat":51.93683035686715},"geometry":{"type":"Point","coordinates":[4.228284665134214,51.93683035686715]}},{"type":"Feature","properties":{"highway":"bus_stop","public_transport":"platform","name":"Industrieweg","ref:IFOPT":"NL:Q:42077301","_quaycode":"NL:Q:42077301","_town":"Maassluis","_status":"available","_mode":"bus","_direction":316,"_visuallyAccessible":false,"_disabledAccessible":false,"geojson_lng":4.242247555838849,"geojson_lat":51.92249486135039},"geometry":{"type":"Point","coordinates":[4.242247555838849,51.92249486135039]}},{"type":"Feature","properties":{"highway":"bus_stop","public_transport":"platform","name":"Nachtegaallaan","ref:IFOPT":"NL:Q:31006354","_quaycode":"NL:Q:31006354","_town":"Maassluis","_status":"available","_mode":"bus","_direction":122,"_visuallyAccessible":false,"_disabledAccessible":false,"geojson_lng":4.231658769006226,"geojson_lat":51.929474592801974},"geometry":{"type":"Point","coordinates":[4.231658769006226,51.929474592801974]}},{"type":"Feature","properties":{"highway":"bus_stop","public_transport":"platform","name":"Stadsmolen","ref:IFOPT":"NL:Q:31003012","_quaycode":"NL:Q:31003012","_town":"Maassluis","_status":"available","_mode":"bus","_direction":346,"_visuallyAccessible":true,"_disabledAccessible":true,"geojson_lng":4.22793148912298,"geojson_lat":51.93924492187341},"geometry":{"type":"Point","coordinates":[4.22793148912298,51.93924492187341]}},{"type":"Feature","properties":{"highway":"bus_stop","public_transport":"platform","name":"Mesdaglaan","ref:IFOPT":"NL:Q:31003003","_quaycode":"NL:Q:31003003","_town":"Maassluis","_status":"available","_mode":"bus","_direction":245,"_visuallyAccessible":false,"_disabledAccessible":false,"geojson_lng":4.260561660579348,"geojson_lat":51.919750412719935},"geometry":{"type":"Point","coordinates":[4.260561660579348,51.919750412719935]}},{"type":"Feature","properties":{"highway":"bus_stop","public_transport":"platform","name":"Nachtegaallaan","ref:IFOPT":"NL:Q:31003009","_quaycode":"NL:Q:31003009","_town":"Maassluis","_status":"available","_mode":"bus","_direction":299,"_visuallyAccessible":false,"_disabledAccessible":false,"geojson_lng":4.23177413816801,"geojson_lat":51.92951168297816},"geometry":{"type":"Point","coordinates":[4.23177413816801,51.92951168297816]}},{"type":"Feature","properties":{"highway":"bus_stop","public_transport":"platform","name":"Mgr. W.M. Bekkerslaan","ref:IFOPT":"NL:Q:31006344","_quaycode":"NL:Q:31006344","_town":"Maassluis","_status":"available","_mode":"bus","_direction":144,"_visuallyAccessible":true,"_disabledAccessible":true,"geojson_lng":4.257490835742124,"geojson_lat":51.922201900989926},"geometry":{"type":"Point","coordinates":[4.257490835742124,51.922201900989926]}},{"type":"Feature","properties":{"highway":"bus_stop","public_transport":"platform","name":"Stellingmolen","ref:IFOPT":"NL:Q:42038601","_quaycode":"NL:Q:42038601","_town":"Maassluis","_status":"available","_mode":"bus","_direction":220,"_visuallyAccessible":false,"_disabledAccessible":false,"geojson_lng":4.228740637887128,"geojson_lat":51.943396834915994},"geometry":{"type":"Point","coordinates":[4.228740637887128,51.943396834915994]}},{"type":"Feature","properties":{"highway":"bus_stop","public_transport":"platform","name":"Maassluis Centrum","ref:IFOPT":"NL:Q:31007205","_quaycode":"NL:Q:31007205","_town":"Maassluis","_status":"available","_mode":"bus","_direction":285,"_visuallyAccessible":false,"_disabledAccessible":false,"geojson_lng":4.253056552049166,"geojson_lat":51.91760176827213},"geometry":{"type":"Point","coordinates":[4.253056552049166,51.91760176827213]}},{"type":"Feature","properties":{"highway":"bus_stop","public_transport":"platform","name":"Korte Boonestraat","ref:IFOPT":"NL:Q:31003005","_quaycode":"NL:Q:31003005","_town":"Maassluis","_status":"available","_mode":"bus","_direction":337,"_visuallyAccessible":true,"_disabledAccessible":true,"geojson_lng":4.253508670402828,"geojson_lat":51.92330516222186},"geometry":{"type":"Point","coordinates":[4.253508670402828,51.92330516222186]}},{"type":"Feature","properties":{"highway":"bus_stop","public_transport":"platform","name":"Uiverlaan","ref:IFOPT":"NL:Q:31003008","_quaycode":"NL:Q:31003008","_town":"Maassluis","_status":"available","_mode":"bus","_direction":303,"_visuallyAccessible":true,"_disabledAccessible":false,"geojson_lng":4.242442517872696,"geojson_lat":51.929678985286586},"geometry":{"type":"Point","coordinates":[4.242442517872696,51.929678985286586]}},{"type":"Feature","properties":{"highway":"bus_stop","public_transport":"platform","name":"Dr. Jan Schoutenlaan","ref:IFOPT":"NL:Q:42037201","_quaycode":"NL:Q:42037201","_town":"Maassluis","_status":"available","_mode":"bus","_direction":75,"_visuallyAccessible":false,"_disabledAccessible":false,"geojson_lng":4.231781740692222,"geojson_lat":51.93882438686363},"geometry":{"type":"Point","coordinates":[4.231781740692222,51.93882438686363]}},{"type":"Feature","properties":{"highway":"bus_stop","public_transport":"platform","name":"Koningshoek","ref:IFOPT":"NL:Q:31003103","_quaycode":"NL:Q:31003103","_town":"Maassluis","_status":"available","_mode":"bus","_direction":225,"_visuallyAccessible":true,"_disabledAccessible":true,"geojson_lng":4.237226708036069,"geojson_lat":51.928378601069},"geometry":{"type":"Point","coordinates":[4.237226708036069,51.928378601069]}},{"type":"Feature","properties":{"highway":"bus_stop","public_transport":"platform","name":"Stadsmolen","ref:IFOPT":"NL:Q:31006353","_quaycode":"NL:Q:31006353","_town":"Maassluis","_status":"available","_mode":"bus","_direction":163,"_visuallyAccessible":true,"_disabledAccessible":false,"geojson_lng":4.227961802102072,"geojson_lat":51.9386339673013},"geometry":{"type":"Point","coordinates":[4.227961802102072,51.9386339673013]}},{"type":"Feature","properties":{"highway":"bus_stop","public_transport":"platform","name":"Koningshoek","ref:IFOPT":"NL:Q:31006352","_quaycode":"NL:Q:31006352","_town":"Maassluis","_status":"available","_mode":"bus","_direction":58,"_visuallyAccessible":true,"_disabledAccessible":false,"geojson_lng":4.237373681837911,"geojson_lat":51.928317115693325},"geometry":{"type":"Point","coordinates":[4.237373681837911,51.928317115693325]}},{"type":"Feature","properties":{"highway":"bus_stop","public_transport":"platform","name":"Maassluis West","ref:IFOPT":"NL:Q:31006348","_quaycode":"NL:Q:31006348","_town":"Maassluis","_status":"available","_mode":"bus","_direction":230,"_visuallyAccessible":true,"_disabledAccessible":true,"geojson_lng":4.236179503433027,"geojson_lat":51.92612109530564},"geometry":{"type":"Point","coordinates":[4.236179503433027,51.92612109530564]}},{"type":"Feature","properties":{"highway":"bus_stop","public_transport":"platform","name":"Korhoenstraat","ref:IFOPT":"NL:Q:31003010","_quaycode":"NL:Q:31003010","_town":"Maassluis","_status":"available","_mode":"bus","_direction":303,"_visuallyAccessible":false,"_disabledAccessible":false,"geojson_lng":4.228139447522125,"geojson_lat":51.93175012495446},"geometry":{"type":"Point","coordinates":[4.228139447522125,51.93175012495446]}},{"type":"Feature","properties":{"highway":"bus_stop","public_transport":"platform","name":"Mgr. W.M. Bekkerslaan","ref:IFOPT":"NL:Q:31003004","_quaycode":"NL:Q:31003004","_town":"Maassluis","_status":"available","_mode":"bus","_direction":321,"_visuallyAccessible":true,"_disabledAccessible":false,"geojson_lng":4.257590317806856,"geojson_lat":51.92229274714893},"geometry":{"type":"Point","coordinates":[4.257590317806856,51.92229274714893]}},{"type":"Feature","properties":{"highway":"bus_stop","public_transport":"platform","name":"Korte Boonestraat","ref:IFOPT":"NL:Q:31006343","_quaycode":"NL:Q:31006343","_town":"Maassluis","_status":"available","_mode":"bus","_direction":156,"_visuallyAccessible":true,"_disabledAccessible":true,"geojson_lng":4.253512298250136,"geojson_lat":51.92316137311914},"geometry":{"type":"Point","coordinates":[4.253512298250136,51.92316137311914]}},{"type":"Feature","properties":{"highway":"bus_stop","public_transport":"platform","name":"Maassluis West","ref:IFOPT":"NL:Q:31006347","_quaycode":"NL:Q:31006347","_town":"Maassluis","_status":"available","_mode":"bus","_direction":225,"_visuallyAccessible":true,"_disabledAccessible":true,"geojson_lng":4.236224261448864,"geojson_lat":51.9260765884568},"geometry":{"type":"Point","coordinates":[4.236224261448864,51.9260765884568]}},{"type":"Feature","properties":{"highway":"bus_stop","public_transport":"platform","name":"Uiverlaan","ref:IFOPT":"NL:Q:31006340","_quaycode":"NL:Q:31006340","_town":"Maassluis","_status":"available","_mode":"bus","_direction":122,"_visuallyAccessible":true,"_disabledAccessible":false,"geojson_lng":4.241312638748262,"geojson_lat":51.930081471110064},"geometry":{"type":"Point","coordinates":[4.241312638748262,51.930081471110064]}},{"type":"Feature","properties":{"highway":"bus_stop","public_transport":"platform","name":"Maassluis Centrum","ref:IFOPT":"NL:Q:42077101","_quaycode":"NL:Q:42077101","_town":"Maassluis","_status":"available","_mode":"bus","_direction":230,"_visuallyAccessible":false,"_disabledAccessible":false,"geojson_lng":4.252924604870642,"geojson_lat":51.91707014309001},"geometry":{"type":"Point","coordinates":[4.252924604870642,51.91707014309001]}},{"type":"Feature","properties":{"highway":"bus_stop","public_transport":"platform","name":"Maassluis West","ref:IFOPT":"NL:Q:31003047","_quaycode":"NL:Q:31003047","_town":"Maassluis","_status":"available","_mode":"bus","_direction":236,"_visuallyAccessible":true,"_disabledAccessible":true,"geojson_lng":4.236120209670731,"geojson_lat":51.92616545979149},"geometry":{"type":"Point","coordinates":[4.236120209670731,51.92616545979149]}},{"type":"Feature","properties":{"highway":"bus_stop","public_transport":"platform","name":"Mozartlaan","ref:IFOPT":"NL:Q:31006341","_quaycode":"NL:Q:31006341","_town":"Maassluis","_status":"available","_mode":"bus","_direction":114,"_visuallyAccessible":true,"_disabledAccessible":false,"geojson_lng":4.247380132300603,"geojson_lat":51.926481934827684},"geometry":{"type":"Point","coordinates":[4.247380132300603,51.926481934827684]}},{"type":"Feature","properties":{"highway":"bus_stop","public_transport":"platform","name":"Mozartlaan","ref:IFOPT":"NL:Q:31003007","_quaycode":"NL:Q:31003007","_town":"Maassluis","_status":"available","_mode":"bus","_direction":300,"_visuallyAccessible":true,"_disabledAccessible":true,"geojson_lng":4.247390564356909,"geojson_lat":51.92664383817005},"geometry":{"type":"Point","coordinates":[4.247390564356909,51.92664383817005]}},{"type":"Feature","properties":{"highway":"bus_stop","public_transport":"platform","name":"Westeinde","ref:IFOPT":"NL:Q:42076802","_quaycode":"NL:Q:42076802","_town":"Maassluis","_status":"available","_mode":"bus","_direction":230,"_visuallyAccessible":false,"_disabledAccessible":true,"geojson_lng":4.228511030898308,"geojson_lat":51.93707529178097},"geometry":{"type":"Point","coordinates":[4.228511030898308,51.93707529178097]}},{"type":"Feature","properties":{"highway":"bus_stop","public_transport":"platform","name":"Rozenlaan","ref:IFOPT":"NL:Q:31006342","_quaycode":"NL:Q:31006342","_town":"Maassluis","_status":"available","_mode":"bus","_direction":109,"_visuallyAccessible":false,"_disabledAccessible":false,"geojson_lng":4.249806979495715,"geojson_lat":51.92538181702659},"geometry":{"type":"Point","coordinates":[4.249806979495715,51.92538181702659]}},{"type":"Feature","properties":{"highway":"bus_stop","public_transport":"platform","name":"Rozenlaan","ref:IFOPT":"NL:Q:31003006","_quaycode":"NL:Q:31003006","_town":"Maassluis","_status":"available","_mode":"bus","_direction":304,"_visuallyAccessible":true,"_disabledAccessible":false,"geojson_lng":4.2505721445947735,"geojson_lat":51.92502066938329},"geometry":{"type":"Point","coordinates":[4.2505721445947735,51.92502066938329]}}]}