{"type":"FeatureCollection","features":[{"type":"Feature","properties":{"SeqNo":"82730","Type":"S","DHID":"de:08425:2261","Parent":"de:08425:2261","Name":"Rammingen Bahnhof","MunicipalityCode":"08425097","Municipality":"Rammingen","DistrictCode":"-","District":"-","Description":"","Authority":"NVBW","DelfiName":"-","THID":"D920E90008D5","LastOperationDate":"2025-06-14T00:00:00","SEV":"nein","longitude":"10,190327","latitude":"48,51297","geojson_lng":10.190327,"geojson_lat":48.51297},"geometry":{"type":"Point","coordinates":[10.190327,48.51297]}},{"type":"Feature","properties":{"SeqNo":"82731","Type":"A","DHID":"de:08425:2261:1","Parent":"de:08425:2261","Name":"Bus","MunicipalityCode":"00000000","Municipality":"-","DistrictCode":"-","District":"-","Description":"Bus","Authority":"NVBW","DelfiName":"-","THID":"-","LastOperationDate":"","SEV":"nein","longitude":"10,19056","latitude":"48,512744","geojson_lng":10.19056,"geojson_lat":48.512744},"geometry":{"type":"Point","coordinates":[10.19056,48.512744]}},{"type":"Feature","properties":{"SeqNo":"82732","Type":"A","DHID":"de:08425:2261:3","Parent":"de:08425:2261","Name":"Bahn","MunicipalityCode":"00000000","Municipality":"-","DistrictCode":"-","District":"-","Description":"Bahn","Authority":"NVBW","DelfiName":"-","THID":"-","LastOperationDate":"","SEV":"nein","longitude":"10,190857","latitude":"48,512595","geojson_lng":10.190857,"geojson_lat":48.512595},"geometry":{"type":"Point","coordinates":[10.190857,48.512595]}},{"type":"Feature","properties":{"SeqNo":"82733","Type":"A","DHID":"de:08425:2261:4","Parent":"de:08425:2261","Name":"P+R","MunicipalityCode":"00000000","Municipality":"-","DistrictCode":"-","District":"-","Description":"P+R","Authority":"NVBW","DelfiName":"-","THID":"-","LastOperationDate":"","SEV":"nein","longitude":"10,190417","latitude":"48,512393","geojson_lng":10.190417,"geojson_lat":48.512393},"geometry":{"type":"Point","coordinates":[10.190417,48.512393]}},{"type":"Feature","properties":{"SeqNo":"82734","Type":"A","DHID":"de:08425:2261:5","Parent":"de:08425:2261","Name":"B+R","MunicipalityCode":"00000000","Municipality":"-","DistrictCode":"-","District":"-","Description":"B+R","Authority":"NVBW","DelfiName":"-","THID":"-","LastOperationDate":"","SEV":"nein","longitude":"10,190614","latitude":"48,5125","geojson_lng":10.190614,"geojson_lat":48.5125},"geometry":{"type":"Point","coordinates":[10.190614,48.5125]}},{"type":"Feature","properties":{"SeqNo":"82735","Type":"A","DHID":"de:08425:2261:90","Parent":"de:08425:2261","Name":"Eingang","MunicipalityCode":"00000000","Municipality":"-","DistrictCode":"-","District":"-","Description":"Eingang","Authority":"NVBW","DelfiName":"-","THID":"-","LastOperationDate":"","SEV":"nein","longitude":"10,190731","latitude":"48,512821","geojson_lng":10.190731,"geojson_lat":48.512821},"geometry":{"type":"Point","coordinates":[10.190731,48.512821]}},{"type":"Feature","properties":{"SeqNo":"82736","Type":"Q","DHID":"de:08425:2261:1:1","Parent":"de:08425:2261:1","Name":"Asselfingen","MunicipalityCode":"00000000","Municipality":"-","DistrictCode":"-","District":"-","Description":"Asselfingen","Authority":"NVBW","DelfiName":"-","THID":"-","LastOperationDate":"","SEV":"nein","longitude":"10,190812","latitude":"48,512434","geojson_lng":10.190812,"geojson_lat":48.512434},"geometry":{"type":"Point","coordinates":[10.190812,48.512434]}},{"type":"Feature","properties":{"SeqNo":"82737","Type":"Q","DHID":"de:08425:2261:1:2","Parent":"de:08425:2261:1","Name":"Langenau","MunicipalityCode":"00000000","Municipality":"-","DistrictCode":"-","District":"-","Description":"Langenau","Authority":"NVBW","DelfiName":"-","THID":"-","LastOperationDate":"","SEV":"nein","longitude":"10,190713","latitude":"48,512678","geojson_lng":10.190713,"geojson_lat":48.512678},"geometry":{"type":"Point","coordinates":[10.190713,48.512678]}},{"type":"Feature","properties":{"SeqNo":"82738","Type":"Q","DHID":"de:08425:2261:3:1","Parent":"de:08425:2261:3","Name":"Gleis","MunicipalityCode":"00000000","Municipality":"-","DistrictCode":"-","District":"-","Description":"Gleis","Authority":"NVBW","DelfiName":"-","THID":"-","LastOperationDate":"","SEV":"nein","longitude":"10,190812","latitude":"48,512434","geojson_lng":10.190812,"geojson_lat":48.512434},"geometry":{"type":"Point","coordinates":[10.190812,48.512434]}},{"type":"Feature","properties":{"SeqNo":"82739","Type":"Q","DHID":"de:08425:2261:4:40","Parent":"de:08425:2261:4","Name":"P+R Zugang","MunicipalityCode":"00000000","Municipality":"-","DistrictCode":"-","District":"-","Description":"P+R Zugang","Authority":"NVBW","DelfiName":"-","THID":"-","LastOperationDate":"","SEV":"nein","longitude":"10,190381","latitude":"48,512529","geojson_lng":10.190381,"geojson_lat":48.512529},"geometry":{"type":"Point","coordinates":[10.190381,48.512529]}},{"type":"Feature","properties":{"SeqNo":"82740","Type":"Q","DHID":"de:08425:2261:5:50","Parent":"de:08425:2261:5","Name":"B+R Zugang","MunicipalityCode":"00000000","Municipality":"-","DistrictCode":"-","District":"-","Description":"B+R Zugang","Authority":"NVBW","DelfiName":"-","THID":"-","LastOperationDate":"","SEV":"nein","longitude":"10,190507","latitude":"48,512577","geojson_lng":10.190507,"geojson_lat":48.512577},"geometry":{"type":"Point","coordinates":[10.190507,48.512577]}}]}