{"type":"FeatureCollection","features":[{"type":"Feature","properties":{"SeqNo":"50531","Type":"S","DHID":"de:08236:2505","Parent":"de:08236:2505","Name":"Illingen Bahnhof","MunicipalityCode":"08236028","Municipality":"Illingen","DistrictCode":"","District":"","Description":"","Authority":"NVBW","DelfiName":"-","THID":"D9202C0009C9","LastOperationDate":"2025-06-14T00:00:00","SEV":"nein","longitude":"8,920666","latitude":"48,956119","geojson_lng":8.920666,"geojson_lat":48.956119},"geometry":{"type":"Point","coordinates":[8.920666,48.956119]}},{"type":"Feature","properties":{"SeqNo":"50532","Type":"Q","DHID":"de:08236:2505:0:1","Parent":"de:08236:2505","Name":"Steig 1 Richtung Vaihingen","MunicipalityCode":"00000000","Municipality":"-","DistrictCode":"-","District":"-","Description":"","Authority":"NVBW","DelfiName":"-","THID":"-","LastOperationDate":"","SEV":"nein","longitude":"8,92072","latitude":"48,956196","geojson_lng":8.92072,"geojson_lat":48.956196},"geometry":{"type":"Point","coordinates":[8.92072,48.956196]}},{"type":"Feature","properties":{"SeqNo":"50533","Type":"Q","DHID":"de:08236:2505:0:2","Parent":"de:08236:2505","Name":"Ri. Sch端tzingen / M端hlacker","MunicipalityCode":"00000000","Municipality":"-","DistrictCode":"-","District":"-","Description":"","Authority":"NVBW","DelfiName":"-","THID":"-","LastOperationDate":"","SEV":"nein","longitude":"8,920531","latitude":"48,956125","geojson_lng":8.920531,"geojson_lat":48.956125},"geometry":{"type":"Point","coordinates":[8.920531,48.956125]}},{"type":"Feature","properties":{"SeqNo":"50537","Type":"S","DHID":"de:08236:2507","Parent":"de:08236:2507","Name":"Illingen Schule","MunicipalityCode":"08236028","Municipality":"Illingen","DistrictCode":"-","District":"-","Description":"","Authority":"NVBW","DelfiName":"-","THID":"D9202C0009CB","LastOperationDate":"2025-06-13T00:00:00","SEV":"nein","longitude":"8,915492","latitude":"48,954639","geojson_lng":8.915492,"geojson_lat":48.954639},"geometry":{"type":"Point","coordinates":[8.915492,48.954639]}},{"type":"Feature","properties":{"SeqNo":"50538","Type":"Q","DHID":"de:08236:2507:0:1","Parent":"de:08236:2507","Name":"1","MunicipalityCode":"00000000","Municipality":"-","DistrictCode":"-","District":"-","Description":"alle Richtungen","Authority":"NVBW","DelfiName":"-","THID":"-","LastOperationDate":"","SEV":"nein","longitude":"8,915492","latitude":"48,954639","geojson_lng":8.915492,"geojson_lat":48.954639},"geometry":{"type":"Point","coordinates":[8.915492,48.954639]}},{"type":"Feature","properties":{"SeqNo":"50544","Type":"S","DHID":"de:08236:2510","Parent":"de:08236:2510","Name":"Illingen M端hlacker Str.","MunicipalityCode":"08236028","Municipality":"Illingen","DistrictCode":"-","District":"-","Description":"","Authority":"NVBW","DelfiName":"-","THID":"D9202C0009CE","LastOperationDate":"2025-06-14T00:00:00","SEV":"nein","longitude":"8,916139","latitude":"48,953866","geojson_lng":8.916139,"geojson_lat":48.953866},"geometry":{"type":"Point","coordinates":[8.916139,48.953866]}},{"type":"Feature","properties":{"SeqNo":"50545","Type":"Q","DHID":"de:08236:2510:0:1","Parent":"de:08236:2510","Name":"1","MunicipalityCode":"00000000","Municipality":"-","DistrictCode":"-","District":"-","Description":"Ri. Vaihingen/E","Authority":"NVBW","DelfiName":"-","THID":"-","LastOperationDate":"","SEV":"nein","longitude":"8,916139","latitude":"48,953866","geojson_lng":8.916139,"geojson_lat":48.953866},"geometry":{"type":"Point","coordinates":[8.916139,48.953866]}},{"type":"Feature","properties":{"SeqNo":"50546","Type":"Q","DHID":"de:08236:2510:0:2","Parent":"de:08236:2510","Name":"2","MunicipalityCode":"00000000","Municipality":"-","DistrictCode":"-","District":"-","Description":"Ri.M端hlacker","Authority":"NVBW","DelfiName":"-","THID":"-","LastOperationDate":"","SEV":"nein","longitude":"8,916139","latitude":"48,953866","geojson_lng":8.916139,"geojson_lat":48.953866},"geometry":{"type":"Point","coordinates":[8.916139,48.953866]}},{"type":"Feature","properties":{"SeqNo":"50550","Type":"S","DHID":"de:08236:2590","Parent":"de:08236:2590","Name":"Illingen","MunicipalityCode":"08236028","Municipality":"Illingen","DistrictCode":"-","District":"-","Description":"","Authority":"NVBW","DelfiName":"-","THID":"D9202C000A1E","LastOperationDate":"2025-02-28T00:00:00","SEV":"nein","longitude":"8,920738","latitude":"48,956432","geojson_lng":8.920738,"geojson_lat":48.956432},"geometry":{"type":"Point","coordinates":[8.920738,48.956432]}},{"type":"Feature","properties":{"SeqNo":"50551","Type":"A","DHID":"de:08236:2590:1","Parent":"de:08236:2590","Name":"1","MunicipalityCode":"00000000","Municipality":"-","DistrictCode":"-","District":"-","Description":"Schiene","Authority":"NVBW","DelfiName":"-","THID":"-","LastOperationDate":"","SEV":"nein","longitude":"8,920953","latitude":"48,956438","geojson_lng":8.920953,"geojson_lat":48.956438},"geometry":{"type":"Point","coordinates":[8.920953,48.956438]}},{"type":"Feature","properties":{"SeqNo":"50552","Type":"A","DHID":"de:08236:2590:2","Parent":"de:08236:2590","Name":"2","MunicipalityCode":"00000000","Municipality":"-","DistrictCode":"-","District":"-","Description":"Bushaltestelle","Authority":"NVBW","DelfiName":"-","THID":"-","LastOperationDate":"","SEV":"nein","longitude":"8,920648","latitude":"48,95616","geojson_lng":8.920648,"geojson_lat":48.95616},"geometry":{"type":"Point","coordinates":[8.920648,48.95616]}},{"type":"Feature","properties":{"SeqNo":"50553","Type":"Q","DHID":"de:08236:2590:1:1","Parent":"de:08236:2590:1","Name":"1","MunicipalityCode":"00000000","Municipality":"-","DistrictCode":"-","District":"-","Description":"Gleis Richtung Stuttgart","Authority":"NVBW","DelfiName":"-","THID":"-","LastOperationDate":"","SEV":"nein","longitude":"8,920738","latitude":"48,956432","geojson_lng":8.920738,"geojson_lat":48.956432},"geometry":{"type":"Point","coordinates":[8.920738,48.956432]}}]}