{"type":"FeatureCollection","features":[{"type":"Feature","properties":{"highway":"bus_stop","public_transport":"platform","name":"Winkelhoek","ref:IFOPT":"NL:Q:12602210","_quaycode":"NL:Q:12602210","_town":"Hoogezand","_status":"available","_mode":"bus","_direction":269,"_visuallyAccessible":false,"_disabledAccessible":true,"geojson_lng":6.77507510001847,"geojson_lat":53.163963144128076},"geometry":{"type":"Point","coordinates":[6.77507510001847,53.163963144128076]}},{"type":"Feature","properties":{"highway":"bus_stop","public_transport":"platform","name":"Rembrandtplein","ref:IFOPT":"NL:Q:12603120","_quaycode":"NL:Q:12603120","_town":"Hoogezand","_status":"available","_mode":"bus","_direction":269,"_visuallyAccessible":false,"_disabledAccessible":false,"geojson_lng":6.770983261278479,"geojson_lat":53.16553821491142},"geometry":{"type":"Point","coordinates":[6.770983261278479,53.16553821491142]}},{"type":"Feature","properties":{"highway":"bus_stop","public_transport":"platform","name":"Rembrandtplein","ref:IFOPT":"NL:Q:12603110","_quaycode":"NL:Q:12603110","_town":"Hoogezand","_status":"available","_mode":"bus","_direction":89,"_visuallyAccessible":false,"_disabledAccessible":false,"geojson_lng":6.771204620554148,"geojson_lat":53.16544579089006},"geometry":{"type":"Point","coordinates":[6.771204620554148,53.16544579089006]}},{"type":"Feature","properties":{"highway":"bus_stop","public_transport":"platform","name":"Burg.Eikemastraat","ref:IFOPT":"NL:Q:12603010","_quaycode":"NL:Q:12603010","_town":"Hoogezand","_status":"available","_mode":"bus","_direction":89,"_visuallyAccessible":false,"_disabledAccessible":false,"geojson_lng":6.775877795358353,"geojson_lat":53.16521201106822},"geometry":{"type":"Point","coordinates":[6.775877795358353,53.16521201106822]}},{"type":"Feature","properties":{"highway":"bus_stop","public_transport":"platform","name":"Kees de Haanstraat","ref:IFOPT":"NL:Q:12601140","_quaycode":"NL:Q:12601140","_town":"Hoogezand","_status":"available","_mode":"bus","_direction":171,"_visuallyAccessible":false,"_disabledAccessible":false,"geojson_lng":6.774060335413646,"geojson_lat":53.16356149190477},"geometry":{"type":"Point","coordinates":[6.774060335413646,53.16356149190477]}},{"type":"Feature","properties":{"highway":"bus_stop","public_transport":"platform","name":"Winkelhoek","ref:IFOPT":"NL:Q:12602220","_quaycode":"NL:Q:12602220","_town":"Hoogezand","_status":"available","_mode":"bus","_direction":89,"_visuallyAccessible":false,"_disabledAccessible":true,"geojson_lng":6.776345117722266,"geojson_lat":53.163930460074106},"geometry":{"type":"Point","coordinates":[6.776345117722266,53.163930460074106]}},{"type":"Feature","properties":{"highway":"bus_stop","public_transport":"platform","name":"Station","ref:IFOPT":"NL:Q:12601010","_quaycode":"NL:Q:12601010","_town":"Hoogezand","_status":"available","_mode":"bus","_direction":94,"_visuallyAccessible":false,"_disabledAccessible":true,"geojson_lng":6.77062590458452,"geojson_lat":53.15997047785225},"geometry":{"type":"Point","coordinates":[6.77062590458452,53.15997047785225]}},{"type":"Feature","properties":{"highway":"bus_stop","public_transport":"platform","name":"Burg.Eikemastraat","ref:IFOPT":"NL:Q:12603020","_quaycode":"NL:Q:12603020","_town":"Hoogezand","_status":"available","_mode":"bus","_direction":269,"_visuallyAccessible":false,"_disabledAccessible":false,"geojson_lng":6.776060060352636,"geojson_lat":53.1652997683442},"geometry":{"type":"Point","coordinates":[6.776060060352636,53.1652997683442]}},{"type":"Feature","properties":{"highway":"bus_stop","public_transport":"platform","name":"Kees de Haanstraat","ref:IFOPT":"NL:Q:12601130","_quaycode":"NL:Q:12601130","_town":"Hoogezand","_status":"available","_mode":"bus","_direction":352,"_visuallyAccessible":false,"_disabledAccessible":false,"geojson_lng":6.774245467686828,"geojson_lat":53.16373908749518},"geometry":{"type":"Point","coordinates":[6.774245467686828,53.16373908749518]}}]}