{"type":"FeatureCollection","features":[{"type":"Feature","properties":{"highway":"bus_stop","public_transport":"platform","name":"Volkspark","ref:IFOPT":"NL:Q:43000540","_quaycode":"NL:Q:43000540","_town":"Enschede","_status":"available","_mode":"bus","_direction":94,"_visuallyAccessible":false,"_disabledAccessible":true,"geojson_lng":6.880914897555074,"geojson_lat":52.22107613768437},"geometry":{"type":"Point","coordinates":[6.880914897555074,52.22107613768437]}},{"type":"Feature","properties":{"highway":"bus_stop","public_transport":"platform","name":"Volkspark","ref:IFOPT":"NL:Q:43000530","_quaycode":"NL:Q:43000530","_town":"Enschede","_status":"available","_mode":"bus","_direction":273,"_visuallyAccessible":false,"_disabledAccessible":true,"geojson_lng":6.880777948827719,"geojson_lat":52.22115867809117},"geometry":{"type":"Point","coordinates":[6.880777948827719,52.22115867809117]}},{"type":"Feature","properties":{"highway":"bus_stop","public_transport":"platform","name":"Schuttersveld","ref:IFOPT":"NL:Q:43005440","_quaycode":"NL:Q:43005440","_town":"Enschede","_status":"available","_mode":"bus","_direction":111,"_visuallyAccessible":false,"_disabledAccessible":true,"geojson_lng":6.88112468605765,"geojson_lat":52.22592432968117},"geometry":{"type":"Point","coordinates":[6.88112468605765,52.22592432968117]}},{"type":"Feature","properties":{"highway":"bus_stop","public_transport":"platform","name":"Schuttersveld","ref:IFOPT":"NL:Q:43005450","_quaycode":"NL:Q:43005450","_town":"Enschede","_status":"available","_mode":"bus","_direction":292,"_visuallyAccessible":false,"_disabledAccessible":true,"geojson_lng":6.88371426313635,"geojson_lat":52.22505072368227},"geometry":{"type":"Point","coordinates":[6.88371426313635,52.22505072368227]}},{"type":"Feature","properties":{"highway":"bus_stop","public_transport":"platform","name":"Boddenkamp","ref:IFOPT":"NL:Q:43001050","_quaycode":"NL:Q:43001050","_town":"Enschede","_status":"available","_mode":"bus","_direction":42,"_visuallyAccessible":true,"_disabledAccessible":true,"geojson_lng":6.887704382081396,"geojson_lat":52.224527613676315},"geometry":{"type":"Point","coordinates":[6.887704382081396,52.224527613676315]}},{"type":"Feature","properties":{"highway":"bus_stop","public_transport":"platform","name":"Boddenkamp","ref:IFOPT":"NL:Q:43001060","_quaycode":"NL:Q:43001060","_town":"Enschede","_status":"available","_mode":"bus","_direction":231,"_visuallyAccessible":true,"_disabledAccessible":true,"geojson_lng":6.887515517944666,"geojson_lat":52.22450780082803},"geometry":{"type":"Point","coordinates":[6.887515517944666,52.22450780082803]}},{"type":"Feature","properties":{"highway":"bus_stop","public_transport":"platform","name":"G.J. van Heekpark","ref:IFOPT":"NL:Q:43005540","_quaycode":"NL:Q:43005540","_town":"Enschede","_status":"available","_mode":"bus","_direction":111,"_visuallyAccessible":true,"_disabledAccessible":true,"geojson_lng":6.878179615490638,"geojson_lat":52.22718825381316},"geometry":{"type":"Point","coordinates":[6.878179615490638,52.22718825381316]}}]}