{"type":"FeatureCollection","features":[{"type":"Feature","properties":{"SeqNo":"125266","Type":"S","DHID":"de:09179:6195","Parent":"de:09179:6195","Name":"Eichenau, Am Eichbüchl","MunicipalityCode":"09179118","Municipality":"Eichenau","DistrictCode":"","District":"","Description":"","Authority":"BEG","DelfiName":"-","THID":"D923DB001833","LastOperationDate":"2025-06-14T00:00:00","SEV":"nein","longitude":"11,326848","latitude":"48,167319","geojson_lng":11.326848,"geojson_lat":48.167319},"geometry":{"type":"Point","coordinates":[11.326848,48.167319]}},{"type":"Feature","properties":{"SeqNo":"125267","Type":"Q","DHID":"de:09179:6195:0:1","Parent":"de:09179:6195","Name":"Ri Friedenskirche","MunicipalityCode":"00000000","Municipality":"-","DistrictCode":"-","District":"-","Description":"","Authority":"BEG","DelfiName":"-","THID":"-","LastOperationDate":"","SEV":"nein","longitude":"11,326902","latitude":"48,167367","geojson_lng":11.326902,"geojson_lat":48.167367},"geometry":{"type":"Point","coordinates":[11.326902,48.167367]}},{"type":"Feature","properties":{"SeqNo":"125268","Type":"Q","DHID":"de:09179:6195:0:2","Parent":"de:09179:6195","Name":"Ri Hauptstraße","MunicipalityCode":"00000000","Municipality":"-","DistrictCode":"-","District":"-","Description":"","Authority":"BEG","DelfiName":"-","THID":"-","LastOperationDate":"","SEV":"nein","longitude":"11,326804","latitude":"48,167301","geojson_lng":11.326804,"geojson_lat":48.167301},"geometry":{"type":"Point","coordinates":[11.326804,48.167301]}},{"type":"Feature","properties":{"SeqNo":"125269","Type":"Q","DHID":"de:09179:6195:0:95","Parent":"de:09179:6195","Name":"Pseudosteig für Export","MunicipalityCode":"00000000","Municipality":"-","DistrictCode":"-","District":"-","Description":"","Authority":"BEG","DelfiName":"-","THID":"-","LastOperationDate":"","SEV":"nein","longitude":"11,326768","latitude":"48,166881","geojson_lng":11.326768,"geojson_lat":48.166881},"geometry":{"type":"Point","coordinates":[11.326768,48.166881]}},{"type":"Feature","properties":{"SeqNo":"125282","Type":"S","DHID":"de:09179:6199","Parent":"de:09179:6199","Name":"Eichenau, Waldstraße","MunicipalityCode":"09179118","Municipality":"Eichenau","DistrictCode":"","District":"","Description":"","Authority":"BEG","DelfiName":"-","THID":"D923DB001837","LastOperationDate":"2025-06-14T00:00:00","SEV":"nein","longitude":"11,328573","latitude":"48,170872","geojson_lng":11.328573,"geojson_lat":48.170872},"geometry":{"type":"Point","coordinates":[11.328573,48.170872]}},{"type":"Feature","properties":{"SeqNo":"125283","Type":"Q","DHID":"de:09179:6199:0:1","Parent":"de:09179:6199","Name":"Ri Am Eichbüchl","MunicipalityCode":"00000000","Municipality":"-","DistrictCode":"-","District":"-","Description":"","Authority":"BEG","DelfiName":"-","THID":"-","LastOperationDate":"","SEV":"nein","longitude":"11,328376","latitude":"48,170626","geojson_lng":11.328376,"geojson_lat":48.170626},"geometry":{"type":"Point","coordinates":[11.328376,48.170626]}},{"type":"Feature","properties":{"SeqNo":"125284","Type":"Q","DHID":"de:09179:6199:0:3","Parent":"de:09179:6199","Name":"n.v.","MunicipalityCode":"00000000","Municipality":"-","DistrictCode":"-","District":"-","Description":"","Authority":"BEG","DelfiName":"-","THID":"-","LastOperationDate":"","SEV":"nein","longitude":"11,328654","latitude":"48,171075","geojson_lng":11.328654,"geojson_lat":48.171075},"geometry":{"type":"Point","coordinates":[11.328654,48.171075]}},{"type":"Feature","properties":{"SeqNo":"125285","Type":"Q","DHID":"de:09179:6199:0:4","Parent":"de:09179:6199","Name":"n.v.","MunicipalityCode":"00000000","Municipality":"-","DistrictCode":"-","District":"-","Description":"","Authority":"BEG","DelfiName":"-","THID":"-","LastOperationDate":"","SEV":"nein","longitude":"11,328672","latitude":"48,171099","geojson_lng":11.328672,"geojson_lat":48.171099},"geometry":{"type":"Point","coordinates":[11.328672,48.171099]}},{"type":"Feature","properties":{"SeqNo":"125286","Type":"Q","DHID":"de:09179:6199:0:95","Parent":"de:09179:6199","Name":"Ri Goehtestraße","MunicipalityCode":"00000000","Municipality":"-","DistrictCode":"-","District":"-","Description":"","Authority":"BEG","DelfiName":"-","THID":"-","LastOperationDate":"","SEV":"nein","longitude":"11,328708","latitude":"48,170985","geojson_lng":11.328708,"geojson_lat":48.170985},"geometry":{"type":"Point","coordinates":[11.328708,48.170985]}},{"type":"Feature","properties":{"SeqNo":"125325","Type":"S","DHID":"de:09179:6205","Parent":"de:09179:6205","Name":"Eichenau, Eichendorffstraße","MunicipalityCode":"09179118","Municipality":"Eichenau","DistrictCode":"","District":"","Description":"","Authority":"BEG","DelfiName":"-","THID":"D923DB00183D","LastOperationDate":"1999-12-31T00:00:00","SEV":"nein","longitude":"11,329094","latitude":"48,171806","geojson_lng":11.329094,"geojson_lat":48.171806},"geometry":{"type":"Point","coordinates":[11.329094,48.171806]}},{"type":"Feature","properties":{"SeqNo":"126413","Type":"S","DHID":"de:09179:6526","Parent":"de:09179:6526","Name":"Eichenau, Niblerstraße","MunicipalityCode":"09179118","Municipality":"Eichenau","DistrictCode":"","District":"","Description":"","Authority":"BEG","DelfiName":"-","THID":"D923DB00197E","LastOperationDate":"1999-12-31T00:00:00","SEV":"nein","longitude":"11,328295","latitude":"48,17053","geojson_lng":11.328295,"geojson_lat":48.17053},"geometry":{"type":"Point","coordinates":[11.328295,48.17053]}},{"type":"Feature","properties":{"SeqNo":"126414","Type":"S","DHID":"de:09179:6527","Parent":"de:09179:6527","Name":"Eichenau, Steinbüchlweg","MunicipalityCode":"09179118","Municipality":"Eichenau","DistrictCode":"","District":"","Description":"","Authority":"BEG","DelfiName":"-","THID":"D923DB00197F","LastOperationDate":"1999-12-31T00:00:00","SEV":"nein","longitude":"11,326848","latitude":"48,168008","geojson_lng":11.326848,"geojson_lat":48.168008},"geometry":{"type":"Point","coordinates":[11.326848,48.168008]}}]}