{"type":"FeatureCollection","features":[{"type":"Feature","properties":{"SeqNo":"777969","Type":"S","DHID":"de:08222:2463","Parent":"de:08222:2463","Name":"Käfertal, Therese-Blase-Straße","MunicipalityCode":"08222000","Municipality":"Mannheim","DistrictCode":"-","District":"-","Description":"","Authority":"VRN","DelfiName":"-","THID":"D9201E00099F","LastOperationDate":"2025-06-14T00:00:00","SEV":"nein","longitude":"8,526737","latitude":"49,503076","geojson_lng":8.526737,"geojson_lat":49.503076},"geometry":{"type":"Point","coordinates":[8.526737,49.503076]}},{"type":"Feature","properties":{"SeqNo":"777970","Type":"Q","DHID":"de:08222:2463:0:11","Parent":"de:08222:2463","Name":"Ri Anna-Sammet","MunicipalityCode":"00000000","Municipality":"-","DistrictCode":"-","District":"-","Description":"","Authority":"VRN","DelfiName":"-","THID":"-","LastOperationDate":"","SEV":"nein","longitude":"8,526692","latitude":"49,503099","geojson_lng":8.526692,"geojson_lat":49.503099},"geometry":{"type":"Point","coordinates":[8.526692,49.503099]}},{"type":"Feature","properties":{"SeqNo":"777971","Type":"Q","DHID":"de:08222:2463:0:12","Parent":"de:08222:2463","Name":"Ri Im Rott","MunicipalityCode":"00000000","Municipality":"-","DistrictCode":"-","District":"-","Description":"","Authority":"VRN","DelfiName":"-","THID":"-","LastOperationDate":"","SEV":"nein","longitude":"8,526773","latitude":"49,503053","geojson_lng":8.526773,"geojson_lat":49.503053},"geometry":{"type":"Point","coordinates":[8.526773,49.503053]}},{"type":"Feature","properties":{"SeqNo":"778706","Type":"A","DHID":"de:08222:2634:2","Parent":"de:08222:2634","Name":"Bus","MunicipalityCode":"00000000","Municipality":"-","DistrictCode":"-","District":"-","Description":"","Authority":"VRN","DelfiName":"-","THID":"-","LastOperationDate":"","SEV":"nein","longitude":"8,536484","latitude":"49,49852","geojson_lng":8.536484,"geojson_lat":49.49852},"geometry":{"type":"Point","coordinates":[8.536484,49.49852]}},{"type":"Feature","properties":{"SeqNo":"778710","Type":"Q","DHID":"de:08222:2634:2:Bus","Parent":"de:08222:2634:2","Name":"Bus","MunicipalityCode":"00000000","Municipality":"-","DistrictCode":"-","District":"-","Description":"","Authority":"VRN","DelfiName":"-","THID":"-","LastOperationDate":"","SEV":"nein","longitude":"8,53651","latitude":"49,49852","geojson_lng":8.53651,"geojson_lat":49.49852},"geometry":{"type":"Point","coordinates":[8.53651,49.49852]}}]}