{"type":"FeatureCollection","features":[{"type":"Feature","properties":{"highway":"bus_stop","public_transport":"platform","name":"Vleugeldijk","ref:IFOPT":"NL:Q:62430100","_quaycode":"NL:Q:62430100","_town":"Poederoijen","_status":"available","_mode":"bus","_direction":40,"_visuallyAccessible":false,"_disabledAccessible":false,"geojson_lng":5.103668247059189,"geojson_lat":51.79220206705167},"geometry":{"type":"Point","coordinates":[5.103668247059189,51.79220206705167]}},{"type":"Feature","properties":{"highway":"bus_stop","public_transport":"platform","name":"Centrum","ref:IFOPT":"NL:Q:62770080","_quaycode":"NL:Q:62770080","_town":"Zuilichem","_status":"available","_mode":"bus","_direction":85,"_visuallyAccessible":true,"_disabledAccessible":true,"geojson_lng":5.1356332535808855,"geojson_lat":51.80713280059302},"geometry":{"type":"Point","coordinates":[5.1356332535808855,51.80713280059302]}},{"type":"Feature","properties":{"highway":"bus_stop","public_transport":"platform","name":"Zonnepad","ref:IFOPT":"NL:Q:62430241","_quaycode":"NL:Q:62430241","_town":"Aalst","_status":"available","_mode":"bus","_direction":90,"_visuallyAccessible":false,"_disabledAccessible":false,"geojson_lng":5.1294136169265485,"geojson_lat":51.78162811813017},"geometry":{"type":"Point","coordinates":[5.1294136169265485,51.78162811813017]}},{"type":"Feature","properties":{"highway":"bus_stop","public_transport":"platform","name":"Maasdijk","ref:IFOPT":"NL:Q:62430010","_quaycode":"NL:Q:62430010","_town":"Aalst","_status":"available","_mode":"bus","_direction":342,"_visuallyAccessible":false,"_disabledAccessible":false,"geojson_lng":5.121675260659426,"geojson_lat":51.78407369712404},"geometry":{"type":"Point","coordinates":[5.121675260659426,51.78407369712404]}},{"type":"Feature","properties":{"highway":"bus_stop","public_transport":"platform","name":"Kweldijk","ref:IFOPT":"NL:Q:62770150","_quaycode":"NL:Q:62770150","_town":"Zaltbommel","_status":"available","_mode":"bus","_direction":104,"_visuallyAccessible":false,"_disabledAccessible":false,"geojson_lng":5.135122169411567,"geojson_lat":51.8051812178564},"geometry":{"type":"Point","coordinates":[5.135122169411567,51.8051812178564]}},{"type":"Feature","properties":{"highway":"bus_stop","public_transport":"platform","name":"Vleugeldijk","ref:IFOPT":"NL:Q:62430110","_quaycode":"NL:Q:62430110","_town":"Poederoijen","_status":"available","_mode":"bus","_direction":228,"_visuallyAccessible":false,"_disabledAccessible":false,"geojson_lng":5.1033938088298605,"geojson_lat":51.79204860020082},"geometry":{"type":"Point","coordinates":[5.1033938088298605,51.79204860020082]}},{"type":"Feature","properties":{"highway":"bus_stop","public_transport":"platform","name":" De Kraaij","ref:IFOPT":"NL:Q:62431180","_quaycode":"NL:Q:62431180","_town":"Zaltbommel","_status":"available","_mode":"bus","_direction":120,"_visuallyAccessible":false,"_disabledAccessible":false,"geojson_lng":5.1148788750995875,"geojson_lat":51.7984036698597},"geometry":{"type":"Point","coordinates":[5.1148788750995875,51.7984036698597]}},{"type":"Feature","properties":{"highway":"bus_stop","public_transport":"platform","name":"Capreton","ref:IFOPT":"NL:Q:62430050","_quaycode":"NL:Q:62430050","_town":"Aalst","_status":"available","_mode":"bus","_direction":162,"_visuallyAccessible":false,"_disabledAccessible":false,"geojson_lng":5.11944077098306,"geojson_lat":51.794297463647915},"geometry":{"type":"Point","coordinates":[5.11944077098306,51.794297463647915]}},{"type":"Feature","properties":{"highway":"bus_stop","public_transport":"platform","name":"Molenkampsweg","ref:IFOPT":"NL:Q:62871020","_quaycode":"NL:Q:62871020","_town":"Zuilichem","_status":"available","_mode":"bus","_direction":111,"_visuallyAccessible":false,"_disabledAccessible":false,"geojson_lng":5.113700627148197,"geojson_lat":51.80862975909367},"geometry":{"type":"Point","coordinates":[5.113700627148197,51.80862975909367]}},{"type":"Feature","properties":{"highway":"bus_stop","public_transport":"platform","name":"Capreton","ref:IFOPT":"NL:Q:62430040","_quaycode":"NL:Q:62430040","_town":"Aalst","_status":"available","_mode":"bus","_direction":343,"_visuallyAccessible":false,"_disabledAccessible":false,"geojson_lng":5.119468268625953,"geojson_lat":51.794549202522525},"geometry":{"type":"Point","coordinates":[5.119468268625953,51.794549202522525]}},{"type":"Feature","properties":{"highway":"bus_stop","public_transport":"platform","name":"PGEM Huisje","ref:IFOPT":"NL:Q:62770060","_quaycode":"NL:Q:62770060","_town":"Zuilichem","_status":"available","_mode":"bus","_direction":106,"_visuallyAccessible":false,"_disabledAccessible":false,"geojson_lng":5.126323784298301,"geojson_lat":51.80724730807002},"geometry":{"type":"Point","coordinates":[5.126323784298301,51.80724730807002]}},{"type":"Feature","properties":{"highway":"bus_stop","public_transport":"platform","name":"E.P. van Ooijenstraat","ref:IFOPT":"NL:Q:62430420","_quaycode":"NL:Q:62430420","_town":"Aalst","_status":"available","_mode":"bus","_direction":76,"_visuallyAccessible":false,"_disabledAccessible":false,"geojson_lng":5.132356502563479,"geojson_lat":51.78399850632509},"geometry":{"type":"Point","coordinates":[5.132356502563479,51.78399850632509]}},{"type":"Feature","properties":{"highway":"bus_stop","public_transport":"platform","name":"E.P. van Ooijenstraat","ref:IFOPT":"NL:Q:62430440","_quaycode":"NL:Q:62430440","_town":"Aalst","_status":"available","_mode":"bus","_direction":90,"_visuallyAccessible":false,"_disabledAccessible":false,"geojson_lng":5.1317642597705495,"geojson_lat":51.783655657944685},"geometry":{"type":"Point","coordinates":[5.1317642597705495,51.783655657944685]}},{"type":"Feature","properties":{"highway":"bus_stop","public_transport":"platform","name":"De Kraaij","ref:IFOPT":"NL:Q:62431080","_quaycode":"NL:Q:62431080","_town":"Poederoijen","_status":"available","_mode":"bus","_direction":29,"_visuallyAccessible":false,"_disabledAccessible":false,"geojson_lng":5.115547671308188,"geojson_lat":51.79808163613713},"geometry":{"type":"Point","coordinates":[5.115547671308188,51.79808163613713]}},{"type":"Feature","properties":{"highway":"bus_stop","public_transport":"platform","name":"Kerk","ref:IFOPT":"NL:Q:62430460","_quaycode":"NL:Q:62430460","_town":"Aalst","_status":"available","_mode":"bus","_direction":90,"_visuallyAccessible":false,"_disabledAccessible":false,"geojson_lng":5.126231912590209,"geojson_lat":51.78302328268464},"geometry":{"type":"Point","coordinates":[5.126231912590209,51.78302328268464]}},{"type":"Feature","properties":{"highway":"bus_stop","public_transport":"platform","name":"De Kraaij","ref:IFOPT":"NL:Q:62431090","_quaycode":"NL:Q:62431090","_town":"Zaltbommel","_status":"available","_mode":"bus","_direction":215,"_visuallyAccessible":false,"_disabledAccessible":false,"geojson_lng":5.1155330123654705,"geojson_lat":51.79810856750234},"geometry":{"type":"Point","coordinates":[5.1155330123654705,51.79810856750234]}},{"type":"Feature","properties":{"highway":"bus_stop","public_transport":"platform","name":"Oost","ref:IFOPT":"NL:Q:62770020","_quaycode":"NL:Q:62770020","_town":"Zuilichem","_status":"available","_mode":"bus","_direction":284,"_visuallyAccessible":null,"_disabledAccessible":null,"geojson_lng":5.142163974280535,"geojson_lat":51.806041039019064},"geometry":{"type":"Point","coordinates":[5.142163974280535,51.806041039019064]}},{"type":"Feature","properties":{"highway":"bus_stop","public_transport":"platform","name":"Kweldijk","ref:IFOPT":"NL:Q:62770050","_quaycode":"NL:Q:62770050","_town":"Zaltbommel","_status":"available","_mode":"bus","_direction":270,"_visuallyAccessible":false,"_disabledAccessible":false,"geojson_lng":5.135179462049465,"geojson_lat":51.80530717871543},"geometry":{"type":"Point","coordinates":[5.135179462049465,51.80530717871543]}},{"type":"Feature","properties":{"highway":"bus_stop","public_transport":"platform","name":"Meidijk","ref:IFOPT":"NL:Q:62770040","_quaycode":"NL:Q:62770040","_town":"Zuilichem","_status":"available","_mode":"bus","_direction":50,"_visuallyAccessible":false,"_disabledAccessible":false,"geojson_lng":5.1225186826358025,"geojson_lat":51.80582760845954},"geometry":{"type":"Point","coordinates":[5.1225186826358025,51.80582760845954]}},{"type":"Feature","properties":{"highway":"bus_stop","public_transport":"platform","name":"Kerk","ref:IFOPT":"NL:Q:62430450","_quaycode":"NL:Q:62430450","_town":"Aalst","_status":"available","_mode":"bus","_direction":270,"_visuallyAccessible":false,"_disabledAccessible":false,"geojson_lng":5.126506633279974,"geojson_lat":51.783131754629146},"geometry":{"type":"Point","coordinates":[5.126506633279974,51.783131754629146]}},{"type":"Feature","properties":{"highway":"bus_stop","public_transport":"platform","name":"E.P. van Ooijenstraat","ref:IFOPT":"NL:Q:62430430","_quaycode":"NL:Q:62430430","_town":"Aalst","_status":"available","_mode":"bus","_direction":272,"_visuallyAccessible":false,"_disabledAccessible":false,"geojson_lng":5.131748953994581,"geojson_lat":51.78379943968421},"geometry":{"type":"Point","coordinates":[5.131748953994581,51.78379943968421]}},{"type":"Feature","properties":{"highway":"bus_stop","public_transport":"platform","name":"Oost","ref:IFOPT":"NL:Q:62770010","_quaycode":"NL:Q:62770010","_town":"Zuilichem","_status":"available","_mode":"bus","_direction":104,"_visuallyAccessible":null,"_disabledAccessible":null,"geojson_lng":5.142135220047666,"geojson_lat":51.80599603692401},"geometry":{"type":"Point","coordinates":[5.142135220047666,51.80599603692401]}},{"type":"Feature","properties":{"highway":"bus_stop","public_transport":"platform","name":"Maasdijk","ref:IFOPT":"NL:Q:62430020","_quaycode":"NL:Q:62430020","_town":"Aalst","_status":"available","_mode":"bus","_direction":175,"_visuallyAccessible":false,"_disabledAccessible":false,"geojson_lng":5.121573868854923,"geojson_lat":51.78406447921693},"geometry":{"type":"Point","coordinates":[5.121573868854923,51.78406447921693]}},{"type":"Feature","properties":{"highway":"bus_stop","public_transport":"platform","name":"Centrum","ref:IFOPT":"NL:Q:62770070","_quaycode":"NL:Q:62770070","_town":"Zuilichem","_status":"available","_mode":"bus","_direction":263,"_visuallyAccessible":false,"_disabledAccessible":true,"geojson_lng":5.1354445089687575,"geojson_lat":51.807177338054416},"geometry":{"type":"Point","coordinates":[5.1354445089687575,51.807177338054416]}},{"type":"Feature","properties":{"highway":"bus_stop","public_transport":"platform","name":"Zonnepad","ref:IFOPT":"NL:Q:62430240","_quaycode":"NL:Q:62430240","_town":"Aalst","_status":"available","_mode":"bus","_direction":289,"_visuallyAccessible":false,"_disabledAccessible":false,"geojson_lng":5.129558222362059,"geojson_lat":51.78168236637319},"geometry":{"type":"Point","coordinates":[5.129558222362059,51.78168236637319]}},{"type":"Feature","properties":{"highway":"bus_stop","public_transport":"platform","name":"Meidijk","ref:IFOPT":"NL:Q:62770140","_quaycode":"NL:Q:62770140","_town":"Zuilichem","_status":"available","_mode":"bus","_direction":228,"_visuallyAccessible":false,"_disabledAccessible":false,"geojson_lng":5.122416977968683,"geojson_lat":51.8058633327802},"geometry":{"type":"Point","coordinates":[5.122416977968683,51.8058633327802]}},{"type":"Feature","properties":{"highway":"bus_stop","public_transport":"platform","name":" De Kraaij","ref:IFOPT":"NL:Q:62431190","_quaycode":"NL:Q:62431190","_town":"Zaltbommel","_status":"available","_mode":"bus","_direction":288,"_visuallyAccessible":false,"_disabledAccessible":false,"geojson_lng":5.114762304547364,"geojson_lat":51.798502272083326},"geometry":{"type":"Point","coordinates":[5.114762304547364,51.798502272083326]}},{"type":"Feature","properties":{"highway":"bus_stop","public_transport":"platform","name":"PGEM Huisje","ref:IFOPT":"NL:Q:62770160","_quaycode":"NL:Q:62770160","_town":"Zuilichem","_status":"available","_mode":"bus","_direction":286,"_visuallyAccessible":false,"_disabledAccessible":false,"geojson_lng":5.126366919162634,"geojson_lat":51.807310322845915},"geometry":{"type":"Point","coordinates":[5.126366919162634,51.807310322845915]}},{"type":"Feature","properties":{"highway":"bus_stop","public_transport":"platform","name":"Molenkampsweg","ref:IFOPT":"NL:Q:62870120","_quaycode":"NL:Q:62870120","_town":"Zuilichem","_status":"available","_mode":"bus","_direction":290,"_visuallyAccessible":false,"_disabledAccessible":false,"geojson_lng":5.113729245673069,"geojson_lat":51.80869274471029},"geometry":{"type":"Point","coordinates":[5.113729245673069,51.80869274471029]}}]}