{"type":"FeatureCollection","features":[{"type":"Feature","properties":{"highway":"bus_stop","public_transport":"platform","name":"De Waard","ref:IFOPT":"NL:Q:23180810","_quaycode":"NL:Q:23180810","_town":"Makkum","_status":"available","_mode":"bus","_direction":243,"_visuallyAccessible":false,"_disabledAccessible":false,"geojson_lng":5.402790464190773,"geojson_lat":53.049806398184856},"geometry":{"type":"Point","coordinates":[5.402790464190773,53.049806398184856]}},{"type":"Feature","properties":{"highway":"bus_stop","public_transport":"platform","name":"Dominee L. Touwenlaan","ref:IFOPT":"NL:Q:23180400","_quaycode":"NL:Q:23180400","_town":"Makkum","_status":"available","_mode":"bus","_direction":270,"_visuallyAccessible":false,"_disabledAccessible":false,"geojson_lng":5.404672456887462,"geojson_lat":53.05725553617771},"geometry":{"type":"Point","coordinates":[5.404672456887462,53.05725553617771]}},{"type":"Feature","properties":{"highway":"bus_stop","public_transport":"platform","name":"Dominee L. Touwenlaan","ref:IFOPT":"NL:Q:23180410","_quaycode":"NL:Q:23180410","_town":"Makkum","_status":"available","_mode":"bus","_direction":86,"_visuallyAccessible":false,"_disabledAccessible":true,"geojson_lng":5.405179537498841,"geojson_lat":53.057183572426375},"geometry":{"type":"Point","coordinates":[5.405179537498841,53.057183572426375]}},{"type":"Feature","properties":{"highway":"bus_stop","public_transport":"platform","name":"Sporthal","ref:IFOPT":"NL:Q:23180920","_quaycode":"NL:Q:23180920","_town":"Makkum","_status":"available","_mode":"bus","_direction":153,"_visuallyAccessible":false,"_disabledAccessible":true,"geojson_lng":5.402465429739167,"geojson_lat":53.0583701044401},"geometry":{"type":"Point","coordinates":[5.402465429739167,53.0583701044401]}},{"type":"Feature","properties":{"highway":"bus_stop","public_transport":"platform","name":"Villapark","ref:IFOPT":"NL:Q:23181000","_quaycode":"NL:Q:23181000","_town":"Makkum","_status":"available","_mode":"bus","_direction":131,"_visuallyAccessible":false,"_disabledAccessible":false,"geojson_lng":5.388787657754489,"geojson_lat":53.049699589548005},"geometry":{"type":"Point","coordinates":[5.388787657754489,53.049699589548005]}},{"type":"Feature","properties":{"highway":"bus_stop","public_transport":"platform","name":"De Waard","ref:IFOPT":"NL:Q:23180800","_quaycode":"NL:Q:23180800","_town":"Makkum","_status":"available","_mode":"bus","_direction":63,"_visuallyAccessible":false,"_disabledAccessible":false,"geojson_lng":5.402536862619729,"geojson_lat":53.0495548227773},"geometry":{"type":"Point","coordinates":[5.402536862619729,53.0495548227773]}},{"type":"Feature","properties":{"highway":"bus_stop","public_transport":"platform","name":"Avondrust","ref:IFOPT":"NL:Q:23180210","_quaycode":"NL:Q:23180210","_town":"Makkum","_status":"available","_mode":"bus","_direction":219,"_visuallyAccessible":false,"_disabledAccessible":false,"geojson_lng":5.397543738316581,"geojson_lat":53.059988116074166},"geometry":{"type":"Point","coordinates":[5.397543738316581,53.059988116074166]}},{"type":"Feature","properties":{"highway":"bus_stop","public_transport":"platform","name":"Sporthal","ref:IFOPT":"NL:Q:23180910","_quaycode":"NL:Q:23180910","_town":"Makkum","_status":"available","_mode":"bus","_direction":90,"_visuallyAccessible":false,"_disabledAccessible":true,"geojson_lng":5.40234612552391,"geojson_lat":53.058424035721025},"geometry":{"type":"Point","coordinates":[5.40234612552391,53.058424035721025]}},{"type":"Feature","properties":{"highway":"bus_stop","public_transport":"platform","name":"Villapark","ref:IFOPT":"NL:Q:23181100","_quaycode":"NL:Q:23181100","_town":"Makkum","_status":"available","_mode":"bus","_direction":307,"_visuallyAccessible":false,"_disabledAccessible":false,"geojson_lng":5.388981520892527,"geojson_lat":53.049735530633235},"geometry":{"type":"Point","coordinates":[5.388981520892527,53.049735530633235]}},{"type":"Feature","properties":{"highway":"bus_stop","public_transport":"platform","name":"Camping Holle Poarte","ref:IFOPT":"NL:Q:23180600","_quaycode":"NL:Q:23180600","_town":"Makkum","_status":"available","_mode":"bus","_direction":67,"_visuallyAccessible":false,"_disabledAccessible":false,"geojson_lng":5.381167118016318,"geojson_lat":53.05184711580221},"geometry":{"type":"Point","coordinates":[5.381167118016318,53.05184711580221]}}]}