{"type":"FeatureCollection","features":[{"type":"Feature","properties":{"SeqNo":"831256","Type":"S","DHID":"de:14523:1504","Parent":"de:14523:1504","Name":"Jocketa, Schiffsanlegestelle","MunicipalityCode":"14523330","Municipality":"Pöhl","DistrictCode":"","District":"","Description":"","Authority":"VVO","DelfiName":"-","THID":"D938BB0005E0","LastOperationDate":"2025-06-14T00:00:00","SEV":"nein","longitude":"12,180059","latitude":"50,545258","geojson_lng":12.180059,"geojson_lat":50.545258},"geometry":{"type":"Point","coordinates":[12.180059,50.545258]}},{"type":"Feature","properties":{"SeqNo":"831257","Type":"A","DHID":"de:14523:1504:2","Parent":"de:14523:1504","Name":"Bus","MunicipalityCode":"00000000","Municipality":"-","DistrictCode":"-","District":"-","Description":"","Authority":"VVO","DelfiName":"-","THID":"-","LastOperationDate":"","SEV":"nein","longitude":"12,180032","latitude":"50,545253","geojson_lng":12.180032,"geojson_lat":50.545253},"geometry":{"type":"Point","coordinates":[12.180032,50.545253]}},{"type":"Feature","properties":{"SeqNo":"831258","Type":"Q","DHID":"de:14523:1504:2:1","Parent":"de:14523:1504:2","Name":"A alle Rtg.","MunicipalityCode":"00000000","Municipality":"-","DistrictCode":"-","District":"-","Description":"","Authority":"VVO","DelfiName":"-","THID":"-","LastOperationDate":"","SEV":"nein","longitude":"12,180059","latitude":"50,545298","geojson_lng":12.180059,"geojson_lat":50.545298},"geometry":{"type":"Point","coordinates":[12.180059,50.545298]}},{"type":"Feature","properties":{"SeqNo":"832619","Type":"S","DHID":"de:14523:257","Parent":"de:14523:257","Name":"Jocketa, Gunzenberg","MunicipalityCode":"14523330","Municipality":"Pöhl","DistrictCode":"","District":"","Description":"","Authority":"VVO","DelfiName":"-","THID":"D938BB000101","LastOperationDate":"2025-06-14T00:00:00","SEV":"nein","longitude":"12,183742","latitude":"50,541553","geojson_lng":12.183742,"geojson_lat":50.541553},"geometry":{"type":"Point","coordinates":[12.183742,50.541553]}},{"type":"Feature","properties":{"SeqNo":"832620","Type":"A","DHID":"de:14523:257:2","Parent":"de:14523:257","Name":"Bus","MunicipalityCode":"00000000","Municipality":"-","DistrictCode":"-","District":"-","Description":"","Authority":"VVO","DelfiName":"-","THID":"-","LastOperationDate":"","SEV":"nein","longitude":"12,183742","latitude":"50,541553","geojson_lng":12.183742,"geojson_lat":50.541553},"geometry":{"type":"Point","coordinates":[12.183742,50.541553]}},{"type":"Feature","properties":{"SeqNo":"832621","Type":"Q","DHID":"de:14523:257:2:1","Parent":"de:14523:257:2","Name":"A R Jocketa","MunicipalityCode":"00000000","Municipality":"-","DistrictCode":"-","District":"-","Description":"","Authority":"VVO","DelfiName":"-","THID":"-","LastOperationDate":"","SEV":"nein","longitude":"12,183841","latitude":"50,541531","geojson_lng":12.183841,"geojson_lat":50.541531},"geometry":{"type":"Point","coordinates":[12.183841,50.541531]}},{"type":"Feature","properties":{"SeqNo":"832622","Type":"Q","DHID":"de:14523:257:2:2","Parent":"de:14523:257:2","Name":"B R Plauen","MunicipalityCode":"00000000","Municipality":"-","DistrictCode":"-","District":"-","Description":"","Authority":"VVO","DelfiName":"-","THID":"-","LastOperationDate":"","SEV":"nein","longitude":"12,18359","latitude":"50,541479","geojson_lng":12.18359,"geojson_lat":50.541479},"geometry":{"type":"Point","coordinates":[12.18359,50.541479]}}]}