{"type":"FeatureCollection","features":[{"type":"Feature","properties":{"SeqNo":"548977","Type":"S","DHID":"de:05170:36317","Parent":"de:05170:36317","Name":"Moers Kampstraße","MunicipalityCode":"05170024","Municipality":"Moers","DistrictCode":"","District":"","Description":"","Authority":"VRR","DelfiName":"-","THID":"D91432008DDD","LastOperationDate":"2025-06-14T00:00:00","SEV":"nein","longitude":"6,631498","latitude":"51,47062","geojson_lng":6.631498,"geojson_lat":51.47062},"geometry":{"type":"Point","coordinates":[6.631498,51.47062]}},{"type":"Feature","properties":{"SeqNo":"548978","Type":"Q","DHID":"de:05170:36317:0:1","Parent":"de:05170:36317","Name":"Eurotec","MunicipalityCode":"00000000","Municipality":"-","DistrictCode":"-","District":"-","Description":"","Authority":"VRR","DelfiName":"-","THID":"-","LastOperationDate":"","SEV":"nein","longitude":"6,631408","latitude":"51,470368","geojson_lng":6.631408,"geojson_lat":51.470368},"geometry":{"type":"Point","coordinates":[6.631408,51.470368]}},{"type":"Feature","properties":{"SeqNo":"548979","Type":"Q","DHID":"de:05170:36317:0:2","Parent":"de:05170:36317","Name":"Utfort Rathaus","MunicipalityCode":"00000000","Municipality":"-","DistrictCode":"-","District":"-","Description":"","Authority":"VRR","DelfiName":"-","THID":"-","LastOperationDate":"","SEV":"nein","longitude":"6,631633","latitude":"51,471157","geojson_lng":6.631633,"geojson_lat":51.471157},"geometry":{"type":"Point","coordinates":[6.631633,51.471157]}},{"type":"Feature","properties":{"SeqNo":"548980","Type":"Q","DHID":"de:05170:36317:0:3","Parent":"de:05170:36317","Name":"Buschstraße","MunicipalityCode":"00000000","Municipality":"-","DistrictCode":"-","District":"-","Description":"","Authority":"VRR","DelfiName":"-","THID":"-","LastOperationDate":"","SEV":"nein","longitude":"6,630645","latitude":"51,470726","geojson_lng":6.630645,"geojson_lat":51.470726},"geometry":{"type":"Point","coordinates":[6.630645,51.470726]}},{"type":"Feature","properties":{"SeqNo":"548984","Type":"Q","DHID":"de:05170:36318:0:3","Parent":"de:05170:36318","Name":"68 Ri Moers","MunicipalityCode":"00000000","Municipality":"-","DistrictCode":"-","District":"-","Description":"","Authority":"VRR","DelfiName":"-","THID":"-","LastOperationDate":"","SEV":"nein","longitude":"6,631866","latitude":"51,474587","geojson_lng":6.631866,"geojson_lat":51.474587},"geometry":{"type":"Point","coordinates":[6.631866,51.474587]}},{"type":"Feature","properties":{"SeqNo":"549257","Type":"S","DHID":"de:05170:36402","Parent":"de:05170:36402","Name":"Moers Buschstraße","MunicipalityCode":"05170024","Municipality":"Moers","DistrictCode":"","District":"","Description":"","Authority":"VRR","DelfiName":"-","THID":"D91432008E32","LastOperationDate":"2025-06-13T00:00:00","SEV":"nein","longitude":"6,625911","latitude":"51,470228","geojson_lng":6.625911,"geojson_lat":51.470228},"geometry":{"type":"Point","coordinates":[6.625911,51.470228]}},{"type":"Feature","properties":{"SeqNo":"549258","Type":"Q","DHID":"de:05170:36402:0:1","Parent":"de:05170:36402","Name":"Kampstraße","MunicipalityCode":"00000000","Municipality":"-","DistrictCode":"-","District":"-","Description":"","Authority":"VRR","DelfiName":"-","THID":"-","LastOperationDate":"","SEV":"nein","longitude":"6,625246","latitude":"51,470061","geojson_lng":6.625246,"geojson_lat":51.470061},"geometry":{"type":"Point","coordinates":[6.625246,51.470061]}},{"type":"Feature","properties":{"SeqNo":"549259","Type":"Q","DHID":"de:05170:36402:0:2","Parent":"de:05170:36402","Name":"Bertastraße","MunicipalityCode":"00000000","Municipality":"-","DistrictCode":"-","District":"-","Description":"","Authority":"VRR","DelfiName":"-","THID":"-","LastOperationDate":"","SEV":"nein","longitude":"6,625605","latitude":"51,470234","geojson_lng":6.625605,"geojson_lat":51.470234},"geometry":{"type":"Point","coordinates":[6.625605,51.470234]}}]}