{"type":"FeatureCollection","features":[{"type":"Feature","properties":{"highway":"bus_stop","public_transport":"platform","name":"Markt van Matena","ref:IFOPT":"NL:Q:53550110","_quaycode":"NL:Q:53550110","_town":"Papendrecht","_status":"available","_mode":"bus","_direction":112,"_visuallyAccessible":true,"_disabledAccessible":true,"geojson_lng":4.732011885397921,"geojson_lat":51.8333303817867},"geometry":{"type":"Point","coordinates":[4.732011885397921,51.8333303817867]}},{"type":"Feature","properties":{"highway":"bus_stop","public_transport":"platform","name":"Markt van Matena","ref:IFOPT":"NL:Q:53550100","_quaycode":"NL:Q:53550100","_town":"Papendrecht","_status":"available","_mode":"bus","_direction":281,"_visuallyAccessible":true,"_disabledAccessible":true,"geojson_lng":4.73192209673955,"geojson_lat":51.833518641289146},"geometry":{"type":"Point","coordinates":[4.73192209673955,51.833518641289146]}},{"type":"Feature","properties":{"highway":"bus_stop","public_transport":"platform","name":"Ketelhaven","ref:IFOPT":"NL:Q:53551240","_quaycode":"NL:Q:53551240","_town":"Papendrecht","_status":"available","_mode":"bus","_direction":270,"_visuallyAccessible":false,"_disabledAccessible":false,"geojson_lng":4.731682625317528,"geojson_lat":51.82803425609577},"geometry":{"type":"Point","coordinates":[4.731682625317528,51.82803425609577]}},{"type":"Feature","properties":{"highway":"bus_stop","public_transport":"platform","name":"Ketelhaven","ref:IFOPT":"NL:Q:53551250","_quaycode":"NL:Q:53551250","_town":"Papendrecht","_status":"available","_mode":"bus","_direction":108,"_visuallyAccessible":false,"_disabledAccessible":true,"geojson_lng":4.732515258550634,"geojson_lat":51.82764340270443},"geometry":{"type":"Point","coordinates":[4.732515258550634,51.82764340270443]}},{"type":"Feature","properties":{"highway":"bus_stop","public_transport":"platform","name":"Station Baanhoek","ref:IFOPT":"NL:Q:53650050","_quaycode":"NL:Q:53650050","_town":"Sliedrecht","_status":"available","_mode":"bus","_direction":296,"_visuallyAccessible":true,"_disabledAccessible":true,"geojson_lng":4.7425776758261335,"geojson_lat":51.82902041736009},"geometry":{"type":"Point","coordinates":[4.7425776758261335,51.82902041736009]}},{"type":"Feature","properties":{"highway":"bus_stop","public_transport":"platform","name":"Station Baanhoek","ref:IFOPT":"NL:Q:53650040","_quaycode":"NL:Q:53650040","_town":"Sliedrecht","_status":"available","_mode":"bus","_direction":112,"_visuallyAccessible":true,"_disabledAccessible":true,"geojson_lng":4.74279809235387,"geojson_lat":51.828823878382174},"geometry":{"type":"Point","coordinates":[4.74279809235387,51.828823878382174]}}]}