{"type":"FeatureCollection","features":[{"type":"Feature","properties":{"highway":"bus_stop","public_transport":"platform","name":"Egmonderstraatweg","ref:IFOPT":"NL:Q:36320080","_quaycode":"NL:Q:36320080","_town":"Egmond aan den Hoef","_status":"available","_mode":"bus","_direction":115,"_visuallyAccessible":false,"_disabledAccessible":true,"geojson_lng":4.64653848345764,"geojson_lat":52.618697469872345},"geometry":{"type":"Point","coordinates":[4.64653848345764,52.618697469872345]}},{"type":"Feature","properties":{"highway":"bus_stop","public_transport":"platform","name":"P.Schotsmanstraat","ref:IFOPT":"NL:Q:36320070","_quaycode":"NL:Q:36320070","_town":"Egmond aan Zee","_status":"available","_mode":"bus","_direction":266,"_visuallyAccessible":true,"_disabledAccessible":true,"geojson_lng":4.636507570422278,"geojson_lat":52.618949099106565},"geometry":{"type":"Point","coordinates":[4.636507570422278,52.618949099106565]}},{"type":"Feature","properties":{"highway":"bus_stop","public_transport":"platform","name":"P.Schotsmanstraat","ref:IFOPT":"NL:Q:36320040","_quaycode":"NL:Q:36320040","_town":"Egmond aan Zee","_status":"available","_mode":"bus","_direction":86,"_visuallyAccessible":false,"_disabledAccessible":true,"geojson_lng":4.636788569699441,"geojson_lat":52.61892391127538},"geometry":{"type":"Point","coordinates":[4.636788569699441,52.61892391127538]}},{"type":"Feature","properties":{"highway":"bus_stop","public_transport":"platform","name":"Sportlaan","ref:IFOPT":"NL:Q:36321150","_quaycode":"NL:Q:36321150","_town":"Egmond aan Zee","_status":"available","_mode":"bus","_direction":283,"_visuallyAccessible":true,"_disabledAccessible":true,"geojson_lng":4.6362884937162745,"geojson_lat":52.62053848696535},"geometry":{"type":"Point","coordinates":[4.6362884937162745,52.62053848696535]}},{"type":"Feature","properties":{"highway":"bus_stop","public_transport":"platform","name":"Egmonderstraatweg","ref:IFOPT":"NL:Q:36320030","_quaycode":"NL:Q:36320030","_town":"Egmond aan den Hoef","_status":"available","_mode":"bus","_direction":294,"_visuallyAccessible":true,"_disabledAccessible":true,"geojson_lng":4.646665928883673,"geojson_lat":52.61902181048932},"geometry":{"type":"Point","coordinates":[4.646665928883673,52.61902181048932]}}]}