{"type":"FeatureCollection","features":[{"type":"Feature","properties":{"SeqNo":"510109","Type":"S","DHID":"de:05111:18090","Parent":"de:05111:18090","Name":"D-Elbruchstraße","MunicipalityCode":"05111000","Municipality":"Düsseldorf","DistrictCode":"","District":"","Description":"","Authority":"VRR","DelfiName":"-","THID":"D913F70046AA","LastOperationDate":"2025-06-13T00:00:00","SEV":"nein","longitude":"6,827484","latitude":"51,179445","geojson_lng":6.827484,"geojson_lat":51.179445},"geometry":{"type":"Point","coordinates":[6.827484,51.179445]}},{"type":"Feature","properties":{"SeqNo":"510110","Type":"A","DHID":"de:05111:18090:1","Parent":"de:05111:18090","Name":"für Steig 1","MunicipalityCode":"00000000","Municipality":"-","DistrictCode":"-","District":"-","Description":"","Authority":"VRR","DelfiName":"-","THID":"-","LastOperationDate":"","SEV":"nein","longitude":"6,827681","latitude":"51,179214","geojson_lng":6.827681,"geojson_lat":51.179214},"geometry":{"type":"Point","coordinates":[6.827681,51.179214]}},{"type":"Feature","properties":{"SeqNo":"510112","Type":"A","DHID":"de:05111:18090:20","Parent":"de:05111:18090","Name":"Zugang SO St1","MunicipalityCode":"00000000","Municipality":"-","DistrictCode":"-","District":"-","Description":"","Authority":"VRR","DelfiName":"-","THID":"-","LastOperationDate":"","SEV":"nein","longitude":"6,827753","latitude":"51,179152","geojson_lng":6.827753,"geojson_lat":51.179152},"geometry":{"type":"Point","coordinates":[6.827753,51.179152]}},{"type":"Feature","properties":{"SeqNo":"510113","Type":"A","DHID":"de:05111:18090:21","Parent":"de:05111:18090","Name":"Zugang SO St2","MunicipalityCode":"00000000","Municipality":"-","DistrictCode":"-","District":"-","Description":"","Authority":"VRR","DelfiName":"-","THID":"-","LastOperationDate":"","SEV":"nein","longitude":"6,827825","latitude":"51,179219","geojson_lng":6.827825,"geojson_lat":51.179219},"geometry":{"type":"Point","coordinates":[6.827825,51.179219]}},{"type":"Feature","properties":{"SeqNo":"510114","Type":"A","DHID":"de:05111:18090:3","Parent":"de:05111:18090","Name":"für Steig 3","MunicipalityCode":"00000000","Municipality":"-","DistrictCode":"-","District":"-","Description":"","Authority":"VRR","DelfiName":"-","THID":"-","LastOperationDate":"","SEV":"nein","longitude":"6,827609","latitude":"51,179174","geojson_lng":6.827609,"geojson_lat":51.179174},"geometry":{"type":"Point","coordinates":[6.827609,51.179174]}},{"type":"Feature","properties":{"SeqNo":"510116","Type":"Q","DHID":"de:05111:18090:0:1","Parent":"de:05111:18090:1","Name":"Ri. Benrath","MunicipalityCode":"00000000","Municipality":"-","DistrictCode":"-","District":"-","Description":"","Authority":"VRR","DelfiName":"-","THID":"-","LastOperationDate":"","SEV":"nein","longitude":"6,827699","latitude":"51,179219","geojson_lng":6.827699,"geojson_lat":51.179219},"geometry":{"type":"Point","coordinates":[6.827699,51.179219]}},{"type":"Feature","properties":{"SeqNo":"510118","Type":"Q","DHID":"de:05111:18090:0:4","Parent":"de:05111:18090:3","Name":"817 BBF/SEV","MunicipalityCode":"00000000","Municipality":"-","DistrictCode":"-","District":"-","Description":"","Authority":"VRR","DelfiName":"-","THID":"-","LastOperationDate":"","SEV":"nein","longitude":"6,827645","latitude":"51,179186","geojson_lng":6.827645,"geojson_lat":51.179186},"geometry":{"type":"Point","coordinates":[6.827645,51.179186]}},{"type":"Feature","properties":{"SeqNo":"511817","Type":"S","DHID":"de:05111:18266","Parent":"de:05111:18266","Name":"D-Holthausen","MunicipalityCode":"05111000","Municipality":"Düsseldorf","DistrictCode":"","District":"","Description":"","Authority":"VRR","DelfiName":"-","THID":"D913F700475A","LastOperationDate":"2025-06-14T00:00:00","SEV":"nein","longitude":"6,832945","latitude":"51,17526","geojson_lng":6.832945,"geojson_lat":51.17526},"geometry":{"type":"Point","coordinates":[6.832945,51.17526]}},{"type":"Feature","properties":{"SeqNo":"511818","Type":"A","DHID":"de:05111:18266:1","Parent":"de:05111:18266","Name":"Steig 1 (Bus)","MunicipalityCode":"00000000","Municipality":"-","DistrictCode":"-","District":"-","Description":"","Authority":"VRR","DelfiName":"-","THID":"-","LastOperationDate":"","SEV":"nein","longitude":"6,833502","latitude":"51,175018","geojson_lng":6.833502,"geojson_lat":51.175018},"geometry":{"type":"Point","coordinates":[6.833502,51.175018]}},{"type":"Feature","properties":{"SeqNo":"511819","Type":"A","DHID":"de:05111:18266:11","Parent":"de:05111:18266","Name":"für Steig 11","MunicipalityCode":"00000000","Municipality":"-","DistrictCode":"-","District":"-","Description":"","Authority":"VRR","DelfiName":"-","THID":"-","LastOperationDate":"","SEV":"nein","longitude":"6,833035","latitude":"51,175204","geojson_lng":6.833035,"geojson_lat":51.175204},"geometry":{"type":"Point","coordinates":[6.833035,51.175204]}},{"type":"Feature","properties":{"SeqNo":"511820","Type":"A","DHID":"de:05111:18266:2","Parent":"de:05111:18266","Name":"Steig 5 (Bus)","MunicipalityCode":"00000000","Municipality":"-","DistrictCode":"-","District":"-","Description":"","Authority":"VRR","DelfiName":"-","THID":"-","LastOperationDate":"","SEV":"nein","longitude":"6,83335","latitude":"51,174742","geojson_lng":6.83335,"geojson_lat":51.174742},"geometry":{"type":"Point","coordinates":[6.83335,51.174742]}},{"type":"Feature","properties":{"SeqNo":"511821","Type":"A","DHID":"de:05111:18266:3","Parent":"de:05111:18266","Name":"Steig 2 (Tram+U)","MunicipalityCode":"00000000","Municipality":"-","DistrictCode":"-","District":"-","Description":"","Authority":"VRR","DelfiName":"-","THID":"-","LastOperationDate":"","SEV":"nein","longitude":"6,833296","latitude":"51,175345","geojson_lng":6.833296,"geojson_lat":51.175345},"geometry":{"type":"Point","coordinates":[6.833296,51.175345]}},{"type":"Feature","properties":{"SeqNo":"511822","Type":"A","DHID":"de:05111:18266:4","Parent":"de:05111:18266","Name":"Steig 3 (Tram+U)","MunicipalityCode":"00000000","Municipality":"-","DistrictCode":"-","District":"-","Description":"","Authority":"VRR","DelfiName":"-","THID":"-","LastOperationDate":"","SEV":"nein","longitude":"6,833053","latitude":"51,175243","geojson_lng":6.833053,"geojson_lat":51.175243},"geometry":{"type":"Point","coordinates":[6.833053,51.175243]}},{"type":"Feature","properties":{"SeqNo":"511823","Type":"A","DHID":"de:05111:18266:5","Parent":"de:05111:18266","Name":"Steig 4 (Tram+U)","MunicipalityCode":"00000000","Municipality":"-","DistrictCode":"-","District":"-","Description":"","Authority":"VRR","DelfiName":"-","THID":"-","LastOperationDate":"","SEV":"nein","longitude":"6,833448","latitude":"51,174793","geojson_lng":6.833448,"geojson_lat":51.174793},"geometry":{"type":"Point","coordinates":[6.833448,51.174793]}},{"type":"Feature","properties":{"SeqNo":"511824","Type":"A","DHID":"de:05111:18266:6","Parent":"de:05111:18266","Name":"Steig 6 (Bus)","MunicipalityCode":"00000000","Municipality":"-","DistrictCode":"-","District":"-","Description":"","Authority":"VRR","DelfiName":"-","THID":"-","LastOperationDate":"","SEV":"nein","longitude":"6,832173","latitude":"51,175029","geojson_lng":6.832173,"geojson_lat":51.175029},"geometry":{"type":"Point","coordinates":[6.832173,51.175029]}},{"type":"Feature","properties":{"SeqNo":"511825","Type":"Q","DHID":"de:05111:18266:1:1","Parent":"de:05111:18266:1","Name":"NE Ri. HHO, Eller, Falder","MunicipalityCode":"00000000","Municipality":"-","DistrictCode":"-","District":"-","Description":"","Authority":"VRR","DelfiName":"-","THID":"-","LastOperationDate":"","SEV":"nein","longitude":"6,833457","latitude":"51,174996","geojson_lng":6.833457,"geojson_lat":51.174996},"geometry":{"type":"Point","coordinates":[6.833457,51.174996]}},{"type":"Feature","properties":{"SeqNo":"511826","Type":"Q","DHID":"de:05111:18266:11:11","Parent":"de:05111:18266:11","Name":"11","MunicipalityCode":"00000000","Municipality":"-","DistrictCode":"-","District":"-","Description":"","Authority":"VRR","DelfiName":"-","THID":"-","LastOperationDate":"","SEV":"nein","longitude":"6,833035","latitude":"51,17526","geojson_lng":6.833035,"geojson_lat":51.17526},"geometry":{"type":"Point","coordinates":[6.833035,51.17526]}},{"type":"Feature","properties":{"SeqNo":"511827","Type":"Q","DHID":"de:05111:18266:2:5","Parent":"de:05111:18266:2","Name":"R. Itter, Benrath, Reisholz","MunicipalityCode":"00000000","Municipality":"-","DistrictCode":"-","District":"-","Description":"","Authority":"VRR","DelfiName":"-","THID":"-","LastOperationDate":"","SEV":"nein","longitude":"6,833395","latitude":"51,174765","geojson_lng":6.833395,"geojson_lat":51.174765},"geometry":{"type":"Point","coordinates":[6.833395,51.174765]}},{"type":"Feature","properties":{"SeqNo":"511828","Type":"Q","DHID":"de:05111:18266:3:1","Parent":"de:05111:18266:3","Name":"Ri. HBF, JWP","MunicipalityCode":"00000000","Municipality":"-","DistrictCode":"-","District":"-","Description":"","Authority":"VRR","DelfiName":"-","THID":"-","LastOperationDate":"","SEV":"nein","longitude":"6,833278","latitude":"51,175328","geojson_lng":6.833278,"geojson_lat":51.175328},"geometry":{"type":"Point","coordinates":[6.833278,51.175328]}},{"type":"Feature","properties":{"SeqNo":"511829","Type":"Q","DHID":"de:05111:18266:4:3","Parent":"de:05111:18266:4","Name":"Ri. JWP, Falder","MunicipalityCode":"00000000","Municipality":"-","DistrictCode":"-","District":"-","Description":"","Authority":"VRR","DelfiName":"-","THID":"-","LastOperationDate":"","SEV":"nein","longitude":"6,833035","latitude":"51,175232","geojson_lng":6.833035,"geojson_lat":51.175232},"geometry":{"type":"Point","coordinates":[6.833035,51.175232]}},{"type":"Feature","properties":{"SeqNo":"511830","Type":"Q","DHID":"de:05111:18266:5:4","Parent":"de:05111:18266:5","Name":"Ri. Benrath","MunicipalityCode":"00000000","Municipality":"-","DistrictCode":"-","District":"-","Description":"","Authority":"VRR","DelfiName":"-","THID":"-","LastOperationDate":"","SEV":"nein","longitude":"6,833466","latitude":"51,174804","geojson_lng":6.833466,"geojson_lat":51.174804},"geometry":{"type":"Point","coordinates":[6.833466,51.174804]}},{"type":"Feature","properties":{"SeqNo":"511831","Type":"Q","DHID":"de:05111:18266:6:6","Parent":"de:05111:18266:6","Name":"Ri. UNI, Falder","MunicipalityCode":"00000000","Municipality":"-","DistrictCode":"-","District":"-","Description":"","Authority":"VRR","DelfiName":"-","THID":"-","LastOperationDate":"","SEV":"nein","longitude":"6,832209","latitude":"51,175007","geojson_lng":6.832209,"geojson_lat":51.175007},"geometry":{"type":"Point","coordinates":[6.832209,51.175007]}},{"type":"Feature","properties":{"SeqNo":"513394","Type":"S","DHID":"de:05111:18717","Parent":"de:05111:18717","Name":"D-Hinter den Höfen","MunicipalityCode":"05111000","Municipality":"Düsseldorf","DistrictCode":"","District":"","Description":"","Authority":"VRR","DelfiName":"-","THID":"D913F700491D","LastOperationDate":"2025-06-14T00:00:00","SEV":"nein","longitude":"6,831975","latitude":"51,178594","geojson_lng":6.831975,"geojson_lat":51.178594},"geometry":{"type":"Point","coordinates":[6.831975,51.178594]}},{"type":"Feature","properties":{"SeqNo":"513395","Type":"A","DHID":"de:05111:18717:1","Parent":"de:05111:18717","Name":"für Steig 1","MunicipalityCode":"00000000","Municipality":"-","DistrictCode":"-","District":"-","Description":"","Authority":"VRR","DelfiName":"-","THID":"-","LastOperationDate":"","SEV":"nein","longitude":"6,831993","latitude":"51,178459","geojson_lng":6.831993,"geojson_lat":51.178459},"geometry":{"type":"Point","coordinates":[6.831993,51.178459]}},{"type":"Feature","properties":{"SeqNo":"513396","Type":"A","DHID":"de:05111:18717:2","Parent":"de:05111:18717","Name":"für Steig 2","MunicipalityCode":"00000000","Municipality":"-","DistrictCode":"-","District":"-","Description":"","Authority":"VRR","DelfiName":"-","THID":"-","LastOperationDate":"","SEV":"nein","longitude":"6,831966","latitude":"51,178724","geojson_lng":6.831966,"geojson_lat":51.178724},"geometry":{"type":"Point","coordinates":[6.831966,51.178724]}},{"type":"Feature","properties":{"SeqNo":"513397","Type":"Q","DHID":"de:05111:18717:1:1","Parent":"de:05111:18717:1","Name":"Ri. Waldfriehof","MunicipalityCode":"00000000","Municipality":"-","DistrictCode":"-","District":"-","Description":"","Authority":"VRR","DelfiName":"-","THID":"-","LastOperationDate":"","SEV":"nein","longitude":"6,832011","latitude":"51,178459","geojson_lng":6.832011,"geojson_lat":51.178459},"geometry":{"type":"Point","coordinates":[6.832011,51.178459]}},{"type":"Feature","properties":{"SeqNo":"513398","Type":"Q","DHID":"de:05111:18717:2:2","Parent":"de:05111:18717:2","Name":"Ri. IKEA","MunicipalityCode":"00000000","Municipality":"-","DistrictCode":"-","District":"-","Description":"","Authority":"VRR","DelfiName":"-","THID":"-","LastOperationDate":"","SEV":"nein","longitude":"6,831948","latitude":"51,178724","geojson_lng":6.831948,"geojson_lat":51.178724},"geometry":{"type":"Point","coordinates":[6.831948,51.178724]}},{"type":"Feature","properties":{"SeqNo":"514003","Type":"S","DHID":"de:05111:18871","Parent":"de:05111:18871","Name":"D-Marconistraße","MunicipalityCode":"05111000","Municipality":"Düsseldorf","DistrictCode":"","District":"","Description":"","Authority":"VRR","DelfiName":"-","THID":"D913F70049B7","LastOperationDate":"2025-06-14T00:00:00","SEV":"nein","longitude":"6,822794","latitude":"51,173227","geojson_lng":6.822794,"geojson_lat":51.173227},"geometry":{"type":"Point","coordinates":[6.822794,51.173227]}},{"type":"Feature","properties":{"SeqNo":"514004","Type":"A","DHID":"de:05111:18871:1","Parent":"de:05111:18871","Name":"für Steig 1","MunicipalityCode":"00000000","Municipality":"-","DistrictCode":"-","District":"-","Description":"","Authority":"VRR","DelfiName":"-","THID":"-","LastOperationDate":"","SEV":"nein","longitude":"6,822794","latitude":"51,173334","geojson_lng":6.822794,"geojson_lat":51.173334},"geometry":{"type":"Point","coordinates":[6.822794,51.173334]}},{"type":"Feature","properties":{"SeqNo":"514006","Type":"Q","DHID":"de:05111:18871:1:1","Parent":"de:05111:18871:1","Name":"1","MunicipalityCode":"00000000","Municipality":"-","DistrictCode":"-","District":"-","Description":"","Authority":"VRR","DelfiName":"-","THID":"-","LastOperationDate":"","SEV":"nein","longitude":"6,82283","latitude":"51,173317","geojson_lng":6.82283,"geojson_lat":51.173317},"geometry":{"type":"Point","coordinates":[6.82283,51.173317]}},{"type":"Feature","properties":{"SeqNo":"514013","Type":"S","DHID":"de:05111:18873","Parent":"de:05111:18873","Name":"D-Itter, Friedhof Osteingang","MunicipalityCode":"05111000","Municipality":"Düsseldorf","DistrictCode":"-","District":"-","Description":"","Authority":"VRR","DelfiName":"-","THID":"D913F70049B9","LastOperationDate":"2025-06-14T00:00:00","SEV":"nein","longitude":"6,824501","latitude":"51,172901","geojson_lng":6.824501,"geojson_lat":51.172901},"geometry":{"type":"Point","coordinates":[6.824501,51.172901]}},{"type":"Feature","properties":{"SeqNo":"514014","Type":"A","DHID":"de:05111:18873:1","Parent":"de:05111:18873","Name":"für Steig 1","MunicipalityCode":"00000000","Municipality":"-","DistrictCode":"-","District":"-","Description":"","Authority":"VRR","DelfiName":"-","THID":"-","LastOperationDate":"","SEV":"nein","longitude":"6,824609","latitude":"51,172867","geojson_lng":6.824609,"geojson_lat":51.172867},"geometry":{"type":"Point","coordinates":[6.824609,51.172867]}},{"type":"Feature","properties":{"SeqNo":"514015","Type":"A","DHID":"de:05111:18873:2","Parent":"de:05111:18873","Name":"für Steig 2","MunicipalityCode":"00000000","Municipality":"-","DistrictCode":"-","District":"-","Description":"","Authority":"VRR","DelfiName":"-","THID":"-","LastOperationDate":"","SEV":"nein","longitude":"6,82442","latitude":"51,172946","geojson_lng":6.82442,"geojson_lat":51.172946},"geometry":{"type":"Point","coordinates":[6.82442,51.172946]}},{"type":"Feature","properties":{"SeqNo":"514016","Type":"Q","DHID":"de:05111:18873:1:1","Parent":"de:05111:18873:1","Name":"Ri. Kaldenberger Str.","MunicipalityCode":"00000000","Municipality":"-","DistrictCode":"-","District":"-","Description":"Ri. Kaldenberger Str.","Authority":"VRR","DelfiName":"-","THID":"-","LastOperationDate":"","SEV":"nein","longitude":"6,824618","latitude":"51,172889","geojson_lng":6.824618,"geojson_lat":51.172889},"geometry":{"type":"Point","coordinates":[6.824618,51.172889]}},{"type":"Feature","properties":{"SeqNo":"514017","Type":"Q","DHID":"de:05111:18873:2:2","Parent":"de:05111:18873:2","Name":"Ri. Marconistr.","MunicipalityCode":"00000000","Municipality":"-","DistrictCode":"-","District":"-","Description":"Ri. Marconistr.","Authority":"VRR","DelfiName":"-","THID":"-","LastOperationDate":"","SEV":"nein","longitude":"6,82442","latitude":"51,172917","geojson_lng":6.82442,"geojson_lat":51.172917},"geometry":{"type":"Point","coordinates":[6.82442,51.172917]}},{"type":"Feature","properties":{"SeqNo":"514019","Type":"A","DHID":"de:05111:18874:1","Parent":"de:05111:18874","Name":"Ri. Holthausen","MunicipalityCode":"00000000","Municipality":"-","DistrictCode":"-","District":"-","Description":"","Authority":"VRR","DelfiName":"-","THID":"-","LastOperationDate":"","SEV":"nein","longitude":"6,82813","latitude":"51,172523","geojson_lng":6.82813,"geojson_lat":51.172523},"geometry":{"type":"Point","coordinates":[6.82813,51.172523]}},{"type":"Feature","properties":{"SeqNo":"514020","Type":"A","DHID":"de:05111:18874:2","Parent":"de:05111:18874","Name":"Ri. Am Falder","MunicipalityCode":"00000000","Municipality":"-","DistrictCode":"-","District":"-","Description":"","Authority":"VRR","DelfiName":"-","THID":"-","LastOperationDate":"","SEV":"nein","longitude":"6,827169","latitude":"51,172518","geojson_lng":6.827169,"geojson_lat":51.172518},"geometry":{"type":"Point","coordinates":[6.827169,51.172518]}},{"type":"Feature","properties":{"SeqNo":"514022","Type":"Q","DHID":"de:05111:18874:1:1","Parent":"de:05111:18874:1","Name":"Ri. Holthausen","MunicipalityCode":"00000000","Municipality":"-","DistrictCode":"-","District":"-","Description":"","Authority":"VRR","DelfiName":"-","THID":"-","LastOperationDate":"","SEV":"nein","longitude":"6,828094","latitude":"51,172546","geojson_lng":6.828094,"geojson_lat":51.172546},"geometry":{"type":"Point","coordinates":[6.828094,51.172546]}},{"type":"Feature","properties":{"SeqNo":"514023","Type":"Q","DHID":"de:05111:18874:2:2","Parent":"de:05111:18874:2","Name":"Ri. Am Falder","MunicipalityCode":"00000000","Municipality":"-","DistrictCode":"-","District":"-","Description":"","Authority":"VRR","DelfiName":"-","THID":"-","LastOperationDate":"","SEV":"nein","longitude":"6,827151","latitude":"51,172501","geojson_lng":6.827151,"geojson_lat":51.172501},"geometry":{"type":"Point","coordinates":[6.827151,51.172501]}}]}