{"type":"FeatureCollection","features":[{"type":"Feature","properties":{"SeqNo":"513630","Type":"S","DHID":"de:05111:18756","Parent":"de:05111:18756","Name":"D-Wanheimer Straße","MunicipalityCode":"05111000","Municipality":"Düsseldorf","DistrictCode":"","District":"","Description":"","Authority":"VRR","DelfiName":"-","THID":"D913F7004944","LastOperationDate":"2025-06-14T00:00:00","SEV":"nein","longitude":"6,7988","latitude":"51,286137","geojson_lng":6.7988,"geojson_lat":51.286137},"geometry":{"type":"Point","coordinates":[6.7988,51.286137]}},{"type":"Feature","properties":{"SeqNo":"513631","Type":"A","DHID":"de:05111:18756:1","Parent":"de:05111:18756","Name":"für Steig 1","MunicipalityCode":"00000000","Municipality":"-","DistrictCode":"-","District":"-","Description":"","Authority":"VRR","DelfiName":"-","THID":"-","LastOperationDate":"","SEV":"nein","longitude":"6,798513","latitude":"51,286109","geojson_lng":6.798513,"geojson_lat":51.286109},"geometry":{"type":"Point","coordinates":[6.798513,51.286109]}},{"type":"Feature","properties":{"SeqNo":"513632","Type":"A","DHID":"de:05111:18756:2","Parent":"de:05111:18756","Name":"für Steig 2","MunicipalityCode":"00000000","Municipality":"-","DistrictCode":"-","District":"-","Description":"","Authority":"VRR","DelfiName":"-","THID":"-","LastOperationDate":"","SEV":"nein","longitude":"6,799106","latitude":"51,286171","geojson_lng":6.799106,"geojson_lat":51.286171},"geometry":{"type":"Point","coordinates":[6.799106,51.286171]}},{"type":"Feature","properties":{"SeqNo":"513633","Type":"Q","DHID":"de:05111:18756:1:1","Parent":"de:05111:18756:1","Name":"Ri. Unterrath","MunicipalityCode":"00000000","Municipality":"-","DistrictCode":"-","District":"-","Description":"","Authority":"VRR","DelfiName":"-","THID":"-","LastOperationDate":"","SEV":"nein","longitude":"6,79854","latitude":"51,286165","geojson_lng":6.79854,"geojson_lat":51.286165},"geometry":{"type":"Point","coordinates":[6.79854,51.286165]}},{"type":"Feature","properties":{"SeqNo":"513634","Type":"Q","DHID":"de:05111:18756:2:2","Parent":"de:05111:18756:2","Name":"Ri. Flughafen Bf","MunicipalityCode":"00000000","Municipality":"-","DistrictCode":"-","District":"-","Description":"","Authority":"VRR","DelfiName":"-","THID":"-","LastOperationDate":"","SEV":"nein","longitude":"6,79907","latitude":"51,286109","geojson_lng":6.79907,"geojson_lat":51.286109},"geometry":{"type":"Point","coordinates":[6.79907,51.286109]}},{"type":"Feature","properties":{"SeqNo":"513675","Type":"S","DHID":"de:05111:18767","Parent":"de:05111:18767","Name":"D-Mündelheimer Weg","MunicipalityCode":"05111000","Municipality":"Düsseldorf","DistrictCode":"","District":"","Description":"","Authority":"VRR","DelfiName":"-","THID":"D913F700494F","LastOperationDate":"2025-06-14T00:00:00","SEV":"nein","longitude":"6,792934","latitude":"51,288514","geojson_lng":6.792934,"geojson_lat":51.288514},"geometry":{"type":"Point","coordinates":[6.792934,51.288514]}},{"type":"Feature","properties":{"SeqNo":"513676","Type":"A","DHID":"de:05111:18767:1","Parent":"de:05111:18767","Name":"für Steig 1","MunicipalityCode":"00000000","Municipality":"-","DistrictCode":"-","District":"-","Description":"","Authority":"VRR","DelfiName":"-","THID":"-","LastOperationDate":"","SEV":"nein","longitude":"6,793006","latitude":"51,288368","geojson_lng":6.793006,"geojson_lat":51.288368},"geometry":{"type":"Point","coordinates":[6.793006,51.288368]}},{"type":"Feature","properties":{"SeqNo":"513677","Type":"A","DHID":"de:05111:18767:2","Parent":"de:05111:18767","Name":"für Steig 2","MunicipalityCode":"00000000","Municipality":"-","DistrictCode":"-","District":"-","Description":"","Authority":"VRR","DelfiName":"-","THID":"-","LastOperationDate":"","SEV":"nein","longitude":"6,792818","latitude":"51,28871","geojson_lng":6.792818,"geojson_lat":51.28871},"geometry":{"type":"Point","coordinates":[6.792818,51.28871]}},{"type":"Feature","properties":{"SeqNo":"513678","Type":"Q","DHID":"de:05111:18767:1:1","Parent":"de:05111:18767:1","Name":"Ri. Unterrath","MunicipalityCode":"00000000","Municipality":"-","DistrictCode":"-","District":"-","Description":"","Authority":"VRR","DelfiName":"-","THID":"-","LastOperationDate":"","SEV":"nein","longitude":"6,793042","latitude":"51,288384","geojson_lng":6.793042,"geojson_lat":51.288384},"geometry":{"type":"Point","coordinates":[6.793042,51.288384]}},{"type":"Feature","properties":{"SeqNo":"513679","Type":"Q","DHID":"de:05111:18767:2:2","Parent":"de:05111:18767:2","Name":"Ri. Flughafen Bf","MunicipalityCode":"00000000","Municipality":"-","DistrictCode":"-","District":"-","Description":"","Authority":"VRR","DelfiName":"-","THID":"-","LastOperationDate":"","SEV":"nein","longitude":"6,792791","latitude":"51,288705","geojson_lng":6.792791,"geojson_lat":51.288705},"geometry":{"type":"Point","coordinates":[6.792791,51.288705]}},{"type":"Feature","properties":{"SeqNo":"513754","Type":"S","DHID":"de:05111:18786","Parent":"de:05111:18786","Name":"D-Nosenberger Straße","MunicipalityCode":"05111000","Municipality":"Düsseldorf","DistrictCode":"","District":"","Description":"","Authority":"VRR","DelfiName":"-","THID":"D913F7004962","LastOperationDate":"2025-06-14T00:00:00","SEV":"nein","longitude":"6,794102","latitude":"51,286778","geojson_lng":6.794102,"geojson_lat":51.286778},"geometry":{"type":"Point","coordinates":[6.794102,51.286778]}},{"type":"Feature","properties":{"SeqNo":"513755","Type":"A","DHID":"de:05111:18786:1","Parent":"de:05111:18786","Name":"für Steig 1","MunicipalityCode":"00000000","Municipality":"-","DistrictCode":"-","District":"-","Description":"","Authority":"VRR","DelfiName":"-","THID":"-","LastOperationDate":"","SEV":"nein","longitude":"6,79474","latitude":"51,286632","geojson_lng":6.79474,"geojson_lat":51.286632},"geometry":{"type":"Point","coordinates":[6.79474,51.286632]}},{"type":"Feature","properties":{"SeqNo":"513756","Type":"A","DHID":"de:05111:18786:2","Parent":"de:05111:18786","Name":"für Steig 2","MunicipalityCode":"00000000","Municipality":"-","DistrictCode":"-","District":"-","Description":"","Authority":"VRR","DelfiName":"-","THID":"-","LastOperationDate":"","SEV":"nein","longitude":"6,79412","latitude":"51,287047","geojson_lng":6.79412,"geojson_lat":51.287047},"geometry":{"type":"Point","coordinates":[6.79412,51.287047]}},{"type":"Feature","properties":{"SeqNo":"513757","Type":"Q","DHID":"de:05111:18786:1:1","Parent":"de:05111:18786:1","Name":"Ri. Unterrath","MunicipalityCode":"00000000","Municipality":"-","DistrictCode":"-","District":"-","Description":"","Authority":"VRR","DelfiName":"-","THID":"-","LastOperationDate":"","SEV":"nein","longitude":"6,794758","latitude":"51,286688","geojson_lng":6.794758,"geojson_lat":51.286688},"geometry":{"type":"Point","coordinates":[6.794758,51.286688]}},{"type":"Feature","properties":{"SeqNo":"513758","Type":"Q","DHID":"de:05111:18786:2:2","Parent":"de:05111:18786:2","Name":"Ri. Flughafen Bf","MunicipalityCode":"00000000","Municipality":"-","DistrictCode":"-","District":"-","Description":"","Authority":"VRR","DelfiName":"-","THID":"-","LastOperationDate":"","SEV":"nein","longitude":"6,79403","latitude":"51,287047","geojson_lng":6.79403,"geojson_lat":51.287047},"geometry":{"type":"Point","coordinates":[6.79403,51.287047]}}]}