{"type":"FeatureCollection","features":[{"type":"Feature","properties":{"SeqNo":"576711","Type":"S","DHID":"de:05366:72057","Parent":"de:05366:72057","Name":"Euskirchen Josef-Franke-Str.","MunicipalityCode":"05366016","Municipality":"Euskirchen","DistrictCode":"","District":"","Description":"","Authority":"VRR","DelfiName":"-","THID":"D914F6011979","LastOperationDate":"2025-01-06T00:00:00","SEV":"nein","longitude":"6,790707","latitude":"50,673872","geojson_lng":6.790707,"geojson_lat":50.673872},"geometry":{"type":"Point","coordinates":[6.790707,50.673872]}},{"type":"Feature","properties":{"SeqNo":"576712","Type":"A","DHID":"de:05366:72057:2","Parent":"de:05366:72057","Name":"Josef-Franke-Str.","MunicipalityCode":"00000000","Municipality":"-","DistrictCode":"-","District":"-","Description":"","Authority":"VRR","DelfiName":"-","THID":"-","LastOperationDate":"","SEV":"nein","longitude":"6,790725","latitude":"50,673884","geojson_lng":6.790725,"geojson_lat":50.673884},"geometry":{"type":"Point","coordinates":[6.790725,50.673884]}},{"type":"Feature","properties":{"SeqNo":"576713","Type":"Q","DHID":"de:05366:72057:2:21","Parent":"de:05366:72057:2","Name":"","MunicipalityCode":"00000000","Municipality":"-","DistrictCode":"-","District":"-","Description":"","Authority":"VRR","DelfiName":"-","THID":"-","LastOperationDate":"","SEV":"nein","longitude":"6,790734","latitude":"50,673946","geojson_lng":6.790734,"geojson_lat":50.673946},"geometry":{"type":"Point","coordinates":[6.790734,50.673946]}},{"type":"Feature","properties":{"SeqNo":"576714","Type":"Q","DHID":"de:05366:72057:2:22","Parent":"de:05366:72057:2","Name":"","MunicipalityCode":"00000000","Municipality":"-","DistrictCode":"-","District":"-","Description":"","Authority":"VRR","DelfiName":"-","THID":"-","LastOperationDate":"","SEV":"nein","longitude":"6,790752","latitude":"50,674026","geojson_lng":6.790752,"geojson_lat":50.674026},"geometry":{"type":"Point","coordinates":[6.790752,50.674026]}},{"type":"Feature","properties":{"SeqNo":"577436","Type":"S","DHID":"de:05366:72936","Parent":"de:05366:72936","Name":"Euskirchen Kessenich","MunicipalityCode":"05366016","Municipality":"Euskirchen","DistrictCode":"","District":"","Description":"","Authority":"VRR","DelfiName":"-","THID":"D914F6011CE8","LastOperationDate":"2025-01-06T00:00:00","SEV":"nein","longitude":"6,793473","latitude":"50,678392","geojson_lng":6.793473,"geojson_lat":50.678392},"geometry":{"type":"Point","coordinates":[6.793473,50.678392]}},{"type":"Feature","properties":{"SeqNo":"577437","Type":"A","DHID":"de:05366:72936:2","Parent":"de:05366:72936","Name":"Kessenich","MunicipalityCode":"00000000","Municipality":"-","DistrictCode":"-","District":"-","Description":"","Authority":"VRR","DelfiName":"-","THID":"-","LastOperationDate":"","SEV":"nein","longitude":"6,793455","latitude":"50,678387","geojson_lng":6.793455,"geojson_lat":50.678387},"geometry":{"type":"Point","coordinates":[6.793455,50.678387]}},{"type":"Feature","properties":{"SeqNo":"577438","Type":"Q","DHID":"de:05366:72936:2:21","Parent":"de:05366:72936:2","Name":"","MunicipalityCode":"00000000","Municipality":"-","DistrictCode":"-","District":"-","Description":"","Authority":"VRR","DelfiName":"-","THID":"-","LastOperationDate":"","SEV":"nein","longitude":"6,7935","latitude":"50,678392","geojson_lng":6.7935,"geojson_lat":50.678392},"geometry":{"type":"Point","coordinates":[6.7935,50.678392]}},{"type":"Feature","properties":{"SeqNo":"577439","Type":"Q","DHID":"de:05366:72936:2:22","Parent":"de:05366:72936:2","Name":"","MunicipalityCode":"00000000","Municipality":"-","DistrictCode":"-","District":"-","Description":"","Authority":"VRR","DelfiName":"-","THID":"-","LastOperationDate":"","SEV":"nein","longitude":"6,793428","latitude":"50,678478","geojson_lng":6.793428,"geojson_lat":50.678478},"geometry":{"type":"Point","coordinates":[6.793428,50.678478]}},{"type":"Feature","properties":{"SeqNo":"577460","Type":"S","DHID":"de:05366:72944","Parent":"de:05366:72944","Name":"Von-Binsfeld-Str.,Euskirchen","MunicipalityCode":"05366016","Municipality":"Euskirchen","DistrictCode":"","District":"","Description":"","Authority":"VRR","DelfiName":"-","THID":"D914F6011CF0","LastOperationDate":"1999-12-31T00:00:00","SEV":"nein","longitude":"6,793725","latitude":"50,680242","geojson_lng":6.793725,"geojson_lat":50.680242},"geometry":{"type":"Point","coordinates":[6.793725,50.680242]}},{"type":"Feature","properties":{"SeqNo":"577461","Type":"S","DHID":"de:05366:72945","Parent":"de:05366:72945","Name":"Euskirchen Kessenich Theodor-Nießen-Str.","MunicipalityCode":"05366016","Municipality":"Euskirchen","DistrictCode":"","District":"","Description":"","Authority":"VRR","DelfiName":"-","THID":"D914F6011CF1","LastOperationDate":"2025-01-06T00:00:00","SEV":"nein","longitude":"6,79174","latitude":"50,674054","geojson_lng":6.79174,"geojson_lat":50.674054},"geometry":{"type":"Point","coordinates":[6.79174,50.674054]}},{"type":"Feature","properties":{"SeqNo":"577462","Type":"A","DHID":"de:05366:72945:2","Parent":"de:05366:72945","Name":"Theodor-Nießen-St","MunicipalityCode":"00000000","Municipality":"-","DistrictCode":"-","District":"-","Description":"","Authority":"VRR","DelfiName":"-","THID":"-","LastOperationDate":"","SEV":"nein","longitude":"6,79174","latitude":"50,674054","geojson_lng":6.79174,"geojson_lat":50.674054},"geometry":{"type":"Point","coordinates":[6.79174,50.674054]}},{"type":"Feature","properties":{"SeqNo":"577463","Type":"Q","DHID":"de:05366:72945:2:21","Parent":"de:05366:72945:2","Name":"","MunicipalityCode":"00000000","Municipality":"-","DistrictCode":"-","District":"-","Description":"","Authority":"VRR","DelfiName":"-","THID":"-","LastOperationDate":"","SEV":"nein","longitude":"6,791668","latitude":"50,673838","geojson_lng":6.791668,"geojson_lat":50.673838},"geometry":{"type":"Point","coordinates":[6.791668,50.673838]}},{"type":"Feature","properties":{"SeqNo":"577464","Type":"Q","DHID":"de:05366:72945:2:22","Parent":"de:05366:72945:2","Name":"","MunicipalityCode":"00000000","Municipality":"-","DistrictCode":"-","District":"-","Description":"","Authority":"VRR","DelfiName":"-","THID":"-","LastOperationDate":"","SEV":"nein","longitude":"6,791731","latitude":"50,674328","geojson_lng":6.791731,"geojson_lat":50.674328},"geometry":{"type":"Point","coordinates":[6.791731,50.674328]}}]}