{"type":"FeatureCollection","features":[{"type":"Feature","properties":{"SeqNo":"577110","Type":"S","DHID":"de:05366:72435","Parent":"de:05366:72435","Name":"Euskirchen Rheder Diamantstr.","MunicipalityCode":"05366016","Municipality":"Euskirchen","DistrictCode":"","District":"","Description":"","Authority":"VRR","DelfiName":"-","THID":"D914F6011AF3","LastOperationDate":"2025-01-06T00:00:00","SEV":"nein","longitude":"6,798657","latitude":"50,621269","geojson_lng":6.798657,"geojson_lat":50.621269},"geometry":{"type":"Point","coordinates":[6.798657,50.621269]}},{"type":"Feature","properties":{"SeqNo":"577111","Type":"A","DHID":"de:05366:72435:2","Parent":"de:05366:72435","Name":"Diamantstr.","MunicipalityCode":"00000000","Municipality":"-","DistrictCode":"-","District":"-","Description":"","Authority":"VRR","DelfiName":"-","THID":"-","LastOperationDate":"","SEV":"nein","longitude":"6,798666","latitude":"50,621269","geojson_lng":6.798666,"geojson_lat":50.621269},"geometry":{"type":"Point","coordinates":[6.798666,50.621269]}},{"type":"Feature","properties":{"SeqNo":"577112","Type":"Q","DHID":"de:05366:72435:2:21","Parent":"de:05366:72435:2","Name":"","MunicipalityCode":"00000000","Municipality":"-","DistrictCode":"-","District":"-","Description":"","Authority":"VRR","DelfiName":"-","THID":"-","LastOperationDate":"","SEV":"nein","longitude":"6,798971","latitude":"50,62087","geojson_lng":6.798971,"geojson_lat":50.62087},"geometry":{"type":"Point","coordinates":[6.798971,50.62087]}},{"type":"Feature","properties":{"SeqNo":"577113","Type":"Q","DHID":"de:05366:72435:2:22","Parent":"de:05366:72435:2","Name":"","MunicipalityCode":"00000000","Municipality":"-","DistrictCode":"-","District":"-","Description":"","Authority":"VRR","DelfiName":"-","THID":"-","LastOperationDate":"","SEV":"nein","longitude":"6,798252","latitude":"50,621497","geojson_lng":6.798252,"geojson_lat":50.621497},"geometry":{"type":"Point","coordinates":[6.798252,50.621497]}},{"type":"Feature","properties":{"SeqNo":"577122","Type":"S","DHID":"de:05366:72438","Parent":"de:05366:72438","Name":"Euskirchen Rheder Hasenhecke","MunicipalityCode":"05366016","Municipality":"Euskirchen","DistrictCode":"","District":"","Description":"","Authority":"VRR","DelfiName":"-","THID":"D914F6011AF6","LastOperationDate":"2025-01-06T00:00:00","SEV":"nein","longitude":"6,794578","latitude":"50,621787","geojson_lng":6.794578,"geojson_lat":50.621787},"geometry":{"type":"Point","coordinates":[6.794578,50.621787]}},{"type":"Feature","properties":{"SeqNo":"577123","Type":"A","DHID":"de:05366:72438:2","Parent":"de:05366:72438","Name":"Hasenhecke","MunicipalityCode":"00000000","Municipality":"-","DistrictCode":"-","District":"-","Description":"","Authority":"VRR","DelfiName":"-","THID":"-","LastOperationDate":"","SEV":"nein","longitude":"6,794578","latitude":"50,621799","geojson_lng":6.794578,"geojson_lat":50.621799},"geometry":{"type":"Point","coordinates":[6.794578,50.621799]}},{"type":"Feature","properties":{"SeqNo":"577124","Type":"Q","DHID":"de:05366:72438:2:21","Parent":"de:05366:72438:2","Name":"","MunicipalityCode":"00000000","Municipality":"-","DistrictCode":"-","District":"-","Description":"","Authority":"VRR","DelfiName":"-","THID":"-","LastOperationDate":"","SEV":"nein","longitude":"6,79439","latitude":"50,621514","geojson_lng":6.79439,"geojson_lat":50.621514},"geometry":{"type":"Point","coordinates":[6.79439,50.621514]}},{"type":"Feature","properties":{"SeqNo":"577125","Type":"Q","DHID":"de:05366:72438:2:22","Parent":"de:05366:72438:2","Name":"","MunicipalityCode":"00000000","Municipality":"-","DistrictCode":"-","District":"-","Description":"","Authority":"VRR","DelfiName":"-","THID":"-","LastOperationDate":"","SEV":"nein","longitude":"6,794668","latitude":"50,621861","geojson_lng":6.794668,"geojson_lat":50.621861},"geometry":{"type":"Point","coordinates":[6.794668,50.621861]}},{"type":"Feature","properties":{"SeqNo":"577188","Type":"S","DHID":"de:05366:72464","Parent":"de:05366:72464","Name":"Euskirchen Rheder Ort","MunicipalityCode":"05366016","Municipality":"Euskirchen","DistrictCode":"","District":"","Description":"","Authority":"VRR","DelfiName":"-","THID":"D914F6011B10","LastOperationDate":"2024-12-20T00:00:00","SEV":"nein","longitude":"6,799851","latitude":"50,623434","geojson_lng":6.799851,"geojson_lat":50.623434},"geometry":{"type":"Point","coordinates":[6.799851,50.623434]}},{"type":"Feature","properties":{"SeqNo":"577189","Type":"A","DHID":"de:05366:72464:2","Parent":"de:05366:72464","Name":"Rheder Ort","MunicipalityCode":"00000000","Municipality":"-","DistrictCode":"-","District":"-","Description":"","Authority":"VRR","DelfiName":"-","THID":"-","LastOperationDate":"","SEV":"nein","longitude":"6,799851","latitude":"50,623434","geojson_lng":6.799851,"geojson_lat":50.623434},"geometry":{"type":"Point","coordinates":[6.799851,50.623434]}},{"type":"Feature","properties":{"SeqNo":"577190","Type":"Q","DHID":"de:05366:72464:2:21","Parent":"de:05366:72464:2","Name":"","MunicipalityCode":"00000000","Municipality":"-","DistrictCode":"-","District":"-","Description":"","Authority":"VRR","DelfiName":"-","THID":"-","LastOperationDate":"","SEV":"nein","longitude":"6,799851","latitude":"50,623434","geojson_lng":6.799851,"geojson_lat":50.623434},"geometry":{"type":"Point","coordinates":[6.799851,50.623434]}}]}