{"type":"FeatureCollection","features":[{"type":"Feature","properties":{"highway":"bus_stop","public_transport":"platform","name":"Roomburg","ref:IFOPT":"NL:Q:54440990","_quaycode":"NL:Q:54440990","_town":"Leiden","_status":"available","_mode":"bus","_direction":170,"_visuallyAccessible":true,"_disabledAccessible":true,"geojson_lng":4.513876731341914,"geojson_lat":52.146511497369076},"geometry":{"type":"Point","coordinates":[4.513876731341914,52.146511497369076]}},{"type":"Feature","properties":{"highway":"bus_stop","public_transport":"platform","name":"Meerburg","ref:IFOPT":"NL:Q:54520100","_quaycode":"NL:Q:54520100","_town":"Zoeterwoude-Rijndijk","_status":"available","_mode":"bus","_direction":296,"_visuallyAccessible":false,"_disabledAccessible":false,"geojson_lng":4.512086803605773,"geojson_lat":52.14045715505563},"geometry":{"type":"Point","coordinates":[4.512086803605773,52.14045715505563]}},{"type":"Feature","properties":{"highway":"bus_stop","public_transport":"platform","name":"Roomburg","ref:IFOPT":"NL:Q:54440960","_quaycode":"NL:Q:54440960","_town":"Leiden","_status":"available","_mode":"bus","_direction":320,"_visuallyAccessible":true,"_disabledAccessible":true,"geojson_lng":4.513874445895652,"geojson_lat":52.14662832957543},"geometry":{"type":"Point","coordinates":[4.513874445895652,52.14662832957543]}},{"type":"Feature","properties":{"highway":"bus_stop","public_transport":"platform","name":"De Heyderweg","ref:IFOPT":"NL:Q:54441550","_quaycode":"NL:Q:54441550","_town":"Leiden","_status":"available","_mode":"bus","_direction":250,"_visuallyAccessible":false,"_disabledAccessible":false,"geojson_lng":4.50821908730305,"geojson_lat":52.142972985983434},"geometry":{"type":"Point","coordinates":[4.50821908730305,52.142972985983434]}},{"type":"Feature","properties":{"highway":"bus_stop","public_transport":"platform","name":"De Heyderweg","ref:IFOPT":"NL:Q:54441540","_quaycode":"NL:Q:54441540","_town":"Leiden","_status":"available","_mode":"bus","_direction":85,"_visuallyAccessible":false,"_disabledAccessible":false,"geojson_lng":4.50842624121852,"geojson_lat":52.142839703425075},"geometry":{"type":"Point","coordinates":[4.50842624121852,52.142839703425075]}},{"type":"Feature","properties":{"highway":"bus_stop","public_transport":"platform","name":"Meerburg","ref:IFOPT":"NL:Q:54520090","_quaycode":"NL:Q:54520090","_town":"Zoeterwoude-Rijndijk","_status":"available","_mode":"bus","_direction":116,"_visuallyAccessible":false,"_disabledAccessible":true,"geojson_lng":4.511890421512733,"geojson_lat":52.14047738781759},"geometry":{"type":"Point","coordinates":[4.511890421512733,52.14047738781759]}}]}