{"type":"FeatureCollection","features":[{"type":"Feature","properties":{"highway":"bus_stop","public_transport":"platform","name":"Sandelingplein","ref:IFOPT":"NL:Q:31000447","_quaycode":"NL:Q:31000447","_town":"Rotterdam","_status":"available","_mode":"bus","_direction":90,"_visuallyAccessible":false,"_disabledAccessible":true,"geojson_lng":4.507015130868961,"geojson_lat":51.8896028312032},"geometry":{"type":"Point","coordinates":[4.507015130868961,51.8896028312032]}},{"type":"Feature","properties":{"highway":"bus_stop","public_transport":"platform","name":"Molenwei","ref:IFOPT":"NL:Q:31000473","_quaycode":"NL:Q:31000473","_town":"Rotterdam","_status":"available","_mode":"bus","_direction":259,"_visuallyAccessible":true,"_disabledAccessible":true,"geojson_lng":4.509913777664151,"geojson_lat":51.88473463531336},"geometry":{"type":"Point","coordinates":[4.509913777664151,51.88473463531336]}},{"type":"Feature","properties":{"highway":"bus_stop","public_transport":"platform","name":"Groene Hilledijk","ref:IFOPT":"NL:Q:31000521","_quaycode":"NL:Q:31000521","_town":"Rotterdam","_status":"available","_mode":"bus","_direction":25,"_visuallyAccessible":false,"_disabledAccessible":true,"geojson_lng":4.505218388710848,"geojson_lat":51.883441052041384},"geometry":{"type":"Point","coordinates":[4.505218388710848,51.883441052041384]}},{"type":"Feature","properties":{"highway":"bus_stop","public_transport":"platform","name":"Molenwei","ref:IFOPT":"NL:Q:31000472","_quaycode":"NL:Q:31000472","_town":"Rotterdam","_status":"available","_mode":"bus","_direction":79,"_visuallyAccessible":true,"_disabledAccessible":true,"geojson_lng":4.510177649342619,"geojson_lat":51.88461076310638},"geometry":{"type":"Point","coordinates":[4.510177649342619,51.88461076310638]}},{"type":"Feature","properties":{"highway":"bus_stop","public_transport":"platform","name":"Langegeer","ref:IFOPT":"NL:Q:31000475","_quaycode":"NL:Q:31000475","_town":"Rotterdam","_status":"available","_mode":"bus","_direction":263,"_visuallyAccessible":true,"_disabledAccessible":true,"geojson_lng":4.515038465735059,"geojson_lat":51.88562672387324},"geometry":{"type":"Point","coordinates":[4.515038465735059,51.88562672387324]}},{"type":"Feature","properties":{"highway":"bus_stop","public_transport":"platform","name":"Langegeer","ref:IFOPT":"NL:Q:31000474","_quaycode":"NL:Q:31000474","_town":"Rotterdam","_status":"available","_mode":"bus","_direction":84,"_visuallyAccessible":true,"_disabledAccessible":true,"geojson_lng":4.514967764700812,"geojson_lat":51.88552732282326},"geometry":{"type":"Point","coordinates":[4.514967764700812,51.88552732282326]}},{"type":"Feature","properties":{"highway":"bus_stop","public_transport":"platform","name":"Groene Hilledijk","ref:IFOPT":"NL:Q:31000522","_quaycode":"NL:Q:31000522","_town":"Rotterdam","_status":"available","_mode":"bus","_direction":205,"_visuallyAccessible":false,"_disabledAccessible":false,"geojson_lng":4.504785524245833,"geojson_lat":51.88329398128429},"geometry":{"type":"Point","coordinates":[4.504785524245833,51.88329398128429]}},{"type":"Feature","properties":{"highway":"bus_stop","public_transport":"platform","name":"Sandelingplein","ref:IFOPT":"NL:Q:31000446","_quaycode":"NL:Q:31000446","_town":"Rotterdam","_status":"available","_mode":"bus","_direction":270,"_visuallyAccessible":true,"_disabledAccessible":true,"geojson_lng":4.5061525330264836,"geojson_lat":51.889884005367655},"geometry":{"type":"Point","coordinates":[4.5061525330264836,51.889884005367655]}}]}