{"type":"FeatureCollection","features":[{"type":"Feature","properties":{"highway":"bus_stop","public_transport":"platform","name":"Akkerlaan","ref:IFOPT":"NL:Q:76400240","_quaycode":"NL:Q:76400240","_town":"Arnemuiden","_status":"available","_mode":"bus","_direction":276,"_visuallyAccessible":false,"_disabledAccessible":false,"geojson_lng":3.6728037585047764,"geojson_lat":51.50585728727298},"geometry":{"type":"Point","coordinates":[3.6728037585047764,51.50585728727298]}},{"type":"Feature","properties":{"highway":"bus_stop","public_transport":"platform","name":"Gerstakker","ref:IFOPT":"NL:Q:76400210","_quaycode":"NL:Q:76400210","_town":"Arnemuiden","_status":"available","_mode":"bus","_direction":61,"_visuallyAccessible":false,"_disabledAccessible":false,"geojson_lng":3.6703815363815204,"geojson_lat":51.50438324017317},"geometry":{"type":"Point","coordinates":[3.6703815363815204,51.50438324017317]}},{"type":"Feature","properties":{"highway":"bus_stop","public_transport":"platform","name":"Akkerlaan","ref:IFOPT":"NL:Q:76400250","_quaycode":"NL:Q:76400250","_town":"Arnemuiden","_status":"available","_mode":"bus","_direction":96,"_visuallyAccessible":false,"_disabledAccessible":false,"geojson_lng":3.6728637227835694,"geojson_lat":51.50579523522004},"geometry":{"type":"Point","coordinates":[3.6728637227835694,51.50579523522004]}},{"type":"Feature","properties":{"highway":"bus_stop","public_transport":"platform","name":"Brakenburg","ref:IFOPT":"NL:Q:76400040","_quaycode":"NL:Q:76400040","_town":"Arnemuiden","_status":"available","_mode":"bus","_direction":274,"_visuallyAccessible":false,"_disabledAccessible":false,"geojson_lng":3.6742914644386144,"geojson_lat":51.504224896715556},"geometry":{"type":"Point","coordinates":[3.6742914644386144,51.504224896715556]}},{"type":"Feature","properties":{"highway":"bus_stop","public_transport":"platform","name":"Brakenburg","ref:IFOPT":"NL:Q:76400230","_quaycode":"NL:Q:76400230","_town":"Arnemuiden","_status":"available","_mode":"bus","_direction":94,"_visuallyAccessible":false,"_disabledAccessible":false,"geojson_lng":3.6741501946622352,"geojson_lat":51.504150901355295},"geometry":{"type":"Point","coordinates":[3.6741501946622352,51.504150901355295]}},{"type":"Feature","properties":{"highway":"bus_stop","public_transport":"platform","name":"Clasinastraat","ref:IFOPT":"NL:Q:76400260","_quaycode":"NL:Q:76400260","_town":"Arnemuiden","_status":"available","_mode":"bus","_direction":333,"_visuallyAccessible":false,"_disabledAccessible":true,"geojson_lng":3.676323480794673,"geojson_lat":51.49884249932244},"geometry":{"type":"Point","coordinates":[3.676323480794673,51.49884249932244]}},{"type":"Feature","properties":{"highway":"bus_stop","public_transport":"platform","name":"Diodeweg","ref:IFOPT":"NL:Q:76501430","_quaycode":"NL:Q:76501430","_town":"Middelburg","_status":"available","_mode":"bus","_direction":118,"_visuallyAccessible":false,"_disabledAccessible":false,"geojson_lng":3.6517832397835712,"geojson_lat":51.49495606697365},"geometry":{"type":"Point","coordinates":[3.6517832397835712,51.49495606697365]}},{"type":"Feature","properties":{"highway":"bus_stop","public_transport":"platform","name":"Diodeweg","ref:IFOPT":"NL:Q:76501440","_quaycode":"NL:Q:76501440","_town":"Middelburg","_status":"available","_mode":"bus","_direction":302,"_visuallyAccessible":false,"_disabledAccessible":false,"geojson_lng":3.651925651997884,"geojson_lat":51.49499765738033},"geometry":{"type":"Point","coordinates":[3.651925651997884,51.49499765738033]}},{"type":"Feature","properties":{"highway":"bus_stop","public_transport":"platform","name":"Station","ref:IFOPT":"NL:Q:76400290","_quaycode":"NL:Q:76400290","_town":"Arnemuiden","_status":"available","_mode":"bus","_direction":90,"_visuallyAccessible":false,"_disabledAccessible":false,"geojson_lng":3.6697206465318484,"geojson_lat":51.500903241325304},"geometry":{"type":"Point","coordinates":[3.6697206465318484,51.500903241325304]}},{"type":"Feature","properties":{"highway":"bus_stop","public_transport":"platform","name":"Station","ref:IFOPT":"NL:Q:76400300","_quaycode":"NL:Q:76400300","_town":"Arnemuiden","_status":"available","_mode":"bus","_direction":270,"_visuallyAccessible":false,"_disabledAccessible":false,"geojson_lng":3.6697823049109255,"geojson_lat":51.50079626396784},"geometry":{"type":"Point","coordinates":[3.6697823049109255,51.50079626396784]}},{"type":"Feature","properties":{"highway":"bus_stop","public_transport":"platform","name":"Clasinastraat","ref:IFOPT":"NL:Q:76400190","_quaycode":"NL:Q:76400190","_town":"Arnemuiden","_status":"available","_mode":"bus","_direction":153,"_visuallyAccessible":false,"_disabledAccessible":true,"geojson_lng":3.676211692414135,"geojson_lat":51.49875095761205},"geometry":{"type":"Point","coordinates":[3.676211692414135,51.49875095761205]}},{"type":"Feature","properties":{"highway":"bus_stop","public_transport":"platform","name":"Gerstakker","ref:IFOPT":"NL:Q:76400220","_quaycode":"NL:Q:76400220","_town":"Arnemuiden","_status":"available","_mode":"bus","_direction":239,"_visuallyAccessible":false,"_disabledAccessible":false,"geojson_lng":3.670574625804315,"geojson_lat":51.50461083810655},"geometry":{"type":"Point","coordinates":[3.670574625804315,51.50461083810655]}},{"type":"Feature","properties":{"highway":"bus_stop","public_transport":"platform","name":"Dorp","ref:IFOPT":"NL:Q:76400030","_quaycode":"NL:Q:76400030","_town":"Nieuw- en Sint Joosland","_status":"available","_mode":"bus","_direction":56,"_visuallyAccessible":false,"_disabledAccessible":true,"geojson_lng":3.65833322474519,"geojson_lat":51.48291622063608},"geometry":{"type":"Point","coordinates":[3.65833322474519,51.48291622063608]}},{"type":"Feature","properties":{"highway":"bus_stop","public_transport":"platform","name":"Oude Rijksweg","ref:IFOPT":"NL:Q:76400050","_quaycode":"NL:Q:76400050","_town":"Nieuw- en Sint Joosland","_status":"available","_mode":"bus","_direction":220,"_visuallyAccessible":false,"_disabledAccessible":false,"geojson_lng":3.660320812945696,"geojson_lat":51.48442006763195},"geometry":{"type":"Point","coordinates":[3.660320812945696,51.48442006763195]}},{"type":"Feature","properties":{"highway":"bus_stop","public_transport":"platform","name":"Dorp","ref:IFOPT":"NL:Q:76400160","_quaycode":"NL:Q:76400160","_town":"Nieuw- en Sint Joosland","_status":"available","_mode":"bus","_direction":235,"_visuallyAccessible":false,"_disabledAccessible":false,"geojson_lng":3.658257514695558,"geojson_lat":51.48301399356248},"geometry":{"type":"Point","coordinates":[3.658257514695558,51.48301399356248]}}]}